~Version Information Block
VERS .                 2.00:  CWLS LOG ASCII STANDARD - VERSION 2.00
WRAP .                  YES:  Multiple lines per depth step
~Well Information Block
#MNEM.UNIT        Data Type   Information
#---------- ----------------  -----------
STRT .M          3666.59160:  START DEPTH
STOP .M          4124.85840:  STOP DEPTH
STEP .M             0.15240:  STEP
NULL .              -999.25:  NULL VALUE
COMP .                     :  COMPANY
WELL .         NO_15/9-19_A:  WELL
FLD  .                     :  FIELD
LOC  .                     :  LOCATION
CTRY .                     :  COUNTRY
STAT .                     :  STATE
CNTY .                     :  COUNTY
SRVC .                     :  SERVICE COMPANY
DATE .                     :  DATE
API  .                     :  API NUMBER
UWI  .                     :  UNIQUE WELL ID
~Curve Information Block
#MNEM.UNIT         API CODE   Curve Description
#---------- ----------------  -----------------
DEPTH.M                    :  
BS   .IN                   :  8.5
BVW  .V/V                  :  PHIF*SW
CARB_FLAG.UNITLESS                 :  Values changed using TEXT_EDIT
COAL_FLAG.UNITLESS                 :  Coal flag
DELTA.V/V                  :  (NPHI-PORD)
GRMAX.GAPI                 :  Gamma Ray Shale Value
GRMIN.GAPI                 :  Gamma Ray Clean Value
J    .                     :  (0.034355/8.27)*REFERENCE.H_FWL*(KLOGH/PHIF)**0.5
KLHC_INT.MD                   :  Values changed using TEXT_EDIT
KLOGH.MD                   :  Values changed using TEXT_EDIT
M    .UNITLESS                 :  1.865*KLOGH**-0.0083
N    .                     :  Saturation exponent
PERF_FLAG.UNITLESS                 :  1
PHIF .V/V                  :  Values changed using TEXT_EDIT
PORD .V/V                  :  Density porosity
RHOFL.G/CM3                 :  Fluid density
RHOMA.G/CM3                 :  Fixed RHOMA
RW   .OHMM                 :  Formation Resistivity
SAND_FLAG.UNITLESS                 :  Values changed using TEXT_EDIT
SW   .V/V                  :  Water Saturation
SWIRR.                     :  0.42*KLOGH**-0.18
TEMP .DEGC                 :  Calculated temperature curve
VSH  .V/V                  :  Merged HQLD.HQLDVSH_1 and OFFICIAL.VSH_1 at 3673.32
~Parameter Information Block
#MNEM.UNIT            Value   Description
#---------- ----------------  -----------
CUR_INT_BOT.M           4125.0108:  
PROJECT.     SLEIPNER_OST@st-vlinapp01:  
SET  .             STAT_CPI:  
~Other Information Block
~Ascii Log Data
# ...
    3904.64040 
        8.5000       0.044901         0.0000         0.0000        -0.0280 
      115.0000        14.0000       0.155433       284.8874       253.2112 
        1.7795         2.4500      -999.2500       0.180870       0.182053 
      0.800000         2.6300      0.0207810         1.0000         0.2464 
        0.1551       118.2911       0.115942
    3904.79280 
        8.5000       0.046216         0.0000         0.0000        -0.0234 
      115.0000        14.0000       0.157936       626.5060       252.9286 
        1.7679         2.4500      -999.2500       0.174988       0.174347 
      0.800000         2.6300      0.0207805         1.0000         0.2600 
        0.1551       118.2947       0.110767
    3904.94520 
        8.5000       0.047181         0.0000         0.0000        -0.0039 
      115.0000        14.0000       0.144298       638.4816       206.0512 
        1.7676         2.4500      -999.2500       0.170774       0.162342 
      0.800000         2.6300      0.0207799         1.0000         0.2719 
        0.1610       118.2982       0.116913
    3905.09760 
        8.5000       0.047993         0.0000         0.0000         0.0011 
      115.0000        14.0000       0.170809       451.8526       305.3058 
        1.7727         2.4500      -999.2500       0.180585       0.180585 
      0.800000         2.6300      0.0207794         1.0000         0.2626 
        0.1500       118.3018       0.106660
    3905.25000 
        8.5000       0.047621         0.0000         0.0000        -0.0328 
      115.0000        14.0000       0.181100       601.6776       354.0085 
        1.7685         2.4500      -999.2500       0.186271       0.189401 
      0.800000         2.6300      0.0207789         1.0000         0.2519 
        0.1460       118.3054       0.104573
    3905.40240 
        8.5000       0.046510         0.0000         0.0000        -0.0554 
      115.0000        14.0000       0.175667       575.1382       319.3015 
        1.7692         2.4500      -999.2500       0.178562       0.190705 
      0.800000         2.6300      0.0207784         1.0000         0.2567 
        0.1488       118.3090       0.102699
    3905.55480 
        8.5000       0.047285         0.0000         0.0000        -0.0305 
      115.0000        14.0000       0.186290       200.3391       370.3264 
        1.7847         2.4500      -999.2500       0.184152       0.186356 
      0.800000         2.6300      0.0207778         1.0000         0.2558 
        0.1448       118.3125       0.100515
    3905.70720 
        8.5000       0.048910         0.0000         0.0000        -0.0379 
      115.0000        14.0000       0.189153       100.0719       394.8304 
        1.7950         2.4500      -999.2500       0.190437       0.195592 
      0.800000         2.6300      0.0207773         1.0000         0.2577 
        0.1432       118.3161       0.103010
    3905.85960 
        8.5000       0.050234         0.0000         0.0000        -0.0261 
      115.0000        14.0000       0.160016       115.6545       283.1278 
        1.7929         2.4500      -999.2500       0.190821       0.191274 
      0.800000         2.6300      0.0207768         1.0000         0.2638 
        0.1520       118.3197       0.119398
    3906.01200 
        8.5000       0.051385         0.0000         0.0000        -0.0154 
      115.0000        14.0000       0.132316       127.3222       194.6182 
        1.7915         2.4500      -999.2500       0.191835       0.187991 
      0.800000         2.6300      0.0207762         1.0000         0.2681 
        0.1626       118.3232       0.138388
    3906.16440 
        8.5000       0.052419         0.0000         0.0000        -0.0377 
      115.0000        14.0000       0.185769       155.9034       386.4513 
        1.7885         2.4500      -999.2500       0.193249       0.198320 
      0.800000         2.6300      0.0207757         1.0000         0.2710 
        0.1437       118.3268       0.106544
    3906.31680 
        8.5000       0.053388         0.0000         0.0000        -0.0409 
      115.0000        14.0000       0.170874       345.3665       337.7693 
        1.7767         2.4500      -999.2500       0.199636       0.205981 
      0.800000         2.6300      0.0207752         1.0000         0.2651 
        0.1473       118.3304       0.118718
    3906.46920 
        8.5000       0.052254         0.0000         0.0000        -0.0093 
      115.0000        14.0000       0.159445       241.5114       275.0692 
        1.7820         2.4500      -999.2500       0.186719       0.180429 
      0.800000         2.6300      0.0207746         1.0000         0.2783 
        0.1528       118.3340       0.117146
    3906.62160 
        8.5000       0.048678         0.0000         0.0000         0.0275 
      115.0000        14.0000       0.128592        85.8856       138.8916 
        1.7973         2.4500      -999.2500       0.144949       0.144949 
      0.800000         2.6300      0.0207741         1.0000         0.3378 
        0.1728       118.3375       0.112990
    3906.77400 
        8.5000       0.050938         0.0000         0.0000         0.0011 
      115.0000        14.0000       0.092818       114.3044        81.2593 
        1.7931         2.4500      -999.2500       0.162771       0.162771 
      0.800000         2.6300      0.0207736         1.0000         0.3137 
        0.1903       118.3411       0.154699
    3906.92640 
        8.5000       0.051983         0.0000         0.0000        -0.0212 
      115.0000        14.0000       0.108231       142.7231       113.4152 
        1.7898         2.4500      -999.2500       0.167086       0.165563 
      0.800000         2.6300      0.0207730         1.0000         0.3111 
        0.1792       118.3447       0.142447
    3907.07880 
        8.5000       0.051358         0.0000         0.0000        -0.0119 
      115.0000        14.0000       0.114198       171.1419       133.6076 
        1.7871         2.4500      -999.2500       0.176800       0.171561 
      0.800000         2.6300      0.0207725         1.0000         0.2899 
        0.1740       118.3483       0.143175
    3907.23120 
        8.5000       0.047813         0.0000         0.0000        -0.0065 
      115.0000        14.0000       0.165572       199.5606       299.0058 
        1.7848         2.4500      -999.2500       0.188223       0.180838 
      0.800000         2.6300      0.0207720         1.0000         0.2531 
        0.1505       118.3518       0.114456
    3907.38360 
        8.5000       0.042727         0.0000         0.0000        -0.0357 
      115.0000        14.0000       0.145724       297.0229       237.3803 
        1.7789         2.4500      -999.2500       0.192908       0.197203 
      0.800000         2.6300      0.0207715         1.0000         0.2198 
        0.1569       118.3554       0.129757
    3907.53600 
        8.5000       0.040403         0.0000         0.0000        -0.0494 
      115.0000        14.0000       0.166582       639.5162       321.6232 
        1.7676         2.4500      -999.2500       0.200013       0.209787 
      0.800000         2.6300      0.0207709         1.0000         0.1991 
        0.1486       118.3590       0.121417
    3907.68840 
        8.5000       0.040850         0.0000         0.0000        -0.0715 
      115.0000        14.0000       0.185036       982.0096       405.3103 
        1.7613         2.4500      -999.2500       0.204289       0.222899 
      0.800000         2.6300      0.0207704         1.0000         0.1963 
        0.1425       118.3626       0.114058
    3907.84080 
        8.5000       0.040555         0.0000         0.0000        -0.0320 
      115.0000        14.0000       0.157937      1324.5031       286.7220 
        1.7570         2.4500      -999.2500       0.198365       0.201179 
      0.800000         2.6300      0.0207699         1.0000         0.2000 
        0.1517       118.3661       0.125495
