~Version Information Block
VERS .                 2.00:  CWLS LOG ASCII STANDARD - VERSION 2.00
WRAP .                  YES:  Multiple lines per depth step
~Well Information Block
#MNEM.UNIT        Data Type   Information
#---------- ----------------  -----------
STRT .M          3666.59160:  START DEPTH
STOP .M          4124.85840:  STOP DEPTH
STEP .M             0.15240:  STEP
NULL .              -999.25:  NULL VALUE
COMP .                     :  COMPANY
WELL .         NO_15/9-19_A:  WELL
FLD  .                     :  FIELD
LOC  .                     :  LOCATION
CTRY .                     :  COUNTRY
STAT .                     :  STATE
CNTY .                     :  COUNTY
SRVC .                     :  SERVICE COMPANY
DATE .                     :  DATE
API  .                     :  API NUMBER
UWI  .                     :  UNIQUE WELL ID
~Curve Information Block
#MNEM.UNIT         API CODE   Curve Description
#---------- ----------------  -----------------
DEPTH.M                    :  
BS   .IN                   :  8.5
BVW  .V/V                  :  PHIF*SW
CARB_FLAG.UNITLESS                 :  Values changed using TEXT_EDIT
COAL_FLAG.UNITLESS                 :  Coal flag
DELTA.V/V                  :  (NPHI-PORD)
GRMAX.GAPI                 :  Gamma Ray Shale Value
GRMIN.GAPI                 :  Gamma Ray Clean Value
J    .                     :  (0.034355/8.27)*REFERENCE.H_FWL*(KLOGH/PHIF)**0.5
KLHC_INT.MD                   :  Values changed using TEXT_EDIT
KLOGH.MD                   :  Values changed using TEXT_EDIT
M    .UNITLESS                 :  1.865*KLOGH**-0.0083
N    .                     :  Saturation exponent
PERF_FLAG.UNITLESS                 :  1
PHIF .V/V                  :  Values changed using TEXT_EDIT
PORD .V/V                  :  Density porosity
RHOFL.G/CM3                 :  Fluid density
RHOMA.G/CM3                 :  Fixed RHOMA
RW   .OHMM                 :  Formation Resistivity
SAND_FLAG.UNITLESS                 :  Values changed using TEXT_EDIT
SW   .V/V                  :  Water Saturation
SWIRR.                     :  0.42*KLOGH**-0.18
TEMP .DEGC                 :  Calculated temperature curve
VSH  .V/V                  :  Merged HQLD.HQLDVSH_1 and OFFICIAL.VSH_1 at 3673.32
~Parameter Information Block
#MNEM.UNIT            Value   Description
#---------- ----------------  -----------
CUR_INT_BOT.M           4125.0108:  
PROJECT.     SLEIPNER_OST@st-vlinapp01:  
SET  .             STAT_CPI:  
~Other Information Block
~Ascii Log Data
# ...
    3767.17560 
        8.5000       0.084348         0.0000         0.0000         0.1479 
      115.0000        14.0000       0.000353         0.0006         0.0006 
        1.9827         2.4500      -999.2500       0.087054       0.087054 
      0.800000         2.6600      0.0212689         0.0000         1.0000 
        1.5837       115.0842       0.541050
    3767.32800 
        8.5000       0.083546         0.0000         0.0000         0.1441 
      115.0000        14.0000       0.000209         0.0002         0.0002 
        2.0006         2.4500      -999.2500       0.083884       0.083884 
      0.800000         2.6600      0.0212684         0.0000         1.0000 
        1.9251       115.0877       0.587224
    3767.48040 
        8.5000       0.065128         0.0000         0.0000         0.1763 
      115.0000        14.0000       0.000411         0.0006         0.0006 
        1.9824         2.4500      -999.2500       0.065128       0.065128 
      0.800000         2.6600      0.0212678         0.0000         1.0000 
        1.5787       115.0913       0.522117
    3767.63280 
        8.5000       0.043633         0.0000         0.0000         0.2209 
      115.0000        14.0000       0.000514         0.0007         0.0007 
        1.9817         2.4500      -999.2500       0.043633       0.043633 
      0.800000         2.6600      0.0212673         0.0000         1.0000 
        1.5661       115.0948       0.502098
    3767.78520 
        8.5000       0.037658         0.0000         0.0000         0.2259 
      115.0000        14.0000       0.000530         0.0006         0.0006 
        1.9831         2.4500      -999.2500       0.037658       0.037658 
      0.800000         2.6600      0.0212667         0.0000         1.0000 
        1.5900       115.0984       0.500876
    3767.93760 
        8.5000       0.050487         0.0000         0.0000         0.2037 
      115.0000        14.0000       0.000830         0.0020         0.0020 
        1.9636         2.4500      -999.2500       0.050487       0.050487 
      0.800000         2.6600      0.0212662         0.0000         1.0000 
        1.2835       115.1019       0.457895
    3768.09000 
        8.5000       0.054822         0.0000         0.0000         0.1922 
      115.0000        14.0000       0.000662         0.0014         0.0014 
        1.9697         2.4500      -999.2500       0.054822       0.054822 
      0.800000         2.6600      0.0212656         0.0000         1.0000 
        1.3724       115.1054       0.478155
    3768.24240 
        8.5000       0.061801         0.0000         0.0000         0.1752 
      115.0000        14.0000       0.000492         0.0009         0.0009 
        1.9774         2.4500      -999.2500       0.061801       0.061801 
      0.800000         2.6600      0.0212651         0.0000         1.0000 
        1.4944       115.1090       0.505320
    3768.39480 
        8.5000       0.073609         0.0000         0.0000         0.1951 
      115.0000        14.0000       0.000366         0.0006         0.0006 
        1.9843         2.4500      -999.2500       0.073609       0.073609 
      0.800000         2.6600      0.0212645         0.0000         1.0000 
        1.6107       115.1125       0.533961
    3768.54720 
        8.5000       0.077940         0.0000         0.0000         0.1628 
      115.0000        14.0000       0.000261         0.0003         0.0003 
        1.9945         2.4500      -999.2500       0.077940       0.077940 
      0.800000         2.6600      0.0212640         0.0000         1.0000 
        1.8005       115.1160       0.565517
    3768.69960 
        8.5000       0.069924         0.0000         0.0000         0.1756 
      115.0000        14.0000       0.000260         0.0003         0.0003 
        1.9964         2.4500      -999.2500       0.069924       0.069924 
      0.800000         2.6600      0.0212634         0.0000         1.0000 
        1.8389       115.1196       0.564240
    3768.85200 
        8.5000       0.073106         0.0000         0.0000         0.2098 
      115.0000        14.0000       0.000432         0.0008         0.0008 
        1.9789         2.4500      -999.2500       0.073106       0.073106 
      0.800000         2.6600      0.0212629         0.0000         1.0000 
        1.5192       115.1231       0.519064
    3769.00440 
        8.5000       0.078474         0.0000         0.0000         0.2063 
      115.0000        14.0000       0.000360         0.0006         0.0006 
        1.9838         2.4500      -999.2500       0.078474       0.078474 
      0.800000         2.6600      0.0212623         0.0000         1.0000 
        1.6023       115.1266       0.536735
    3769.15680 
        8.5000       0.079030         0.0000         0.0000         0.1704 
      115.0000        14.0000       0.000266         0.0003         0.0003 
        1.9936         2.4500      -999.2500       0.079030       0.079030 
      0.800000         2.6600      0.0212618         0.0000         1.0000 
        1.7837       115.1302       0.564083
    3769.30920 
        8.5000       0.080103         0.0000         0.0000         0.1787 
      115.0000        14.0000       0.000261         0.0003         0.0003 
        1.9940         2.4500      -999.2500       0.080103       0.080103 
      0.800000         2.6600      0.0212612         0.0000         1.0000 
        1.7917       115.1337       0.566176
    3769.46160 
        8.5000       0.073146         0.0000         0.0000         0.1919 
      115.0000        14.0000       0.000226         0.0002         0.0002 
        2.0003         2.4500      -999.2500       0.073146       0.073146 
      0.800000         2.6600      0.0212607         0.0000         1.0000 
        1.9183       115.1372       0.577488
    3769.61400 
        8.5000       0.020638         0.0000         0.0000         0.2575 
      115.0000        14.0000       0.000643         0.0005         0.0005 
        1.9866         2.4500      -999.2500       0.020638       0.020638 
      0.800000         2.6600      0.0212601         0.0000         1.0000 
        1.6527       115.1408       0.496622
    3769.76640 
        8.5000       0.031676         0.0000         0.0000         0.2249 
      115.0000        14.0000       0.001354         0.0034         0.0034 
        1.9553         2.4500      -999.2500       0.031676       0.031676 
      0.800000         2.6600      0.0212596         0.0000         1.0000 
        1.1704       115.1443       0.419185
    3769.91880 
        8.5000       0.031720         0.0000         0.0000         0.2211 
      115.0000        14.0000       0.001303         0.0031         0.0031 
        1.9565         2.4500      -999.2500       0.031720       0.031720 
      0.800000         2.6600      0.0212590         0.0000         1.0000 
        1.1865       115.1478       0.422445
    3770.07120 
        8.5000       0.057425         0.0000         0.0000         0.1814 
      115.0000        14.0000       0.000691         0.0016         0.0016 
        1.9675         2.4500      -999.2500       0.057425       0.057425 
      0.800000         2.6600      0.0212585         0.0000         1.0000 
        1.3402       115.1514       0.474273
    3770.22360 
        8.5000       0.066095         0.0000         0.0000         0.1698 
      115.0000        14.0000       0.000568         0.0012         0.0012 
        1.9716         2.4500      -999.2500       0.066095       0.066095 
      0.800000         2.6600      0.0212579         0.0000         1.0000 
        1.4018       115.1549       0.492870
    3770.37600 
        8.5000       0.070466         0.0000         0.0000         0.1800 
      115.0000        14.0000       0.000303         0.0004         0.0004 
        1.9912         2.4500      -999.2500       0.070466       0.070466 
      0.800000         2.6600      0.0212574         0.0000         1.0000 
        1.7375       115.1584       0.549894
