~Version Information Block
VERS .                 2.00:  CWLS LOG ASCII STANDARD - VERSION 2.00
WRAP .                  YES:  Multiple lines per depth step
~Well Information Block
#MNEM.UNIT        Data Type   Information
#---------- ----------------  -----------
STRT .M          3666.59160:  START DEPTH
STOP .M          4124.85840:  STOP DEPTH
STEP .M             0.15240:  STEP
NULL .              -999.25:  NULL VALUE
COMP .                     :  COMPANY
WELL .         NO_15/9-19_A:  WELL
FLD  .                     :  FIELD
LOC  .                     :  LOCATION
CTRY .                     :  COUNTRY
STAT .                     :  STATE
CNTY .                     :  COUNTY
SRVC .                     :  SERVICE COMPANY
DATE .                     :  DATE
API  .                     :  API NUMBER
UWI  .                     :  UNIQUE WELL ID
~Curve Information Block
#MNEM.UNIT         API CODE   Curve Description
#---------- ----------------  -----------------
DEPTH.M                    :  
BS   .IN                   :  8.5
BVW  .V/V                  :  PHIF*SW
CARB_FLAG.UNITLESS                 :  Values changed using TEXT_EDIT
COAL_FLAG.UNITLESS                 :  Coal flag
DELTA.V/V                  :  (NPHI-PORD)
GRMAX.GAPI                 :  Gamma Ray Shale Value
GRMIN.GAPI                 :  Gamma Ray Clean Value
J    .                     :  (0.034355/8.27)*REFERENCE.H_FWL*(KLOGH/PHIF)**0.5
KLHC_INT.MD                   :  Values changed using TEXT_EDIT
KLOGH.MD                   :  Values changed using TEXT_EDIT
M    .UNITLESS                 :  1.865*KLOGH**-0.0083
N    .                     :  Saturation exponent
PERF_FLAG.UNITLESS                 :  1
PHIF .V/V                  :  Values changed using TEXT_EDIT
PORD .V/V                  :  Density porosity
RHOFL.G/CM3                 :  Fluid density
RHOMA.G/CM3                 :  Fixed RHOMA
RW   .OHMM                 :  Formation Resistivity
SAND_FLAG.UNITLESS                 :  Values changed using TEXT_EDIT
SW   .V/V                  :  Water Saturation
SWIRR.                     :  0.42*KLOGH**-0.18
TEMP .DEGC                 :  Calculated temperature curve
VSH  .V/V                  :  Merged HQLD.HQLDVSH_1 and OFFICIAL.VSH_1 at 3673.32
~Parameter Information Block
#MNEM.UNIT            Value   Description
#---------- ----------------  -----------
CUR_INT_BOT.M           4125.0108:  
PROJECT.     SLEIPNER_OST@st-vlinapp01:  
SET  .             STAT_CPI:  
~Other Information Block
~Ascii Log Data
# ...
    3864.40680 
        8.5000       0.021495         0.0000         0.0000        -0.0749 
      115.0000        14.0000       0.560735      4235.1201      4235.1196 
        1.7401         2.4500         1.0000       0.232444       0.252392 
      0.800000         2.6500      0.0209222         1.0000         0.0898 
        0.0934       117.3476       0.025854
    3864.55920 
        8.5000       0.020972         0.0000         0.0000        -0.1006 
      115.0000        14.0000       0.462027      2755.2319      2755.2317 
        1.7463         2.4500         1.0000       0.222737       0.252971 
      0.800000         2.6500      0.0209217         1.0000         0.0917 
        0.1009       117.3512       0.037971
    3864.71160 
        8.5000       0.020915         0.0000         0.0000        -0.0978 
      115.0000        14.0000       0.413147      2261.9089      2261.9092 
        1.7492         2.4500         1.0000       0.228683       0.257819 
      0.800000         2.6500      0.0209211         1.0000         0.0892 
        0.1046       117.3547       0.052777
    3864.86400 
        8.5000       0.020858         0.0000         0.0000        -0.0795 
      115.0000        14.0000       0.529737      3742.1570      3742.1567 
        1.7419         2.4500         1.0000       0.230128       0.251915 
      0.800000         2.6500      0.0209206         1.0000         0.0881 
        0.0955       117.3583       0.029767
    3865.01640 
        8.5000       0.020964         0.0000         0.0000        -0.0793 
      115.0000        14.0000       0.533236      3872.3669      3872.3674 
        1.7414         2.4500         0.0000       0.235021       0.256738 
      0.800000         2.6500      0.0209201         1.0000         0.0867 
        0.0949       117.3619       0.032466
    3865.16880 
        8.5000       0.020861         0.0000         0.0000        -0.0745 
      115.0000        14.0000       0.695062      6618.1699      6618.1704 
        1.7337         2.4500      -999.2500       0.236407       0.256218 
      0.800000         2.6500      0.0209195         1.0000         0.0854 
        0.0862       117.3655       0.031822
    3865.32120 
        8.5000       0.020459         0.0000         0.0000        -0.0883 
      115.0000        14.0000       0.729483      7269.5410      7269.5410 
        1.7323         2.4500      -999.2500       0.235747       0.261062 
      0.800000         2.6500      0.0209190         1.0000         0.0839 
        0.0848       117.3690       0.031178
    3865.47360 
        8.5000       0.020190         0.0000         0.0000        -0.0521 
      115.0000        14.0000       0.587961      4926.2012      4926.2007 
        1.7379         2.4500      -999.2500       0.245915       0.256774 
      0.800000         2.6500      0.0209184         1.0000         0.0797 
        0.0909       117.3726       0.030534
    3865.62600 
        8.5000       0.019496         0.0000         0.0000        -0.0957 
      115.0000        14.0000       0.531512      3757.4150      3757.4146 
        1.7418         2.4500      -999.2500       0.229514       0.257806 
      0.800000         2.6500      0.0209179         1.0000         0.0825 
        0.0955       117.3762       0.028991
    3865.77840 
        8.5000       0.019535         0.0000         0.0000        -0.0831 
      115.0000        14.0000       0.576631      4436.8101      4436.8096 
        1.7394         2.4500      -999.2500       0.230273       0.253531 
      0.800000         2.6500      0.0209174         1.0000         0.0823 
        0.0926       117.3798       0.021680
    3865.93080 
        8.5000       0.019857         0.0000         0.0000        -0.0963 
      115.0000        14.0000       0.632637      5530.3872      5330.3867 
        1.7368         2.4500      -999.2500       0.229836       0.258359 
      0.800000         2.6500      0.0209168         1.0000         0.0837 
        0.0896       117.3833       0.022828
    3866.08320 
        8.5000       0.020350         0.0000         0.0000        -0.0805 
      115.0000        14.0000       0.640290      5598.2529      5598.3794 
        1.7361         2.4500      -999.2500       0.235656       0.257840 
      0.800000         2.6500      0.0209163         1.0000         0.0837 
        0.0888       117.3869       0.023977
    3866.23560 
        8.5000       0.020451         0.0000         0.0000        -0.0921 
      115.0000        14.0000       0.596774      4956.2529      4956.2534 
        1.7378         2.4500      -999.2500       0.240161       0.266991 
      0.800000         2.6500      0.0209158         1.0000         0.0826 
        0.0908       117.3905       0.025126
    3866.38800 
        8.5000       0.020350         0.0000         0.0000        -0.0887 
      115.0000        14.0000       0.542293      4198.8540      4198.8545 
        1.7402         2.4500      -999.2500       0.246395       0.271873 
      0.800000         2.6500      0.0209152         1.0000         0.0803 
        0.0936       117.3941       0.038670
    3866.54040 
        8.5000       0.020640         0.0000         0.0000        -0.0826 
      115.0000        14.0000       0.530834      4214.9907      3958.0920 
        1.7411         2.4500      -999.2500       0.242403       0.265431 
      0.800000         2.6500      0.0209147         1.0000         0.0828 
        0.0946       117.3976       0.037971
    3866.69280 
        8.5000       0.021732         0.0000         0.0000        -0.0912 
      115.0000        14.0000       0.404883      4332.0366      2249.0703 
        1.7398         2.4500      -999.2500       0.236763       0.263252 
      0.800000         2.6500      0.0209141         1.0000         0.0891 
        0.1047       117.4012       0.060233
    3866.84520 
        8.5000       0.022695         0.0000         0.0000        -0.0616 
      115.0000        14.0000       0.433497      4449.0820      2525.2227 
        1.7394         2.4500      -999.2500       0.231898       0.246553 
      0.800000         2.6500      0.0209136         1.0000         0.0950 
        0.1025       117.4048       0.050320
    3866.99760 
        8.5000       0.022593         0.0000         0.0000        -0.0946 
      115.0000        14.0000       0.388248      4566.1279      1928.5654 
        1.7390         2.4500      -999.2500       0.220793       0.248640 
      0.800000         2.6500      0.0209131         1.0000         0.0992 
        0.1076       117.4084       0.053456
    3867.15000 
        8.5000       0.022519         0.0000         0.0000        -0.0643 
      115.0000        14.0000       0.259544      3454.0630       942.8857 
        1.7431         2.4500      -999.2500       0.241549       0.257263 
      0.800000         2.6500      0.0209125         1.0000         0.0907 
        0.1224       117.4119       0.106437
    3867.30240 
        8.5000       0.020832         0.0000         0.0000        -0.0735 
      115.0000        14.0000       0.323427      3011.9092      1314.6736 
        1.7450         2.4500      -999.2500       0.216887       0.236299 
      0.800000         2.6500      0.0209120         1.0000         0.0934 
        0.1153       117.4155       0.068476
    3867.45480 
        8.5000       0.020304         0.0000         0.0000        -0.0664 
      115.0000        14.0000       0.323777      2570.0386      1425.9232 
        1.7473         2.4500      -999.2500       0.234732       0.251292 
      0.800000         2.6500      0.0209115         1.0000         0.0843 
        0.1136       117.4191       0.080417
    3867.60720 
        8.5000       0.019877         0.0000         0.0000        -0.0757 
      115.0000        14.0000       0.307823      2128.1677      1183.0651 
        1.7501         2.4500      -999.2500       0.215465       0.235737 
      0.800000         2.6500      0.0209109         1.0000         0.0900 
        0.1175       117.4227       0.072301
