~Version Information Block
VERS .                 2.00:  CWLS LOG ASCII STANDARD - VERSION 2.00
WRAP .                  YES:  Multiple lines per depth step
~Well Information Block
#MNEM.UNIT        Data Type   Information
#---------- ----------------  -----------
STRT .M          3666.59160:  START DEPTH
STOP .M          4124.85840:  STOP DEPTH
STEP .M             0.15240:  STEP
NULL .              -999.25:  NULL VALUE
COMP .                     :  COMPANY
WELL .         NO_15/9-19_A:  WELL
FLD  .                     :  FIELD
LOC  .                     :  LOCATION
CTRY .                     :  COUNTRY
STAT .                     :  STATE
CNTY .                     :  COUNTY
SRVC .                     :  SERVICE COMPANY
DATE .                     :  DATE
API  .                     :  API NUMBER
UWI  .                     :  UNIQUE WELL ID
~Curve Information Block
#MNEM.UNIT         API CODE   Curve Description
#---------- ----------------  -----------------
DEPTH.M                    :  
BS   .IN                   :  8.5
BVW  .V/V                  :  PHIF*SW
CARB_FLAG.UNITLESS                 :  Values changed using TEXT_EDIT
COAL_FLAG.UNITLESS                 :  Coal flag
DELTA.V/V                  :  (NPHI-PORD)
GRMAX.GAPI                 :  Gamma Ray Shale Value
GRMIN.GAPI                 :  Gamma Ray Clean Value
J    .                     :  (0.034355/8.27)*REFERENCE.H_FWL*(KLOGH/PHIF)**0.5
KLHC_INT.MD                   :  Values changed using TEXT_EDIT
KLOGH.MD                   :  Values changed using TEXT_EDIT
M    .UNITLESS                 :  1.865*KLOGH**-0.0083
N    .                     :  Saturation exponent
PERF_FLAG.UNITLESS                 :  1
PHIF .V/V                  :  Values changed using TEXT_EDIT
PORD .V/V                  :  Density porosity
RHOFL.G/CM3                 :  Fluid density
RHOMA.G/CM3                 :  Fixed RHOMA
RW   .OHMM                 :  Formation Resistivity
SAND_FLAG.UNITLESS                 :  Values changed using TEXT_EDIT
SW   .V/V                  :  Water Saturation
SWIRR.                     :  0.42*KLOGH**-0.18
TEMP .DEGC                 :  Calculated temperature curve
VSH  .V/V                  :  Merged HQLD.HQLDVSH_1 and OFFICIAL.VSH_1 at 3673.32
~Parameter Information Block
#MNEM.UNIT            Value   Description
#---------- ----------------  -----------
CUR_INT_BOT.M           4125.0108:  
PROJECT.     SLEIPNER_OST@st-vlinapp01:  
SET  .             STAT_CPI:  
~Other Information Block
~Ascii Log Data
# ...
    3944.87400 
        8.5000       0.104867         0.0000         0.0000         0.0354 
      115.0000        14.0000       0.007962         1.3412         0.3989 
        1.8605         2.4500      -999.2500       0.108570       0.108570 
      0.800000         2.6500      0.0206418         1.0000         1.0000 
        0.4956       119.2341       0.436713
    3945.02640 
        8.5000       0.108037         0.0000         0.0000         0.0262 
      115.0000        14.0000       0.010256         2.4318         0.6983 
        1.8513         2.4500      -999.2500       0.114571       0.114571 
      0.800000         2.6500      0.0206412         1.0000         0.9955 
        0.4480       119.2376       0.411109
    3945.17880 
        8.5000       0.110380         0.0000         0.0000         0.0444 
      115.0000        14.0000       0.010404         1.5175         0.7356 
        1.8586         2.4500      -999.2500       0.117287       0.117287 
      0.800000         2.6500      0.0206407         1.0000         0.9993 
        0.4439       119.2412       0.443267
    3945.33120 
        8.5000       0.107067         0.0000         0.0000         0.0240 
      115.0000        14.0000       0.006843         0.0760         0.2905 
        1.8876         2.4500      -999.2500       0.107067       0.107067 
      0.800000         2.6500      0.0206402         1.0000         1.0000 
        0.5247       119.2448       0.481505
    3945.48360 
        8.5000       0.109368         0.0000         0.0000         0.0414 
      115.0000        14.0000       0.007101         0.1635         0.3253 
        1.8932         2.4500      -999.2500       0.111334       0.111334 
      0.800000         2.6500      0.0206397         0.0000         1.0000 
        0.5141       119.2483       0.525228
    3945.63600 
        8.5000       0.107694         0.0000         0.0000         0.0451 
      115.0000        14.0000       0.007377         0.3865         0.3528 
        1.8798         2.4500      -999.2500       0.111890       0.111890 
      0.800000         2.6500      0.0206392         0.0000         1.0000 
        0.5066       119.2519       0.516465
    3945.78840 
        8.5000       0.103217         0.0000         0.0000         0.0401 
      115.0000        14.0000       0.005334         0.7047         0.1703 
        1.8704         2.4500      -999.2500       0.103277       0.103277 
      0.800000         2.6500      0.0206386         0.0000         1.0000 
        0.5776       119.2555       0.536851
    3945.94080 
        8.5000       0.101416         0.0000         0.0000         0.0480 
      115.0000        14.0000       0.004711         0.2679         0.1335 
        1.8855         2.4500      -999.2500       0.103782       0.103782 
      0.800000         2.6500      0.0206381         0.0000         1.0000 
        0.6035       119.2590       0.597802
    3946.09320 
        8.5000       0.093554         0.0000         0.0000         0.0488 
      115.0000        14.0000       0.003426         0.0572         0.0636 
        1.9098         2.4500      -999.2500       0.093554       0.093554 
      0.800000         2.6500      0.0206376         0.0000         1.0000 
        0.6896       119.2626       0.595030
    3946.24560 
        8.5000       0.078438         0.0000         0.0000         0.0658 
      115.0000        14.0000       0.002146         0.0380         0.0209 
        1.8940         2.4500      -999.2500       0.078438       0.078438 
      0.800000         2.6500      0.0206371         0.0000         1.0000 
        0.8424       119.2662       0.594644
    3946.39800 
        8.5000       0.080532         0.0000         0.0000         0.0564 
      115.0000        14.0000       0.001867         0.5488         0.0163 
        1.8743         2.4500      -999.2500       0.080532       0.080532 
      0.800000         2.6500      0.0206365         0.0000         1.0000 
        0.8815       119.2697       0.682881
    3946.55040 
        8.5000       0.087540         0.0000         0.0000         0.0407 
      115.0000        14.0000       0.002414         0.9410         0.0296 
        1.8659         2.4500      -999.2500       0.087540       0.087540 
      0.800000         2.6500      0.0206360         0.0000         1.0000 
        0.7916       119.2733       0.665287
    3946.70280 
        8.5000       0.078953         0.0000         0.0000         0.0676 
      115.0000        14.0000       0.001878         0.9379         0.0161 
        1.8660         2.4500      -999.2500       0.078953       0.078953 
      0.800000         2.6500      0.0206355         0.0000         1.0000 
        0.8827       119.2769       0.659297
    3946.85520 
        8.5000       0.077304         0.0000         0.0000         0.0433 
      115.0000        14.0000       0.001853         0.7439         0.0154 
        1.8696         2.4500      -999.2500       0.077304       0.077304 
      0.800000         2.6500      0.0206350         0.0000         1.0000 
        0.8904       119.2804       0.643307
    3947.00760 
        8.5000       0.094527         0.0000         0.0000         0.0251 
      115.0000        14.0000       0.003075         0.2129         0.0518 
        1.8891         2.4500      -999.2500       0.094527       0.094527 
      0.800000         2.6500      0.0206344         0.0000         1.0000 
        0.7156       119.2840       0.655297
    3947.16000 
        8.5000       0.100868         0.0000         0.0000         0.0218 
      115.0000        14.0000       0.004572         0.0558         0.1237 
        1.9102         2.4500      -999.2500       0.102132       0.102132 
      0.800000         2.6500      0.0206339         0.0000         1.0000 
        0.6118       119.2876       0.587931
    3947.31240 
        8.5000       0.108866         0.0000         0.0000        -0.0035 
      115.0000        14.0000       0.007826         0.0440         0.4274 
        1.8536         2.4500      -999.2500       0.120437       0.111854 
      0.800000         2.6500      0.0206334         0.0000         0.9549 
        0.4894       119.2912       0.611574
    3947.46480 
        8.5000       0.119463         0.0000         0.0000        -0.0319 
      115.0000        14.0000       0.038605         7.4530        12.9134 
        1.8144         2.4500      -999.2500       0.149527       0.152273 
      0.800000         2.6500      0.0206329         1.0000         0.8142 
        0.2650       119.2947       0.336911
    3947.61720 
        8.5000       0.118172         0.0000         0.0000         0.0147 
      115.0000        14.0000       0.019086        57.6328         2.6836 
        1.8033         2.4500      -999.2500       0.127127       0.127127 
      0.800000         2.6500      0.0206324         1.0000         0.9400 
        0.3516       119.2983       0.319673
    3947.76960 
        8.5000       0.127483         0.0000         0.0000        -0.0127 
      115.0000        14.0000       0.047832        93.9400        19.9198 
        1.7960         2.4500      -999.2500       0.150254       0.145333 
      0.800000         2.6500      0.0206318         1.0000         0.8524 
        0.2451       119.3019       0.254416
    3947.92200 
        8.5000       0.133127         0.0000         0.0000        -0.0019 
      115.0000        14.0000       0.062911        61.2385        36.0831 
        1.8024         2.4500      -999.2500       0.157332       0.148098 
      0.800000         2.6500      0.0206313         1.0000         0.8541 
        0.2203       119.3054       0.238663
    3948.07440 
        8.5000       0.140706         0.0000         0.0000        -0.0331 
      115.0000        14.0000       0.082351        40.4030        67.7166 
        1.8086         2.4500      -999.2500       0.172316       0.175567 
      0.800000         2.6500      0.0206308         1.0000         0.8275 
        0.1967       119.3090       0.341713
