~Version Information Block
VERS .                 2.00:  CWLS LOG ASCII STANDARD - VERSION 2.00
WRAP .                  YES:  Multiple lines per depth step
~Well Information Block
#MNEM.UNIT        Data Type   Information
#---------- ----------------  -----------
STRT .M          3666.59160:  START DEPTH
STOP .M          4124.85840:  STOP DEPTH
STEP .M             0.15240:  STEP
NULL .              -999.25:  NULL VALUE
COMP .                     :  COMPANY
WELL .         NO_15/9-19_A:  WELL
FLD  .                     :  FIELD
LOC  .                     :  LOCATION
CTRY .                     :  COUNTRY
STAT .                     :  STATE
CNTY .                     :  COUNTY
SRVC .                     :  SERVICE COMPANY
DATE .                     :  DATE
API  .                     :  API NUMBER
UWI  .                     :  UNIQUE WELL ID
~Curve Information Block
#MNEM.UNIT         API CODE   Curve Description
#---------- ----------------  -----------------
DEPTH.M                    :  
BS   .IN                   :  8.5
BVW  .V/V                  :  PHIF*SW
CARB_FLAG.UNITLESS                 :  Values changed using TEXT_EDIT
COAL_FLAG.UNITLESS                 :  Coal flag
DELTA.V/V                  :  (NPHI-PORD)
GRMAX.GAPI                 :  Gamma Ray Shale Value
GRMIN.GAPI                 :  Gamma Ray Clean Value
J    .                     :  (0.034355/8.27)*REFERENCE.H_FWL*(KLOGH/PHIF)**0.5
KLHC_INT.MD                   :  Values changed using TEXT_EDIT
KLOGH.MD                   :  Values changed using TEXT_EDIT
M    .UNITLESS                 :  1.865*KLOGH**-0.0083
N    .                     :  Saturation exponent
PERF_FLAG.UNITLESS                 :  1
PHIF .V/V                  :  Values changed using TEXT_EDIT
PORD .V/V                  :  Density porosity
RHOFL.G/CM3                 :  Fluid density
RHOMA.G/CM3                 :  Fixed RHOMA
RW   .OHMM                 :  Formation Resistivity
SAND_FLAG.UNITLESS                 :  Values changed using TEXT_EDIT
SW   .V/V                  :  Water Saturation
SWIRR.                     :  0.42*KLOGH**-0.18
TEMP .DEGC                 :  Calculated temperature curve
VSH  .V/V                  :  Merged HQLD.HQLDVSH_1 and OFFICIAL.VSH_1 at 3673.32
~Parameter Information Block
#MNEM.UNIT            Value   Description
#---------- ----------------  -----------
CUR_INT_BOT.M           4125.0108:  
PROJECT.     SLEIPNER_OST@st-vlinapp01:  
SET  .             STAT_CPI:  
~Other Information Block
~Ascii Log Data
# ...
    3964.99080 
        8.5000       0.130773         0.0000         0.0000         0.0076 
      115.0000        14.0000       0.023313         0.3806         4.5248 
        1.8800         2.4500      -999.2500       0.143677       0.143677 
      0.800000         2.6500      0.0205729         1.0000         0.9774 
        0.3201       119.7049       0.471040
    3965.14320 
        8.5000       0.137218         0.0000         0.0000        -0.0045 
      115.0000        14.0000       0.050697         0.5381        24.4776 
        1.8746         2.4500      -999.2500       0.164352       0.156167 
      0.800000         2.6500      0.0205724         1.0000         0.8886 
        0.2362       119.7085       0.435248
    3965.29560 
        8.5000       0.138752         0.0000         0.0000         0.0026 
      115.0000        14.0000       0.054658         1.6795        27.7897 
        1.8570         2.4500      -999.2500       0.160524       0.160524 
      0.800000         2.6500      0.0205719         1.0000         0.9087 
        0.2309       119.7120       0.346436
    3965.44800 
        8.5000       0.137545         0.0000         0.0000         0.0237 
      115.0000        14.0000       0.032282         5.1402         8.7520 
        1.8398         2.4500      -999.2500       0.144927       0.144927 
      0.800000         2.6500      0.0205714         1.0000         0.9871 
        0.2842       119.7156       0.347772
    3965.60040 
        8.5000       0.134097         0.0000         0.0000         0.0287 
      115.0000        14.0000       0.022039         8.9591         3.7743 
        1.8314         2.4500      -999.2500       0.134097       0.134097 
      0.800000         2.6500      0.0205709         1.0000         1.0000 
        0.3307       119.7192       0.357129
    3965.75280 
        8.5000       0.145216         0.0000         0.0000         0.0217 
      115.0000        14.0000       0.057754        12.9635        32.0506 
        1.8258         2.4500      -999.2500       0.165820       0.165820 
      0.800000         2.6500      0.0205703         1.0000         0.8990 
        0.2250       119.7227       0.400208
    3965.90520 
        8.5000       0.143890         0.0000         0.0000         0.0108 
      115.0000        14.0000       0.050436        14.5337        23.8259 
        1.8240         2.4500      -999.2500       0.161639       0.161639 
      0.800000         2.6500      0.0205698         1.0000         0.9130 
        0.2373       119.7263       0.397693
    3966.05760 
        8.5000    -999.250000         0.0000         0.0000         0.0217 
      115.0000        14.0000       0.041105        15.0100        14.9808 
        1.8235         2.4500      -999.2500       0.153007       0.153007 
      0.800000         2.6500   -999.2500000         1.0000      -999.2500 
        0.2580      -999.2500       0.360347
    3966.21000 
        8.5000    -999.250000         0.0000         0.0000         0.0269 
      115.0000        14.0000       0.031103         8.1225         8.1225 
        1.8329         2.4500      -999.2500       0.144897       0.144897 
      0.800000         2.6500   -999.2500000         1.0000      -999.2500 
        0.2881      -999.2500       0.407132
    3966.36240 
        8.5000    -999.250000         0.0000         0.0000      -999.2500 
     -999.2500      -999.2500    -999.250000      -999.2500      -999.2500 
     -999.2500      -999.2500      -999.2500    -999.250000    -999.250000 
      0.900000      -999.2500   -999.2500000      -999.2500      -999.2500 
     -999.2500      -999.2500       0.377260
    3966.51480 
        8.5000    -999.250000         0.0000         0.0000      -999.2500 
     -999.2500      -999.2500    -999.250000      -999.2500      -999.2500 
     -999.2500      -999.2500      -999.2500    -999.250000    -999.250000 
      0.900000      -999.2500   -999.2500000      -999.2500      -999.2500 
     -999.2500      -999.2500       0.342988
    3966.66720 
        8.5000    -999.250000         0.0000         0.0000      -999.2500 
     -999.2500      -999.2500    -999.250000      -999.2500      -999.2500 
     -999.2500      -999.2500      -999.2500    -999.250000    -999.250000 
      0.900000      -999.2500   -999.2500000      -999.2500      -999.2500 
     -999.2500      -999.2500       0.377284
    3966.81960 
        8.5000    -999.250000         0.0000         0.0000      -999.2500 
     -999.2500      -999.2500    -999.250000      -999.2500      -999.2500 
     -999.2500      -999.2500      -999.2500    -999.250000    -999.250000 
      0.900000      -999.2500   -999.2500000      -999.2500      -999.2500 
     -999.2500      -999.2500       0.355036
    3966.97200 
        8.5000    -999.250000         0.0000         0.0000      -999.2500 
     -999.2500      -999.2500    -999.250000      -999.2500      -999.2500 
     -999.2500      -999.2500      -999.2500    -999.250000    -999.250000 
      0.900000      -999.2500   -999.2500000      -999.2500      -999.2500 
     -999.2500      -999.2500       0.307500
    3967.12440 
        8.5000    -999.250000         0.0000         0.0000      -999.2500 
     -999.2500      -999.2500    -999.250000      -999.2500      -999.2500 
     -999.2500      -999.2500      -999.2500    -999.250000    -999.250000 
      0.900000      -999.2500   -999.2500000      -999.2500      -999.2500 
     -999.2500      -999.2500       0.235133
    3967.27680 
        8.5000    -999.250000         0.0000         0.0000      -999.2500 
     -999.2500      -999.2500    -999.250000      -999.2500      -999.2500 
     -999.2500      -999.2500      -999.2500    -999.250000    -999.250000 
      0.900000      -999.2500   -999.2500000      -999.2500      -999.2500 
     -999.2500      -999.2500       0.217172
    3967.42920 
        8.5000    -999.250000         0.0000         0.0000      -999.2500 
     -999.2500      -999.2500    -999.250000      -999.2500      -999.2500 
     -999.2500      -999.2500      -999.2500    -999.250000    -999.250000 
      0.900000      -999.2500   -999.2500000      -999.2500      -999.2500 
     -999.2500      -999.2500       0.223517
    3967.58160 
        8.5000    -999.250000         0.0000         0.0000      -999.2500 
     -999.2500      -999.2500    -999.250000      -999.2500      -999.2500 
     -999.2500      -999.2500      -999.2500    -999.250000    -999.250000 
      0.900000      -999.2500   -999.2500000      -999.2500      -999.2500 
     -999.2500      -999.2500       0.234176
    3967.73400 
        8.5000    -999.250000         0.0000         0.0000      -999.2500 
     -999.2500      -999.2500    -999.250000      -999.2500      -999.2500 
     -999.2500      -999.2500      -999.2500    -999.250000    -999.250000 
      0.900000      -999.2500   -999.2500000      -999.2500      -999.2500 
     -999.2500      -999.2500       0.221896
    3967.88640 
        8.5000    -999.250000         0.0000         0.0000      -999.2500 
     -999.2500      -999.2500    -999.250000      -999.2500      -999.2500 
     -999.2500      -999.2500      -999.2500    -999.250000    -999.250000 
      0.900000      -999.2500   -999.2500000      -999.2500      -999.2500 
     -999.2500      -999.2500       0.247353
    3968.03880 
        8.5000    -999.250000         0.0000         0.0000      -999.2500 
     -999.2500      -999.2500    -999.250000      -999.2500      -999.2500 
     -999.2500      -999.2500      -999.2500    -999.250000    -999.250000 
      0.900000      -999.2500   -999.2500000      -999.2500      -999.2500 
     -999.2500      -999.2500       0.322881
    3968.19120 
        8.5000    -999.250000         0.0000         0.0000      -999.2500 
     -999.2500      -999.2500    -999.250000      -999.2500      -999.2500 
     -999.2500      -999.2500      -999.2500    -999.250000    -999.250000 
      0.900000      -999.2500   -999.2500000      -999.2500      -999.2500 
     -999.2500      -999.2500       0.302293
