~Version Information Block
VERS .                 2.00:  CWLS LOG ASCII STANDARD - VERSION 2.00
WRAP .                  YES:  Multiple lines per depth step
~Well Information Block
#MNEM.UNIT        Data Type   Information
#---------- ----------------  -----------
STRT .M          3666.59160:  START DEPTH
STOP .M          4124.85840:  STOP DEPTH
STEP .M             0.15240:  STEP
NULL .              -999.25:  NULL VALUE
COMP .                     :  COMPANY
WELL .         NO_15/9-19_A:  WELL
FLD  .                     :  FIELD
LOC  .                     :  LOCATION
CTRY .                     :  COUNTRY
STAT .                     :  STATE
CNTY .                     :  COUNTY
SRVC .                     :  SERVICE COMPANY
DATE .                     :  DATE
API  .                     :  API NUMBER
UWI  .                     :  UNIQUE WELL ID
~Curve Information Block
#MNEM.UNIT         API CODE   Curve Description
#---------- ----------------  -----------------
DEPTH.M                    :  
BS   .IN                   :  8.5
BVW  .V/V                  :  PHIF*SW
CARB_FLAG.UNITLESS                 :  Values changed using TEXT_EDIT
COAL_FLAG.UNITLESS                 :  Coal flag
DELTA.V/V                  :  (NPHI-PORD)
GRMAX.GAPI                 :  Gamma Ray Shale Value
GRMIN.GAPI                 :  Gamma Ray Clean Value
J    .                     :  (0.034355/8.27)*REFERENCE.H_FWL*(KLOGH/PHIF)**0.5
KLHC_INT.MD                   :  Values changed using TEXT_EDIT
KLOGH.MD                   :  Values changed using TEXT_EDIT
M    .UNITLESS                 :  1.865*KLOGH**-0.0083
N    .                     :  Saturation exponent
PERF_FLAG.UNITLESS                 :  1
PHIF .V/V                  :  Values changed using TEXT_EDIT
PORD .V/V                  :  Density porosity
RHOFL.G/CM3                 :  Fluid density
RHOMA.G/CM3                 :  Fixed RHOMA
RW   .OHMM                 :  Formation Resistivity
SAND_FLAG.UNITLESS                 :  Values changed using TEXT_EDIT
SW   .V/V                  :  Water Saturation
SWIRR.                     :  0.42*KLOGH**-0.18
TEMP .DEGC                 :  Calculated temperature curve
VSH  .V/V                  :  Merged HQLD.HQLDVSH_1 and OFFICIAL.VSH_1 at 3673.32
~Parameter Information Block
#MNEM.UNIT            Value   Description
#---------- ----------------  -----------
CUR_INT_BOT.M           4125.0108:  
PROJECT.     SLEIPNER_OST@st-vlinapp01:  
SET  .             STAT_CPI:  
~Other Information Block
~Ascii Log Data
# ...
    3884.52360 
        8.5000       0.041449         1.0000         0.0000        -0.0011 
      115.0000        14.0000       0.054500        26.3997         0.1000 
        1.8150         2.4500      -999.2500       0.182305       0.172752 
      0.800000         2.7100      0.0208514         0.0000         0.2313 
        0.2259       117.8194       0.217981
    3884.67600 
        8.5000       0.039005         1.0000         0.0000         0.0140 
      115.0000        14.0000       0.072101        27.0432         0.1000 
        1.8146         2.4500      -999.2500       0.155044       0.155044 
      0.800000         2.7100      0.0208508         0.0000         0.2563 
        0.2103       117.8230       0.174553
    3884.82840 
        8.5000       0.039382         1.0000         0.0000         0.0097 
      115.0000        14.0000       0.046708        29.2341         0.1000 
        1.8135         2.4500      -999.2500       0.168533       0.168533 
      0.800000         2.7100      0.0208503         0.0000         0.2377 
        0.2422       117.8265       0.224417
    3884.98080 
        8.5000       0.038742         0.0000         0.0000         0.0167 
      115.0000        14.0000       0.058315        31.0721        31.8774 
        1.8126         2.4500         0.0000       0.161767       0.161767 
      0.800000         2.6600      0.0208498         1.0000         0.2435 
        0.2252       117.8301       0.198961
    3885.13320 
        8.5000       0.040957         0.0000         0.0000        -0.0036 
      115.0000        14.0000       0.060942        34.9622        42.0889 
        1.8108         2.4500         1.0000       0.195573       0.186997 
      0.800000         2.6600      0.0208492         1.0000         0.2123 
        0.2142       117.8337       0.215602
    3885.28560 
        8.5000       0.040044         0.0000         0.0000         0.0093 
      115.0000        14.0000       0.054531        46.4593        30.0247 
        1.8065         2.4500         1.0000       0.174244       0.174244 
      0.800000         2.6600      0.0208487         1.0000         0.2325 
        0.2277       117.8373       0.212942
    3885.43800 
        8.5000       0.041262         0.0000         0.0000        -0.0024 
      115.0000        14.0000       0.072828        46.4317        56.8125 
        1.8065         2.4500         1.0000       0.184847       0.175800 
      0.800000         2.6600      0.0208482         1.0000         0.2258 
        0.2030       117.8408       0.191592
    3885.59040 
        8.5000       0.043066         0.0000         0.0000        -0.0100 
      115.0000        14.0000       0.061336        37.9478        40.9145 
        1.8096         2.4500         1.0000       0.187680       0.181697 
      0.800000         2.6600      0.0208476         1.0000         0.2325 
        0.2153       117.8444       0.209951
    3885.74280 
        8.5000       0.046199         0.0000         0.0000        -0.0057 
      115.0000        14.0000       0.048735        34.7897        26.7360 
        1.8109         2.4500         1.0000       0.194258       0.186540 
      0.800000         2.6600      0.0208471         1.0000         0.2412 
        0.2325       117.8480       0.236330
    3885.89520 
        8.5000       0.047591         0.0000         0.0000        -0.0089 
      115.0000        14.0000       0.063179        55.5196        43.7775 
        1.8038         2.4500         1.0000       0.189266       0.182811 
      0.800000         2.6600      0.0208466         1.0000         0.2538 
        0.2127       117.8516       0.208097
    3886.04760 
        8.5000       0.047291         0.0000         0.0000        -0.0107 
      115.0000        14.0000       0.077199       132.2175        70.4042 
        1.7909         2.4500         1.0000       0.203864       0.198130 
      0.800000         2.6600      0.0208460         1.0000         0.2321 
        0.1953       117.8551       0.198146
    3886.20000 
        8.5000       0.042795         0.0000         0.0000        -0.0077 
      115.0000        14.0000       0.195688       212.4538       431.2444 
        1.7839         2.4500         1.0000       0.194342       0.187422 
      0.800000         2.6300      0.0208455         1.0000         0.2193 
        0.1409       117.8587       0.102223
    3886.35240 
        8.5000       0.039615         0.0000         0.0000        -0.0281 
      115.0000        14.0000       0.200120       297.6600       485.1240 
        1.7789         2.4500         1.0000       0.209045       0.210292 
      0.800000         2.6300      0.0208450         1.0000         0.1882 
        0.1380       117.8623       0.109612
    3886.50480 
        8.5000       0.038133         0.0000         0.0000        -0.0429 
      115.0000        14.0000       0.199187       235.8356       469.6921 
        1.7823         2.4500         1.0000       0.204297       0.211471 
      0.800000         2.6300      0.0208444         1.0000         0.1857 
        0.1388       117.8658       0.106951
    3886.65720 
        8.5000       0.039387         0.0000         0.0000        -0.0411 
      115.0000        14.0000       0.266428       205.9757       829.9290 
        1.7843         2.4500         1.0000       0.201767       0.208210 
      0.800000         2.6300      0.0208439         1.0000         0.1945 
        0.1253       117.8694       0.077233
    3886.80960 
        8.5000       0.041528         0.0000         0.0000        -0.0229 
      115.0000        14.0000       0.259255       229.4612       795.1211 
        1.7827         2.4500         1.0000       0.204149       0.203298 
      0.800000         2.6300      0.0208433         1.0000         0.2025 
        0.1262       117.8730       0.081417
    3886.96200 
        8.5000       0.043506         0.0000         0.0000        -0.0386 
      115.0000        14.0000       0.241973       241.3025       686.0355 
        1.7820         2.4500         1.0000       0.202200       0.207633 
      0.800000         2.6300      0.0208428         1.0000         0.2140 
        0.1296       117.8766       0.086806
    3887.11440 
        8.5000       0.045519         0.0000         0.0000        -0.0193 
      115.0000        14.0000       0.238642       235.5434       651.4491 
        1.7823         2.4500         1.0000       0.197404       0.195132 
      0.800000         2.6300      0.0208423         1.0000         0.2294 
        0.1308       117.8801       0.085039
    3887.26680 
        8.5000       0.047240         0.0000         0.0000        -0.0181 
      115.0000        14.0000       0.262522       100.5304       777.0063 
        1.7950         2.4500         1.0000       0.194564       0.191816 
      0.800000         2.6300      0.0208417         1.0000         0.2436 
        0.1268       117.8837       0.074010
    3887.41920 
        8.5000       0.048365         0.0000         0.0000        -0.0150 
      115.0000        14.0000       0.152792        37.6945       260.4871 
        1.8097         2.4500         1.0000       0.192555       0.188537 
      0.800000         2.6300      0.0208412         1.0000         0.2545 
        0.1543       117.8873       0.124961
    3887.57160 
        8.5000       0.049915         0.0000         0.0000        -0.0013 
      115.0000        14.0000       0.123799        61.8627       169.5530 
        1.8022         2.4500         1.0000       0.190914       0.181449 
      0.800000         2.6300      0.0208407         1.0000         0.2636 
        0.1667       117.8909       0.144223
    3887.72400 
        8.5000       0.053910         0.0000         0.0000        -0.0104 
      115.0000        14.0000       0.130323        91.3394       207.3381 
        1.7964         2.4500         1.0000       0.210672       0.204826 
      0.800000         2.6300      0.0208401         1.0000         0.2569 
        0.1608       117.8944       0.152078
