~Version Information Block
VERS .                 2.00:  CWLS LOG ASCII STANDARD - VERSION 2.00
WRAP .                  YES:  Multiple lines per depth step
~Well Information Block
#MNEM.UNIT        Data Type   Information
#---------- ----------------  -----------
STRT .M          3666.59160:  START DEPTH
STOP .M          4124.85840:  STOP DEPTH
STEP .M             0.15240:  STEP
NULL .              -999.25:  NULL VALUE
COMP .                     :  COMPANY
WELL .         NO_15/9-19_A:  WELL
FLD  .                     :  FIELD
LOC  .                     :  LOCATION
CTRY .                     :  COUNTRY
STAT .                     :  STATE
CNTY .                     :  COUNTY
SRVC .                     :  SERVICE COMPANY
DATE .                     :  DATE
API  .                     :  API NUMBER
UWI  .                     :  UNIQUE WELL ID
~Curve Information Block
#MNEM.UNIT         API CODE   Curve Description
#---------- ----------------  -----------------
DEPTH.M                    :  
BS   .IN                   :  8.5
BVW  .V/V                  :  PHIF*SW
CARB_FLAG.UNITLESS                 :  Values changed using TEXT_EDIT
COAL_FLAG.UNITLESS                 :  Coal flag
DELTA.V/V                  :  (NPHI-PORD)
GRMAX.GAPI                 :  Gamma Ray Shale Value
GRMIN.GAPI                 :  Gamma Ray Clean Value
J    .                     :  (0.034355/8.27)*REFERENCE.H_FWL*(KLOGH/PHIF)**0.5
KLHC_INT.MD                   :  Values changed using TEXT_EDIT
KLOGH.MD                   :  Values changed using TEXT_EDIT
M    .UNITLESS                 :  1.865*KLOGH**-0.0083
N    .                     :  Saturation exponent
PERF_FLAG.UNITLESS                 :  1
PHIF .V/V                  :  Values changed using TEXT_EDIT
PORD .V/V                  :  Density porosity
RHOFL.G/CM3                 :  Fluid density
RHOMA.G/CM3                 :  Fixed RHOMA
RW   .OHMM                 :  Formation Resistivity
SAND_FLAG.UNITLESS                 :  Values changed using TEXT_EDIT
SW   .V/V                  :  Water Saturation
SWIRR.                     :  0.42*KLOGH**-0.18
TEMP .DEGC                 :  Calculated temperature curve
VSH  .V/V                  :  Merged HQLD.HQLDVSH_1 and OFFICIAL.VSH_1 at 3673.32
~Parameter Information Block
#MNEM.UNIT            Value   Description
#---------- ----------------  -----------
CUR_INT_BOT.M           4125.0108:  
PROJECT.     SLEIPNER_OST@st-vlinapp01:  
SET  .             STAT_CPI:  
~Other Information Block
~Ascii Log Data
# ...
    3706.82520 
        8.5000       0.068017         0.0000         0.0000         0.2125 
      115.0000        14.0000       0.000006         0.0000         0.0000 
        1.7900         2.4500      -999.2500       0.112878       0.112878 
      0.800000         2.6600      0.0214898         0.0000         0.6026 
        6.4994       113.6805       0.687781
    3706.97760 
        8.5000       0.071950         0.0000         0.0000         0.2144 
      115.0000        14.0000       0.000006         0.0000         0.0000 
        1.7900         2.4500      -999.2500       0.104870       0.104870 
      0.800000         2.6600      0.0214892         0.0000         0.6861 
        6.8100       113.6841       0.694299
    3707.13000 
        8.5000       0.077473         0.0000         0.0000         0.2123 
      115.0000        14.0000       0.000006         0.0000         0.0000 
        1.7900         2.4500      -999.2500       0.108587       0.108587 
      0.800000         2.6600      0.0214886         0.0000         0.7135 
        6.7327       113.6876       0.700817
    3707.28240 
        8.5000       0.079866         0.0000         0.0000         0.2420 
      115.0000        14.0000       0.000007         0.0000         0.0000 
        1.7900         2.4500      -999.2500       0.106460       0.106460 
      0.800000         2.6600      0.0214881         0.0000         0.7502 
        6.1137       113.6912       0.707335
    3707.43480 
        8.5000       0.080950         0.0000         0.0000         0.1798 
      115.0000        14.0000       0.000008         0.0000         0.0000 
        1.7900         2.4500      -999.2500       0.111271       0.111271 
      0.800000         2.6600      0.0214875         0.0000         0.7275 
        5.9094       113.6948       0.713853
    3707.58720 
        8.5000       0.083665         0.0000         0.0000         0.1730 
      115.0000        14.0000       0.000015         0.0000         0.0000 
        1.7900         2.4500      -999.2500       0.135389       0.135389 
      0.800000         2.6600      0.0214869         0.0000         0.6180 
        4.5396       113.6984       0.720371
    3707.73960 
        8.5000       0.083131         0.0000         0.0000         0.2150 
      115.0000        14.0000       0.000009         0.0000         0.0000 
        1.7900         2.4500      -999.2500       0.139233       0.139233 
      0.800000         2.6600      0.0214864         0.0000         0.5971 
        5.5278       113.7020       0.726888
    3707.89200 
        8.5000       0.084108         0.0000         0.0000         0.1701 
      115.0000        14.0000       0.000011         0.0000         0.0000 
        1.7900         2.4500      -999.2500       0.142460       0.142460 
      0.800000         2.6600      0.0214858         0.0000         0.5904 
        5.0642       113.7056       0.733406
    3708.04440 
        8.5000       0.083046         0.0000         0.0000         0.2321 
      115.0000        14.0000       0.000012         0.0000         0.0000 
        1.7900         2.4500      -999.2500       0.132298       0.132298 
      0.800000         2.6600      0.0214852         0.0000         0.6277 
        4.9953       113.7092       0.739924
    3708.19680 
        8.5000       0.082052         0.0000         0.0000         0.2836 
      115.0000        14.0000       0.000018         0.0000         0.0000 
        1.7900         2.4500      -999.2500       0.136007       0.136007 
      0.800000         2.6600      0.0214847         0.0000         0.6033 
        4.2922       113.7128       0.746442
    3708.34920 
        8.5000       0.077481         0.0000         0.0000         0.1997 
      115.0000        14.0000       0.000017         0.0000         0.0000 
        1.7900         2.4500      -999.2500       0.134951       0.134951 
      0.800000         2.6600      0.0214841         0.0000         0.5741 
        4.3687       113.7164       0.752960
    3708.50160 
        8.5000       0.070405         0.0000         0.0000         0.1928 
      115.0000        14.0000       0.000016         0.0000         0.0000 
        1.7900         2.4500      -999.2500       0.124587       0.124587 
      0.800000         2.6600      0.0214835         0.0000         0.5652 
        4.5623       113.7199       0.759478
    3708.65400 
        8.5000       0.063968         0.0000         0.0000         0.2637 
      115.0000        14.0000       0.000015         0.0000         0.0000 
        1.7900         2.4500      -999.2500       0.107059       0.107059 
      0.800000         2.6600      0.0214829         0.0000         0.5975 
        4.8054       113.7235       0.765995
    3708.80640 
        8.5000       0.063513         0.0000         0.0000         0.2577 
      115.0000        14.0000       0.000030         0.0000         0.0000 
        1.7900         2.4500      -999.2500       0.109667       0.109667 
      0.800000         2.6600      0.0214824         0.0000         0.5791 
        3.6931       113.7271       0.772513
    3708.95880 
        8.5000       0.063610         0.0000         0.0000         0.1954 
      115.0000        14.0000       0.000065         0.0000         0.0000 
        1.7900         2.4500      -999.2500       0.102716       0.102716 
      0.800000         2.6600      0.0214818         0.0000         0.6193 
        2.8258       113.7307       0.699564
    3709.11120 
        8.5000       0.067631         0.0000         0.0000         0.2345 
      115.0000        14.0000       0.000027         0.0000         0.0000 
        1.7900         2.4500      -999.2500       0.118218       0.118218 
      0.800000         2.6600      0.0214812         0.0000         0.5721 
        3.7753       113.7343       0.784766
    3709.26360 
        8.5000       0.069725         0.0000         0.0000         0.1668 
      115.0000        14.0000       0.000038         0.0000         0.0000 
        1.7900         2.4500      -999.2500       0.129525       0.129525 
      0.800000         2.6600      0.0214807         0.0000         0.5383 
        3.2801       113.7379       0.759177
    3709.41600 
        8.5000       0.066517         0.0000         0.0000         0.2459 
      115.0000        14.0000       0.000023         0.0000         0.0000 
        1.7900         2.4500      -999.2500       0.113504       0.113504 
      0.800000         2.6600      0.0214801         0.0000         0.5860 
        4.0142       113.7414       0.796375
    3709.56840 
        8.5000       0.064654         0.0000         0.0000         0.2779 
      115.0000        14.0000       0.000022         0.0000         0.0000 
        1.7900         2.4500      -999.2500       0.104337       0.104337 
      0.800000         2.6600      0.0214795         0.0000         0.6197 
        4.1826       113.7450       0.799147
    3709.72080 
        8.5000       0.065020         0.0000         0.0000         0.2548 
      115.0000        14.0000       0.000015         0.0000         0.0000 
        1.7900         2.4500      -999.2500       0.097339       0.097339 
      0.800000         2.6600      0.0214790         0.0000         0.6680 
        4.8543       113.7486       0.798689
    3709.87320 
        8.5000       0.071403         0.0000         0.0000         0.2415 
      115.0000        14.0000       0.000023         0.0000         0.0000 
        1.7900         2.4500      -999.2500       0.112842       0.112842 
      0.800000         2.6600      0.0214784         0.0000         0.6328 
        4.0500       113.7522       0.798231
    3710.02560 
        8.5000       0.075862         0.0000         0.0000         0.2214 
      115.0000        14.0000       0.000014         0.0000         0.0000 
        1.7900         2.4500      -999.2500       0.110226       0.110226 
      0.800000         2.6600      0.0214778         0.0000         0.6882 
        4.8261       113.7558       0.796643
