~Version Information Block
VERS .                 2.00:  CWLS LOG ASCII STANDARD - VERSION 2.00
WRAP .                  YES:  Multiple lines per depth step
~Well Information Block
#MNEM.UNIT        Data Type   Information
#---------- ----------------  -----------
STRT .M          3666.59160:  START DEPTH
STOP .M          4124.85840:  STOP DEPTH
STEP .M             0.15240:  STEP
NULL .              -999.25:  NULL VALUE
COMP .                     :  COMPANY
WELL .         NO_15/9-19_A:  WELL
FLD  .                     :  FIELD
LOC  .                     :  LOCATION
CTRY .                     :  COUNTRY
STAT .                     :  STATE
CNTY .                     :  COUNTY
SRVC .                     :  SERVICE COMPANY
DATE .                     :  DATE
API  .                     :  API NUMBER
UWI  .                     :  UNIQUE WELL ID
~Curve Information Block
#MNEM.UNIT         API CODE   Curve Description
#---------- ----------------  -----------------
DEPTH.M                    :  
BS   .IN                   :  8.5
BVW  .V/V                  :  PHIF*SW
CARB_FLAG.UNITLESS                 :  Values changed using TEXT_EDIT
COAL_FLAG.UNITLESS                 :  Coal flag
DELTA.V/V                  :  (NPHI-PORD)
GRMAX.GAPI                 :  Gamma Ray Shale Value
GRMIN.GAPI                 :  Gamma Ray Clean Value
J    .                     :  (0.034355/8.27)*REFERENCE.H_FWL*(KLOGH/PHIF)**0.5
KLHC_INT.MD                   :  Values changed using TEXT_EDIT
KLOGH.MD                   :  Values changed using TEXT_EDIT
M    .UNITLESS                 :  1.865*KLOGH**-0.0083
N    .                     :  Saturation exponent
PERF_FLAG.UNITLESS                 :  1
PHIF .V/V                  :  Values changed using TEXT_EDIT
PORD .V/V                  :  Density porosity
RHOFL.G/CM3                 :  Fluid density
RHOMA.G/CM3                 :  Fixed RHOMA
RW   .OHMM                 :  Formation Resistivity
SAND_FLAG.UNITLESS                 :  Values changed using TEXT_EDIT
SW   .V/V                  :  Water Saturation
SWIRR.                     :  0.42*KLOGH**-0.18
TEMP .DEGC                 :  Calculated temperature curve
VSH  .V/V                  :  Merged HQLD.HQLDVSH_1 and OFFICIAL.VSH_1 at 3673.32
~Parameter Information Block
#MNEM.UNIT            Value   Description
#---------- ----------------  -----------
CUR_INT_BOT.M           4125.0108:  
PROJECT.     SLEIPNER_OST@st-vlinapp01:  
SET  .             STAT_CPI:  
~Other Information Block
~Ascii Log Data
# ...
    3924.75720 
        8.5000       0.071062         0.0000         0.0000         0.0619 
      115.0000        14.0000       0.014468         0.0260         1.1717 
        1.9170         2.4500      -999.2500       0.096597       0.096597 
      0.800000         2.6500      0.0207111         0.0000         0.8304 
        0.4082       118.7627       0.026016
    3924.90960 
        8.5000       0.078959         0.0000         0.0000         0.0303 
      115.0000        14.0000       0.029400         0.0300         5.8171 
        1.9026         2.4500      -999.2500       0.116140       0.116140 
      0.800000         2.6500      0.0207106         1.0000         0.7506 
        0.3059       118.7663       0.028243
    3925.06200 
        8.5000       0.081592         0.0000         0.0000         0.0159 
      115.0000        14.0000       0.027420         1.1144         4.8991 
        1.8633         2.4500      -999.2500       0.112447       0.112447 
      0.800000         2.6500      0.0207101         1.0000         0.7746 
        0.3155       118.7699       0.030469
    3925.21440 
        8.5000       0.080795         0.0000         0.0000         0.0383 
      115.0000        14.0000       0.018839         3.2008         2.0798 
        1.8471         2.4500      -999.2500       0.101126       0.101126 
      0.800000         2.6500      0.0207096         1.0000         0.8428 
        0.3681       118.7734       0.032695
    3925.36680 
        8.5000       0.077802         0.0000         0.0000         0.0380 
      115.0000        14.0000       0.012660         2.2030         0.8238 
        1.8509         2.4500      -999.2500       0.088698       0.088698 
      0.800000         2.6500      0.0207090         0.0000         0.9316 
        0.4349       118.7770       0.034921
    3925.51920 
        8.5000       0.057421         0.0000         0.0000         0.0734 
      115.0000        14.0000       0.004856         0.8050         0.0784 
        1.8559         2.4500      -999.2500       0.057421       0.057421 
      0.800000         2.6500      0.0207085         0.0000         1.0000 
        0.6641       118.7806       0.037147
    3925.67160 
        8.5000       0.040607         0.0000         0.0000         0.0904 
      115.0000        14.0000       0.002979         0.2070         0.0209 
        1.8634         2.4500      -999.2500       0.040607       0.040607 
      0.800000         2.6500      0.0207080         0.0000         1.0000 
        0.8427       118.7841       0.039373
    3925.82400 
        8.5000       0.043771         0.0000         0.0000         0.0960 
      115.0000        14.0000       0.003227         0.1090         0.0264 
        1.8789         2.4500      -999.2500       0.043771       0.043771 
      0.800000         2.6500      0.0207074         0.0000         1.0000 
        0.8079       118.7877       0.041599
    3925.97640 
        8.5000       0.040553         0.0000         0.0000         0.0911 
      115.0000        14.0000       0.002968         0.0610         0.0207 
        1.8872         2.4500      -999.2500       0.040553       0.040553 
      0.800000         2.6500      0.0207069         0.0000         1.0000 
        0.8441       118.7913       0.043825
    3926.12880 
        8.5000       0.052924         0.0000         0.0000         0.1322 
      115.0000        14.0000       0.003876         0.0980         0.0461 
        1.8730         2.4500      -999.2500       0.052924       0.052924 
      0.800000         2.6500      0.0207064         0.0000         1.0000 
        0.7309       118.7949       0.046051
    3926.28120 
        8.5000       0.048127         0.0000         0.0000         0.1197 
      115.0000        14.0000       0.003155         0.1560         0.0278 
        1.8657         2.4500      -999.2500       0.048127       0.048127 
      0.800000         2.6500      0.0207059         0.0000         1.0000 
        0.8006       118.7984       0.048277
    3926.43360 
        8.5000       0.064092         0.0000         0.0000         0.0857 
      115.0000        14.0000       0.008201         0.2140         0.3176 
        1.8608         2.4500      -999.2500       0.081490       0.081490 
      0.800000         2.6500      0.0207053         0.0000         0.8456 
        0.5163       118.8020       0.052891
    3926.58600 
        8.5000       0.058470         0.0000         0.0000         0.1086 
      115.0000        14.0000       0.003837         1.0720         0.0499 
        1.8571         2.4500      -999.2500       0.058470       0.058470 
      0.800000         2.6500      0.0207048         0.0000         1.0000 
        0.7205       118.8056       0.086515
    3926.73840 
        8.5000       0.063475         0.0000         0.0000         0.1045 
      115.0000        14.0000       0.005781         2.0293         0.1370 
        1.8541         2.4500      -999.2500       0.070762       0.070762 
      0.800000         2.6500      0.0207043         0.0000         0.9614 
        0.6007       118.8091       0.063782
    3926.89080 
        8.5000       0.066494         0.0000         0.0000         0.0822 
      115.0000        14.0000       0.006922         1.9569         0.2041 
        1.8546         2.4500      -999.2500       0.073503       0.073503 
      0.800000         2.6500      0.0207038         0.0000         0.9691 
        0.5591       118.8127       0.021119
    3927.04320 
        8.5000       0.073603         0.0000         0.0000         0.0274 
      115.0000        14.0000       0.010314         1.5924         0.5262 
        1.8578         2.4500      -999.2500       0.085359       0.085359 
      0.800000         2.6500      0.0207032         0.0000         0.9231 
        0.4715       118.8163       0.024801
    3927.19560 
        8.5000       0.089783         0.0000         0.0000        -0.0282 
      115.0000        14.0000       0.050648        10.8970        19.5476 
        1.8284         2.4500      -999.2500       0.131504       0.132786 
      0.800000         2.6500      0.0207027         1.0000         0.7048 
        0.2460       118.8199       0.028483
    3927.34800 
        8.5000       0.100999         0.0000         0.0000        -0.0175 
      115.0000        14.0000       0.095434        20.6567        79.7140 
        1.8187         2.4500      -999.2500       0.151042       0.148049 
      0.800000         2.6500      0.0207022         1.0000         0.6837 
        0.1910       118.8234       0.032165
    3927.50040 
        8.5000       0.107598         0.0000         0.0000         0.0042 
      115.0000        14.0000       0.111933         8.2516       112.6105 
        1.8326         2.4500      -999.2500       0.155108       0.155108 
      0.800000         2.6500      0.0207016         1.0000         0.7166 
        0.1795       118.8270       0.035838
    3927.65280 
        8.5000       0.110749         0.0000         0.0000         0.0009 
      115.0000        14.0000       0.109752         5.1870       108.6596 
        1.8397         2.4500      -999.2500       0.155674       0.155674 
      0.800000         2.6500      0.0207011         1.0000         0.7388 
        0.1806       118.8306       0.039530
    3927.80520 
        8.5000       0.106593         0.0000         0.0000         0.0204 
      115.0000        14.0000       0.051089         6.6561        20.1252 
        1.8359         2.4500      -999.2500       0.133062       0.133062 
      0.800000         2.6500      0.0207006         1.0000         0.8319 
        0.2447       118.8342       0.043212
    3927.95760 
        8.5000       0.087746         0.0000         0.0000         0.0844 
      115.0000        14.0000       0.011728         2.5462         0.6994 
        1.8506         2.4500      -999.2500       0.087746       0.087746 
      0.800000         2.6500      0.0207001         0.0000         1.0000 
        0.4479       118.8377       0.046894
