~Version Information Block
VERS .                 2.00:  CWLS LOG ASCII STANDARD - VERSION 2.00
WRAP .                  YES:  Multiple lines per depth step
~Well Information Block
#MNEM.UNIT        Data Type   Information
#---------- ----------------  -----------
STRT .M          3666.59160:  START DEPTH
STOP .M          4124.85840:  STOP DEPTH
STEP .M             0.15240:  STEP
NULL .              -999.25:  NULL VALUE
COMP .                     :  COMPANY
WELL .         NO_15/9-19_A:  WELL
FLD  .                     :  FIELD
LOC  .                     :  LOCATION
CTRY .                     :  COUNTRY
STAT .                     :  STATE
CNTY .                     :  COUNTY
SRVC .                     :  SERVICE COMPANY
DATE .                     :  DATE
API  .                     :  API NUMBER
UWI  .                     :  UNIQUE WELL ID
~Curve Information Block
#MNEM.UNIT         API CODE   Curve Description
#---------- ----------------  -----------------
DEPTH.M                    :  
BS   .IN                   :  8.5
BVW  .V/V                  :  PHIF*SW
CARB_FLAG.UNITLESS                 :  Values changed using TEXT_EDIT
COAL_FLAG.UNITLESS                 :  Coal flag
DELTA.V/V                  :  (NPHI-PORD)
GRMAX.GAPI                 :  Gamma Ray Shale Value
GRMIN.GAPI                 :  Gamma Ray Clean Value
J    .                     :  (0.034355/8.27)*REFERENCE.H_FWL*(KLOGH/PHIF)**0.5
KLHC_INT.MD                   :  Values changed using TEXT_EDIT
KLOGH.MD                   :  Values changed using TEXT_EDIT
M    .UNITLESS                 :  1.865*KLOGH**-0.0083
N    .                     :  Saturation exponent
PERF_FLAG.UNITLESS                 :  1
PHIF .V/V                  :  Values changed using TEXT_EDIT
PORD .V/V                  :  Density porosity
RHOFL.G/CM3                 :  Fluid density
RHOMA.G/CM3                 :  Fixed RHOMA
RW   .OHMM                 :  Formation Resistivity
SAND_FLAG.UNITLESS                 :  Values changed using TEXT_EDIT
SW   .V/V                  :  Water Saturation
SWIRR.                     :  0.42*KLOGH**-0.18
TEMP .DEGC                 :  Calculated temperature curve
VSH  .V/V                  :  Merged HQLD.HQLDVSH_1 and OFFICIAL.VSH_1 at 3673.32
~Parameter Information Block
#MNEM.UNIT            Value   Description
#---------- ----------------  -----------
CUR_INT_BOT.M           4125.0108:  
PROJECT.     SLEIPNER_OST@st-vlinapp01:  
SET  .             STAT_CPI:  
~Other Information Block
~Ascii Log Data
# ...
    3747.05880 
        8.5000       0.094977         0.0000         0.0000         0.1771 
      115.0000        14.0000       0.000065         0.0000         0.0000 
        1.7900         2.4500      -999.2500       0.129523       0.129523 
      0.800000         2.6600      0.0213419         0.0000         0.7333 
        2.7099       114.6174       0.711214
    3747.21120 
        8.5000       0.093974         0.0000         0.0000         0.1806 
      115.0000        14.0000       0.000049         0.0000         0.0000 
        1.7900         2.4500      -999.2500       0.123144       0.123144 
      0.800000         2.6600      0.0213413         0.0000         0.7631 
        3.0309       114.6209       0.733904
    3747.36360 
        8.5000       0.093767         0.0000         0.0000         0.2129 
      115.0000        14.0000       0.000041         0.0000         0.0000 
        1.7900         2.4500      -999.2500       0.121512       0.121512 
      0.800000         2.6600      0.0213408         0.0000         0.7717 
        3.2225       114.6244       0.747954
    3747.51600 
        8.5000       0.092354         0.0000         0.0000         0.1755 
      115.0000        14.0000       0.000054         0.0000         0.0000 
        1.7900         2.4500      -999.2500       0.116150       0.116150 
      0.800000         2.6600      0.0213402         0.0000         0.7951 
        2.9644       114.6280       0.722639
    3747.66840 
        8.5000       0.093662         0.0000         0.0000         0.2036 
      115.0000        14.0000       0.000037         0.0000         0.0000 
        1.7900         2.4500      -999.2500       0.124697       0.124697 
      0.800000         2.6600      0.0213397         0.0000         0.7511 
        3.3501       114.6315       0.760292
    3747.82080 
        8.5000       0.091222         0.0000         0.0000         0.2497 
      115.0000        14.0000       0.000047         0.0000         0.0000 
        1.7900         2.4500      -999.2500       0.114021       0.114021 
      0.800000         2.6600      0.0213391         0.0000         0.8000 
        3.1271       114.6350       0.734278
    3747.97320 
        8.5000       0.090815         0.0000         0.0000         0.2020 
      115.0000        14.0000       0.000109         0.0001         0.0001 
        1.7900         2.4500      -999.2500       0.111301       0.111301 
      0.800000         2.6600      0.0213386         0.0000         0.8159 
        2.3126       114.6386       0.656414
    3748.12560 
        8.5000       0.092788         0.0000         0.0000         0.2201 
      115.0000        14.0000       0.000043         0.0000         0.0000 
        1.7900         2.4500      -999.2500       0.119323       0.119323 
      0.800000         2.6600      0.0213380         0.0000         0.7776 
        3.1995       114.6421       0.743641
    3748.27800 
        8.5000       0.092900         0.0000         0.0000         0.1744 
      115.0000        14.0000       0.000064         0.0000         0.0000 
        1.7900         2.4500      -999.2500       0.119355       0.119355 
      0.800000         2.6600      0.0213374         0.0000         0.7783 
        2.7681       114.6457       0.708132
    3748.43040 
        8.5000       0.091630         0.0000         0.0000         0.2415 
      115.0000        14.0000       0.000056         0.0000         0.0000 
        1.7900         2.4500      -999.2500       0.112929       0.112929 
      0.800000         2.6600      0.0213369         0.0000         0.8114 
        2.9277       114.6492       0.716741
    3748.58280 
        8.5000       0.091469         0.0000         0.0000         0.2684 
      115.0000        14.0000       0.000116         0.0001         0.0001 
        1.7900         2.4500      -999.2500       0.110761       0.110761 
      0.800000         2.6600      0.0213363         0.0000         0.8258 
        2.2605       114.6527       0.650211
    3748.73520 
        8.5000       0.093892         0.0000         0.0000         0.1976 
      115.0000        14.0000       0.000056         0.0000         0.0000 
        1.7900         2.4500      -999.2500       0.119321       0.119321 
      0.800000         2.6600      0.0213358         0.0000         0.7869 
        2.9032       114.6563       0.719789
    3748.88760 
        8.5000       0.091627         0.0000         0.0000         0.2258 
      115.0000        14.0000       0.000069         0.0000         0.0000 
        1.7900         2.4500      -999.2500       0.106502       0.106502 
      0.800000         2.6600      0.0213352         0.0000         0.8603 
        2.7526       114.6598       0.696000
    3749.04000 
        8.5000       0.092229         0.0000         0.0000         0.2160 
      115.0000        14.0000       0.000057         0.0000         0.0000 
        1.7900         2.4500      -999.2500       0.108058       0.108058 
      0.800000         2.6600      0.0213347         0.0000         0.8535 
        2.9342       114.6633       0.713218
    3749.19240 
        8.5000       0.090544         0.0000         0.0000         0.2176 
      115.0000        14.0000       0.000042         0.0000         0.0000 
        1.7900         2.4500      -999.2500       0.101638       0.101638 
      0.800000         2.6600      0.0213341         0.0000         0.8908 
        3.3020       114.6669       0.737500
    3749.34480 
        8.5000       0.093321         0.0000         0.0000         0.2216 
      115.0000        14.0000       0.000053         0.0000         0.0000 
        1.7900         2.4500      -999.2500       0.115536       0.115536 
      0.800000         2.6600      0.0213336         0.0000         0.8077 
        2.9877       114.6704       0.724063
    3749.49720 
        8.5000       0.090899         0.0000         0.0000         0.2886 
      115.0000        14.0000       0.000055         0.0000         0.0000 
        1.7900         2.4500      -999.2500       0.107023       0.107023 
      0.800000         2.6600      0.0213330         0.0000         0.8493 
        2.9843       114.6740       0.716674
    3749.64960 
        8.5000       0.090558         0.0000         0.0000         0.2061 
      115.0000        14.0000       0.000058         0.0000         0.0000 
        1.7900         2.4500      -999.2500       0.108596       0.108596 
      0.800000         2.6600      0.0213325         0.0000         0.8339 
        2.9174       114.6775       0.712284
    3749.80200 
        8.5000       0.091866         0.0000         0.0000         0.1908 
      115.0000        14.0000       0.000040         0.0000         0.0000 
        1.7900         2.4500      -999.2500       0.118777       0.118777 
      0.800000         2.6600      0.0213319         0.0000         0.7734 
        3.2729       114.6810       0.749511
    3749.95440 
        8.5000       0.087892         0.0000         0.0000         0.2215 
      115.0000        14.0000       0.000084         0.0000         0.0000 
        1.7900         2.4500      -999.2500       0.104358       0.104358 
      0.800000         2.6600      0.0213313         0.0000         0.8422 
        2.5663       114.6846       0.676746
    3750.10680 
        8.5000       0.090335         0.0000         0.0000         0.2214 
      115.0000        14.0000       0.000070         0.0000         0.0000 
        1.7900         2.4500      -999.2500       0.117154       0.117154 
      0.800000         2.6600      0.0213308         0.0000         0.7711 
        2.6829       114.6881       0.698306
    3750.25920 
        8.5000       0.086235         0.0000         0.0000         0.2067 
      115.0000        14.0000       0.000066         0.0000         0.0000 
        1.7900         2.4500      -999.2500       0.096855       0.096855 
      0.800000         2.6600      0.0213302         0.0000         0.8904 
        2.8391       114.6916       0.695680
