~Version Information Block
VERS .                 2.00:  CWLS LOG ASCII STANDARD - VERSION 2.00
WRAP .                  YES:  Multiple lines per depth step
~Well Information Block
#MNEM.UNIT        Data Type   Information
#---------- ----------------  -----------
STRT .M          3666.59160:  START DEPTH
STOP .M          4124.85840:  STOP DEPTH
STEP .M             0.15240:  STEP
NULL .              -999.25:  NULL VALUE
COMP .                     :  COMPANY
WELL .         NO_15/9-19_A:  WELL
FLD  .                     :  FIELD
LOC  .                     :  LOCATION
CTRY .                     :  COUNTRY
STAT .                     :  STATE
CNTY .                     :  COUNTY
SRVC .                     :  SERVICE COMPANY
DATE .                     :  DATE
API  .                     :  API NUMBER
UWI  .                     :  UNIQUE WELL ID
~Curve Information Block
#MNEM.UNIT         API CODE   Curve Description
#---------- ----------------  -----------------
DEPTH.M                    :  
BS   .IN                   :  8.5
BVW  .V/V                  :  PHIF*SW
CARB_FLAG.UNITLESS                 :  Values changed using TEXT_EDIT
COAL_FLAG.UNITLESS                 :  Coal flag
DELTA.V/V                  :  (NPHI-PORD)
GRMAX.GAPI                 :  Gamma Ray Shale Value
GRMIN.GAPI                 :  Gamma Ray Clean Value
J    .                     :  (0.034355/8.27)*REFERENCE.H_FWL*(KLOGH/PHIF)**0.5
KLHC_INT.MD                   :  Values changed using TEXT_EDIT
KLOGH.MD                   :  Values changed using TEXT_EDIT
M    .UNITLESS                 :  1.865*KLOGH**-0.0083
N    .                     :  Saturation exponent
PERF_FLAG.UNITLESS                 :  1
PHIF .V/V                  :  Values changed using TEXT_EDIT
PORD .V/V                  :  Density porosity
RHOFL.G/CM3                 :  Fluid density
RHOMA.G/CM3                 :  Fixed RHOMA
RW   .OHMM                 :  Formation Resistivity
SAND_FLAG.UNITLESS                 :  Values changed using TEXT_EDIT
SW   .V/V                  :  Water Saturation
SWIRR.                     :  0.42*KLOGH**-0.18
TEMP .DEGC                 :  Calculated temperature curve
VSH  .V/V                  :  Merged HQLD.HQLDVSH_1 and OFFICIAL.VSH_1 at 3673.32
~Parameter Information Block
#MNEM.UNIT            Value   Description
#---------- ----------------  -----------
CUR_INT_BOT.M           4125.0108:  
PROJECT.     SLEIPNER_OST@st-vlinapp01:  
SET  .             STAT_CPI:  
~Other Information Block
~Ascii Log Data
# ...
    3807.40920 
        8.5000       0.006028         0.0000         0.0000         0.1679 
      115.0000        14.0000       0.053870         1.0137         1.0137 
        1.8648         2.4500      -999.2500       0.006028       0.006028 
      0.800000         2.6600      0.0211250         0.0000         1.0000 
        0.4190       116.0148       0.226922
    3807.56160 
        8.5000       0.000000         0.0000         0.0000         0.1506 
      115.0000        14.0000    -999.250000         2.5941         2.5941 
        1.8503         2.4500      -999.2500       0.000000       0.000000 
      0.800000         2.6600      0.0211245         0.0000         1.0000 
        0.3538       116.0183       0.176223
    3807.71400 
        8.5000       0.000000         0.0000         0.0000         0.1423 
      115.0000        14.0000    -999.250000         3.1367         3.1367 
        1.8474         2.4500      -999.2500       0.000000       0.000000 
      0.800000         2.6600      0.0211239         0.0000         1.0000 
        0.3419       116.0219       0.167058
    3807.86640 
        8.5000       0.018682         0.0000         0.0000         0.1370 
      115.0000        14.0000       0.048920         2.5907         2.5907 
        1.8503         2.4500      -999.2500       0.018682       0.018682 
      0.800000         2.6600      0.0211234         0.0000         1.0000 
        0.3539       116.0254       0.192893
    3808.01880 
        8.5000       0.070763         0.0000         0.0000         0.1206 
      115.0000        14.0000       0.043005         7.5835         7.5835 
        1.8339         2.4500      -999.2500       0.070763       0.070763 
      0.800000         2.6600      0.0211228         0.0000         1.0000 
        0.2917       116.0290       0.187359
    3808.17120 
        8.5000       0.089643         0.0000         0.0000         0.0948 
      115.0000        14.0000       0.017941         1.8730         1.8730 
        1.8553         2.4500      -999.2500       0.100421       0.100421 
      0.800000         2.6600      0.0211223         1.0000         0.9491 
        0.3751       116.0325       0.281204
    3808.32360 
        8.5000       0.099001         0.0000         0.0000         0.1327 
      115.0000        14.0000       0.019721         2.4710         2.4710 
        1.8510         2.4500      -999.2500       0.109642       0.109642 
      0.800000         2.6600      0.0211217         1.0000         0.9541 
        0.3569       116.0360       0.276029
    3808.47600 
        8.5000       0.101109         0.0000         0.0000         0.1163 
      115.0000        14.0000       0.014933         1.3066         1.3066 
        1.8609         2.4500      -999.2500       0.101109       0.101109 
      0.800000         2.6600      0.0211212         1.0000         1.0000 
        0.4003       116.0396       0.299194
    3808.62840 
        8.5000       0.076441         0.0000         0.0000         0.1396 
      115.0000        14.0000       0.013413         0.7969         0.7969 
        1.8685         2.4500      -999.2500       0.076441       0.076441 
      0.800000         2.6600      0.0211207         0.0000         1.0000 
        0.4375       116.0431       0.301126
    3808.78080 
        8.5000       0.059743         0.0000         0.0000         0.1607 
      115.0000        14.0000       0.009790         0.3318         0.3318 
        1.8822         2.4500      -999.2500       0.059743       0.059743 
      0.800000         2.6600      0.0211201         0.0000         1.0000 
        0.5123       116.0466       0.328563
    3808.93320 
        8.5000       0.000000         0.0000         0.0000         0.2008 
      115.0000        14.0000    -999.250000         0.4204         0.4204 
        1.8785         2.4500      -999.2500       0.000000       0.000000 
      0.800000         2.6600      0.0211196         0.0000         1.0000 
        0.4909       116.0502       0.264039
    3809.08560 
        8.5000       0.000000         0.0000         0.0000         0.2436 
      115.0000        14.0000    -999.250000         1.7243         1.7243 
        1.8566         2.4500      -999.2500       0.000000       0.000000 
      0.800000         2.6600      0.0211190         0.0000         1.0000 
        0.3808       116.0537       0.195932
    3809.23800 
        8.5000       0.000000         0.0000         0.0000         0.2417 
      115.0000        14.0000    -999.250000         1.0302         1.0302 
        1.8645         2.4500      -999.2500       0.000000       0.000000 
      0.800000         2.6600      0.0211185         0.0000         1.0000 
        0.4178       116.0573       0.220786
    3809.39040 
        8.5000       0.000000         0.0000         0.0000         0.2422 
      115.0000        14.0000    -999.250000         1.6253         1.6253 
        1.8575         2.4500      -999.2500       0.000000       0.000000 
      0.800000         2.6600      0.0211179         0.0000         1.0000 
        0.3848       116.0608       0.198786
    3809.54280 
        8.5000       0.000000         0.0000         0.0000         0.2515 
      115.0000        14.0000    -999.250000         6.7581         6.7581 
        1.8357         2.4500      -999.2500       0.000000       0.000000 
      0.800000         2.6600      0.0211174         0.0000         1.0000 
        0.2978       116.0643       0.130019
    3809.69520 
        8.5000       0.105618         0.0000         0.0000         0.1103 
      115.0000        14.0000       0.080416        50.4650        50.4650 
        1.8053         2.4500      -999.2500       0.134671       0.134671 
      0.800000         2.6600      0.0211169         0.0000         0.7941 
        0.2074       116.0679       0.152709
    3809.84760 
        8.5000       0.058369         0.0000         0.0000         0.1797 
      115.0000        14.0000       0.075694        19.3795        19.3795 
        1.8197         2.4500      -999.2500       0.058369       0.058369 
      0.800000         2.6600      0.0211163         0.0000         1.0000 
        0.2463       116.0714       0.131068
    3810.00000 
        8.5000       0.108084         0.0000         0.0000         0.1030 
      115.0000        14.0000       0.060897        27.5528        27.5528 
        1.8144         2.4500      -999.2500       0.128217       0.128217 
      0.800000         2.6600      0.0211158         1.0000         0.8604 
        0.2312       116.0749       0.176175
    3810.15240 
        8.5000       0.110869         0.0000         0.0000         0.0992 
      115.0000        14.0000       0.049396        19.3789        19.3789 
        1.8197         2.4500      -999.2500       0.137063       0.137063 
      0.800000         2.6600      0.0211152         1.0000         0.8286 
        0.2463       116.0785       0.201019
    3810.30480 
        8.5000       0.111271         0.0000         0.0000         0.0687 
      115.0000        14.0000       0.031082         7.6451         7.6451 
        1.8338         2.4500      -999.2500       0.136561       0.136561 
      0.800000         2.6600      0.0211147         1.0000         0.8443 
        0.2912       116.0820       0.245456
    3810.45720 
        8.5000       0.113978         0.0000         0.0000         0.0909 
      115.0000        14.0000       0.032925         9.1837         9.1837 
        1.8310         2.4500      -999.2500       0.146199       0.146199 
      0.800000         2.6600      0.0211141         1.0000         0.8051 
        0.2818       116.0856       0.245175
    3810.60960 
        8.5000       0.112621         0.0000         0.0000         0.0728 
      115.0000        14.0000       0.022862         4.0885         4.0885 
        1.8433         2.4500      -999.2500       0.134991       0.134991 
      0.800000         2.6600      0.0211136         1.0000         0.8715 
        0.3260       116.0891       0.274262
