~Version Information Block
VERS .                 2.00:  CWLS LOG ASCII STANDARD - VERSION 2.00
WRAP .                  YES:  Multiple lines per depth step
~Well Information Block
#MNEM.UNIT        Data Type   Information
#---------- ----------------  -----------
STRT .M          3666.59160:  START DEPTH
STOP .M          4124.85840:  STOP DEPTH
STEP .M             0.15240:  STEP
NULL .              -999.25:  NULL VALUE
COMP .                     :  COMPANY
WELL .         NO_15/9-19_A:  WELL
FLD  .                     :  FIELD
LOC  .                     :  LOCATION
CTRY .                     :  COUNTRY
STAT .                     :  STATE
CNTY .                     :  COUNTY
SRVC .                     :  SERVICE COMPANY
DATE .                     :  DATE
API  .                     :  API NUMBER
UWI  .                     :  UNIQUE WELL ID
~Curve Information Block
#MNEM.UNIT         API CODE   Curve Description
#---------- ----------------  -----------------
DEPTH.M                    :  
BS   .IN                   :  8.5
BVW  .V/V                  :  PHIF*SW
CARB_FLAG.UNITLESS                 :  Values changed using TEXT_EDIT
COAL_FLAG.UNITLESS                 :  Coal flag
DELTA.V/V                  :  (NPHI-PORD)
GRMAX.GAPI                 :  Gamma Ray Shale Value
GRMIN.GAPI                 :  Gamma Ray Clean Value
J    .                     :  (0.034355/8.27)*REFERENCE.H_FWL*(KLOGH/PHIF)**0.5
KLHC_INT.MD                   :  Values changed using TEXT_EDIT
KLOGH.MD                   :  Values changed using TEXT_EDIT
M    .UNITLESS                 :  1.865*KLOGH**-0.0083
N    .                     :  Saturation exponent
PERF_FLAG.UNITLESS                 :  1
PHIF .V/V                  :  Values changed using TEXT_EDIT
PORD .V/V                  :  Density porosity
RHOFL.G/CM3                 :  Fluid density
RHOMA.G/CM3                 :  Fixed RHOMA
RW   .OHMM                 :  Formation Resistivity
SAND_FLAG.UNITLESS                 :  Values changed using TEXT_EDIT
SW   .V/V                  :  Water Saturation
SWIRR.                     :  0.42*KLOGH**-0.18
TEMP .DEGC                 :  Calculated temperature curve
VSH  .V/V                  :  Merged HQLD.HQLDVSH_1 and OFFICIAL.VSH_1 at 3673.32
~Parameter Information Block
#MNEM.UNIT            Value   Description
#---------- ----------------  -----------
CUR_INT_BOT.M           4125.0108:  
PROJECT.     SLEIPNER_OST@st-vlinapp01:  
SET  .             STAT_CPI:  
~Other Information Block
~Ascii Log Data
# ...
    3844.29000 
        8.5000       0.056665         0.0000         0.0000        -0.0036 
      115.0000        14.0000       0.117930        74.3751       202.3596 
        1.7995         2.4500         1.0000       0.251098       0.242520 
      0.800000         2.6300      0.0209936         1.0000         0.2269 
        0.1615       116.8757       0.189184
    3844.44240 
        8.5000       0.053965         0.0000         0.0000        -0.0148 
      115.0000        14.0000       0.123228        68.4097       209.8801 
        1.8007         2.4500         1.0000       0.238519       0.234459 
      0.800000         2.6300      0.0209930         1.0000         0.2277 
        0.1604       116.8792       0.176243
    3844.59480 
        8.5000       0.052738         0.0000         0.0000         0.0187 
      115.0000        14.0000       0.098693        66.6821       134.4648 
        1.8011         2.4500         1.0000       0.238236       0.238236 
      0.800000         2.6300      0.0209925         1.0000         0.2228 
        0.1738       116.8828       0.197476
    3844.74720 
        8.5000       0.053030         0.0000         0.0000        -0.0035 
      115.0000        14.0000       0.120197        64.2450       216.2134 
        1.8017         2.4500         1.0000       0.258264       0.249682 
      0.800000         2.6300      0.0209919         1.0000         0.2067 
        0.1596       116.8864       0.192359
    3844.89960 
        8.5000       0.050557         0.0000         0.0000         0.0010 
      115.0000        14.0000       0.093134        62.3493       120.0490 
        1.8021         2.4500         1.0000       0.238841       0.238841 
      0.800000         2.6300      0.0209914         1.0000         0.2132 
        0.1774       116.8900       0.203485
    3845.05200 
        8.5000       0.048782         0.0000         0.0000         0.0282 
      115.0000        14.0000       0.102461        60.6532       143.6160 
        1.8025         2.4500         1.0000       0.236076       0.236076 
      0.800000         2.6300      0.0209909         1.0000         0.2082 
        0.1718       116.8935       0.192379
    3845.20440 
        8.5000       0.048559         0.0000         0.0000         0.0133 
      115.0000        14.0000       0.120518        51.1363       201.8933 
        1.8051         2.4500         1.0000       0.239876       0.239876 
      0.800000         2.6300      0.0209903         1.0000         0.2042 
        0.1616       116.8971       0.179320
    3845.35680 
        8.5000       0.048817         0.0000         0.0000         0.0092 
      115.0000        14.0000       0.090378        41.8686       111.2266 
        1.8081         2.4500         1.0000       0.234992       0.234992 
      0.800000         2.6300      0.0209898         1.0000         0.2100 
        0.1799       116.9007       0.203748
    3845.50920 
        8.5000       0.048114         0.0000         0.0000         0.0026 
      115.0000        14.0000       0.065567        38.0159        56.9076 
        1.8095         2.4500         1.0000       0.228441       0.228441 
      0.800000         2.6300      0.0209892         1.0000         0.2131 
        0.2029       116.9043       0.230262
    3845.66160 
        8.5000       0.046529         0.0000         0.0000         0.0252 
      115.0000        14.0000       0.068956        35.1187        60.5371 
        1.8107         2.4500         1.0000       0.219707       0.219707 
      0.800000         2.6300      0.0209887         1.0000         0.2145 
        0.2007       116.9078       0.219515
    3845.81400 
        8.5000       0.047585         0.0000         0.0000         0.0084 
      115.0000        14.0000       0.093851        33.6337       122.6779 
        1.8114         2.4500         1.0000       0.240355       0.240355 
      0.800000         2.6300      0.0209882         1.0000         0.2005 
        0.1767       116.9114       0.203786
    3845.96640 
        8.5000       0.048687         0.0000         0.0000         0.0062 
      115.0000        14.0000       0.107702        41.1487       159.0529 
        1.8083         2.4500         1.0000       0.236627       0.236627 
      0.800000         2.6300      0.0209876         1.0000         0.2080 
        0.1686       116.9150       0.187942
    3846.11880 
        8.5000       0.051010         0.0000         0.0000        -0.0073 
      115.0000        14.0000       0.103421        49.8946       157.4409 
        1.8054         2.4500         1.0000       0.254020       0.246954 
      0.800000         2.6300      0.0209871         1.0000         0.2026 
        0.1690       116.9185       0.203893
    3846.27120 
        8.5000       0.050868         0.0000         0.0000        -0.0354 
      115.0000        14.0000       0.068601        47.4715        66.3672 
        1.8062         2.4500         1.0000       0.243364       0.247539 
      0.800000         2.6300      0.0209865         1.0000         0.2110 
        0.1974       116.9221       0.236107
    3846.42360 
        8.5000       0.050050         0.0000         0.0000        -0.0052 
      115.0000        14.0000       0.067289        53.4226        62.5944 
        1.8044         2.4500         1.0000       0.238571       0.230668 
      0.800000         2.6300      0.0209860         1.0000         0.2116 
        0.1995       116.9257       0.234670
    3846.57600 
        8.5000       0.049485         0.0000         0.0000        -0.0062 
      115.0000        14.0000       0.084027        68.3627       101.6537 
        1.8007         2.4500         1.0000       0.248456       0.240943 
      0.800000         2.6300      0.0209854         1.0000         0.2004 
        0.1828       116.9293       0.220058
    3846.72840 
        8.5000       0.047998         0.0000         0.0000        -0.0393 
      115.0000        14.0000       0.094312        81.5486       122.3885 
        1.7981         2.4500         1.0000       0.237453       0.243161 
      0.800000         2.6300      0.0209849         1.0000         0.2031 
        0.1768       116.9328       0.201320
    3846.88080 
        8.5000       0.048139         0.0000         0.0000        -0.0078 
      115.0000        14.0000       0.113106        88.8717       180.1125 
        1.7968         2.4500         1.0000       0.242962       0.236094 
      0.800000         2.6300      0.0209844         1.0000         0.1989 
        0.1649       116.9364       0.187573
    3847.03320 
        8.5000       0.047623         0.0000         0.0000        -0.0469 
      115.0000        14.0000       0.107791        74.2621       154.1507 
        1.7995         2.4500         1.0000       0.228953       0.237709 
      0.800000         2.6300      0.0209838         1.0000         0.2092 
        0.1696       116.9400       0.182631
    3847.18560 
        8.5000       0.048346         0.0000         0.0000        -0.0076 
      115.0000        14.0000       0.076719        65.8181        82.6984 
        1.8013         2.4500         1.0000       0.242474       0.235528 
      0.800000         2.6300      0.0209833         1.0000         0.2007 
        0.1897       116.9436       0.224699
    3847.33800 
        8.5000       0.043209         0.0000         0.0000         0.0483 
      115.0000        14.0000       0.035738        62.1983        12.4160 
        1.8021         2.4500         1.0000       0.167758       0.167758 
      0.800000         2.6300      0.0209827         1.0000         0.2599 
        0.2669       116.9471       0.249786
    3847.49040 
        8.5000       0.038731         1.0000         0.0000         0.0913 
      115.0000        14.0000       0.025384        34.5464         0.1000 
        1.8110         2.4500         1.0000       0.122306       0.122306 
      0.800000         2.7100      0.0209822         0.0000         0.3224 
        0.3195       116.9507       0.257650
