~Version Information Block
VERS .                 2.00:  CWLS LOG ASCII STANDARD - VERSION 2.00
WRAP .                  YES:  Multiple lines per depth step
~Well Information Block
#MNEM.UNIT        Data Type   Information
#---------- ----------------  -----------
STRT .M          3666.59160:  START DEPTH
STOP .M          4124.85840:  STOP DEPTH
STEP .M             0.15240:  STEP
NULL .              -999.25:  NULL VALUE
COMP .                     :  COMPANY
WELL .         NO_15/9-19_A:  WELL
FLD  .                     :  FIELD
LOC  .                     :  LOCATION
CTRY .                     :  COUNTRY
STAT .                     :  STATE
CNTY .                     :  COUNTY
SRVC .                     :  SERVICE COMPANY
DATE .                     :  DATE
API  .                     :  API NUMBER
UWI  .                     :  UNIQUE WELL ID
~Curve Information Block
#MNEM.UNIT         API CODE   Curve Description
#---------- ----------------  -----------------
DEPTH.M                    :  
BS   .IN                   :  8.5
BVW  .V/V                  :  PHIF*SW
CARB_FLAG.UNITLESS                 :  Values changed using TEXT_EDIT
COAL_FLAG.UNITLESS                 :  Coal flag
DELTA.V/V                  :  (NPHI-PORD)
GRMAX.GAPI                 :  Gamma Ray Shale Value
GRMIN.GAPI                 :  Gamma Ray Clean Value
J    .                     :  (0.034355/8.27)*REFERENCE.H_FWL*(KLOGH/PHIF)**0.5
KLHC_INT.MD                   :  Values changed using TEXT_EDIT
KLOGH.MD                   :  Values changed using TEXT_EDIT
M    .UNITLESS                 :  1.865*KLOGH**-0.0083
N    .                     :  Saturation exponent
PERF_FLAG.UNITLESS                 :  1
PHIF .V/V                  :  Values changed using TEXT_EDIT
PORD .V/V                  :  Density porosity
RHOFL.G/CM3                 :  Fluid density
RHOMA.G/CM3                 :  Fixed RHOMA
RW   .OHMM                 :  Formation Resistivity
SAND_FLAG.UNITLESS                 :  Values changed using TEXT_EDIT
SW   .V/V                  :  Water Saturation
SWIRR.                     :  0.42*KLOGH**-0.18
TEMP .DEGC                 :  Calculated temperature curve
VSH  .V/V                  :  Merged HQLD.HQLDVSH_1 and OFFICIAL.VSH_1 at 3673.32
~Parameter Information Block
#MNEM.UNIT            Value   Description
#---------- ----------------  -----------
CUR_INT_BOT.M           4125.0108:  
PROJECT.     SLEIPNER_OST@st-vlinapp01:  
SET  .             STAT_CPI:  
~Other Information Block
~Ascii Log Data
    3666.59160 
        8.5000       0.111705         0.0000         0.0000         0.1475 
      115.0000        14.0000       0.000163         0.0003         0.0003 
        1.7900         2.4500      -999.2500       0.199843       0.199843 
      0.800000         2.6600      0.0216428         0.0000         0.5590 
        1.8023       112.7249       0.598800
    3666.74400 
        8.5000       0.112236         0.0000         0.0000         0.3583 
      115.0000        14.0000       0.000003         0.0000         0.0000 
        1.7900         2.4500      -999.2500       0.218743       0.218743 
      0.800000         2.6600      0.0216422         0.0000         0.5131 
        7.9467       112.7285       0.599555
    3666.89640 
        8.5000       0.114825         0.0000         0.0000         0.1298 
      115.0000        14.0000       0.000004         0.0000         0.0000 
        1.7900         2.4500      -999.2500       0.242380       0.242380 
      0.800000         2.6600      0.0216416         0.0000         0.4737 
        6.5907       112.7321       0.600310
    3667.04880 
        8.5000       0.114419         0.0000         0.0000         0.2489 
      115.0000        14.0000       0.000002         0.0000         0.0000 
        1.7900         2.4500      -999.2500       0.226408       0.226408 
      0.800000         2.6600      0.0216410         0.0000         0.5054 
        8.6274       112.7358       0.601065
    3667.20120 
        8.5000       0.115867         0.0000         0.0000         0.2072 
      115.0000        14.0000       0.000004         0.0000         0.0000 
        1.7900         2.4500      -999.2500       0.216169       0.216169 
      0.800000         2.6600      0.0216404         0.0000         0.5360 
        6.8473       112.7394       0.601820
    3667.35360 
        8.5000       0.112858         0.0000         0.0000         0.2302 
      115.0000        14.0000       0.000002         0.0000         0.0000 
        1.7900         2.4500      -999.2500       0.178107       0.178107 
      0.800000         2.6600      0.0216399         0.0000         0.6336 
        9.2470       112.7430       0.602575
    3667.50600 
        8.5000       0.118716         0.0000         0.0000         0.3334 
      115.0000        14.0000       0.000001         0.0000         0.0000 
        1.7900         2.4500      -999.2500       0.197236       0.197236 
      0.800000         2.6600      0.0216393         0.0000         0.6019 
       14.4100       112.7467       0.603330
    3667.65840 
        8.5000       0.124121         0.0000         0.0000        61.7094 
      115.0000        14.0000       0.000001         0.0000         0.0000 
        1.7900         2.4500      -999.2500       0.218197       0.218197 
      0.800000         2.6600      0.0216387         0.0000         0.5688 
       12.2367       112.7503       0.604086
    3667.81080 
        8.5000       0.128317         0.0000         0.0000         0.2835 
      115.0000        14.0000       0.000002         0.0000         0.0000 
        1.7900         2.4500      -999.2500       0.243449       0.243449 
      0.800000         2.6600      0.0216381         0.0000         0.5271 
        8.8671       112.7539       0.604841
    3667.96320 
        8.5000       0.128881         0.0000         0.0000         0.1418 
      115.0000        14.0000       0.000002         0.0000         0.0000 
        1.7900         2.4500      -999.2500       0.259614       0.259614 
      0.800000         2.6600      0.0216375         0.0000         0.4964 
        9.0527       112.7575       0.605596
    3668.11560 
        8.5000       0.127310         0.0000         0.0000         0.1798 
      115.0000        14.0000       0.000000         0.0000         0.0000 
        1.7900         2.4500      -999.2500       0.269317       0.269317 
      0.800000         2.6600      0.0216369         0.0000         0.4727 
       13.9730       112.7612       0.606351
    3668.26800 
        8.5000       0.118762         0.0000         0.0000         0.2404 
      115.0000        14.0000       0.000000         0.0000         0.0000 
        1.7900         2.4500      -999.2500       0.222229       0.222229 
      0.800000         2.6600      0.0216363         0.0000         0.5344 
       14.2552       112.7648       0.607106
    3668.42040 
        8.5000       0.117522         0.0000         0.0000         0.2935 
      115.0000        14.0000       0.000001         0.0000         0.0000 
        1.7900         2.4500      -999.2500       0.219901       0.219901 
      0.800000         2.6600      0.0216358         0.0000         0.5344 
       13.0497       112.7684       0.607861
    3668.57280 
        8.5000       0.118934         0.0000         0.0000         0.1915 
      115.0000        14.0000       0.000001         0.0000         0.0000 
        1.7900         2.4500      -999.2500       0.233816       0.233816 
      0.800000         2.6600      0.0216352         0.0000         0.5087 
       12.7382       112.7721       0.608616
    3668.72520 
        8.5000       0.118332         0.0000         0.0000         0.2922 
      115.0000        14.0000       0.000001         0.0000         0.0000 
        1.7900         2.4500      -999.2500       0.236549       0.236549 
      0.800000         2.6600      0.0216346         0.0000         0.5002 
       10.9999       112.7757       0.609371
    3668.87760 
        8.5000       0.115974         0.0000         0.0000         0.2541 
      115.0000        14.0000       0.000001         0.0000         0.0000 
        1.7900         2.4500      -999.2500       0.225313       0.225313 
      0.800000         2.6600      0.0216340         0.0000         0.5147 
       11.6733       112.7793       0.610126
    3669.03000 
        8.5000       0.115555         0.0000         0.0000         0.1823 
      115.0000        14.0000       0.000001         0.0000         0.0000 
        1.7900         2.4500      -999.2500       0.218307       0.218307 
      0.800000         2.6600      0.0216334         0.0000         0.5293 
       13.4864       112.7830       0.610881
    3669.18240 
        8.5000       0.118799         0.0000         0.0000         0.1856 
      115.0000        14.0000       0.000002         0.0000         0.0000 
        1.7900         2.4500      -999.2500       0.225777       0.225777 
      0.800000         2.6600      0.0216328         0.0000         0.5262 
        9.2959       112.7866       0.611636
    3669.33480 
        8.5000       0.120146         0.0000         0.0000         0.2402 
      115.0000        14.0000       0.000002         0.0000         0.0000 
        1.7900         2.4500      -999.2500       0.214561       0.214561 
      0.800000         2.6600      0.0216323         0.0000         0.5600 
        9.2854       112.7902       0.612391
    3669.48720 
        8.5000       0.117670         0.0000         0.0000         0.2030 
      115.0000        14.0000       0.000002         0.0000         0.0000 
        1.7900         2.4500      -999.2500       0.182385       0.182385 
      0.800000         2.6600      0.0216317         0.0000         0.6452 
        8.9295       112.7938       0.613146
    3669.63960 
        8.5000       0.119425         0.0000         0.0000         0.3172 
      115.0000        14.0000       0.000004         0.0000         0.0000 
        1.7900         2.4500      -999.2500       0.179045       0.179045 
      0.800000         2.6600      0.0216311         0.0000         0.6670 
        6.7135       112.7975       0.613901
    3669.79200 
        8.5000       0.101918         0.0000         0.0000         0.3023 
      115.0000        14.0000       0.000003         0.0000         0.0000 
        1.7900         2.4500      -999.2500       0.101918       0.101918 
      0.800000         2.6600      0.0216305         0.0000         1.0000 
        8.6630       112.8011       0.614657
