~Version Information Block
VERS .                 2.00:  CWLS LOG ASCII STANDARD - VERSION 2.00
WRAP .                  YES:  Multiple lines per depth step
~Well Information Block
#MNEM.UNIT        Data Type   Information
#---------- ----------------  -----------
STRT .M          3666.59160:  START DEPTH
STOP .M          4124.85840:  STOP DEPTH
STEP .M             0.15240:  STEP
NULL .              -999.25:  NULL VALUE
COMP .                     :  COMPANY
WELL .         NO_15/9-19_A:  WELL
FLD  .                     :  FIELD
LOC  .                     :  LOCATION
CTRY .                     :  COUNTRY
STAT .                     :  STATE
CNTY .                     :  COUNTY
SRVC .                     :  SERVICE COMPANY
DATE .                     :  DATE
API  .                     :  API NUMBER
UWI  .                     :  UNIQUE WELL ID
~Curve Information Block
#MNEM.UNIT         API CODE   Curve Description
#---------- ----------------  -----------------
DEPTH.M                    :  
BS   .IN                   :  8.5
BVW  .V/V                  :  PHIF*SW
CARB_FLAG.UNITLESS                 :  Values changed using TEXT_EDIT
COAL_FLAG.UNITLESS                 :  Coal flag
DELTA.V/V                  :  (NPHI-PORD)
GRMAX.GAPI                 :  Gamma Ray Shale Value
GRMIN.GAPI                 :  Gamma Ray Clean Value
J    .                     :  (0.034355/8.27)*REFERENCE.H_FWL*(KLOGH/PHIF)**0.5
KLHC_INT.MD                   :  Values changed using TEXT_EDIT
KLOGH.MD                   :  Values changed using TEXT_EDIT
M    .UNITLESS                 :  1.865*KLOGH**-0.0083
N    .                     :  Saturation exponent
PERF_FLAG.UNITLESS                 :  1
PHIF .V/V                  :  Values changed using TEXT_EDIT
PORD .V/V                  :  Density porosity
RHOFL.G/CM3                 :  Fluid density
RHOMA.G/CM3                 :  Fixed RHOMA
RW   .OHMM                 :  Formation Resistivity
SAND_FLAG.UNITLESS                 :  Values changed using TEXT_EDIT
SW   .V/V                  :  Water Saturation
SWIRR.                     :  0.42*KLOGH**-0.18
TEMP .DEGC                 :  Calculated temperature curve
VSH  .V/V                  :  Merged HQLD.HQLDVSH_1 and OFFICIAL.VSH_1 at 3673.32
~Parameter Information Block
#MNEM.UNIT            Value   Description
#---------- ----------------  -----------
CUR_INT_BOT.M           4125.0108:  
PROJECT.     SLEIPNER_OST@st-vlinapp01:  
SET  .             STAT_CPI:  
~Other Information Block
~Ascii Log Data
# ...
    3726.94200 
        8.5000       0.094097         0.0000         0.0000         0.3006 
      115.0000        14.0000       0.000009         0.0000         0.0000 
        1.7900         2.4500      -999.2500       0.110179       0.110179 
      0.800000         2.6600      0.0214153         0.0000         0.8540 
        5.7122       114.1504       0.781374
    3727.09440 
        8.5000       0.090138         0.0000         0.0000         0.2609 
      115.0000        14.0000       0.000009         0.0000         0.0000 
        1.7900         2.4500      -999.2500       0.096292       0.096292 
      0.800000         2.6600      0.0214148         0.0000         0.9361 
        5.7969       114.1539       0.782117
    3727.24680 
        8.5000       0.088440         0.0000         0.0000         0.2070 
      115.0000        14.0000       0.000008         0.0000         0.0000 
        1.7900         2.4500      -999.2500       0.091952       0.091952 
      0.800000         2.6600      0.0214142         0.0000         0.9618 
        6.0153       114.1575       0.782860
    3727.39920 
        8.5000       0.089713         0.0000         0.0000         0.2225 
      115.0000        14.0000       0.000008         0.0000         0.0000 
        1.7900         2.4500      -999.2500       0.098362       0.098362 
      0.800000         2.6600      0.0214137         0.0000         0.9121 
        5.9278       114.1610       0.783604
    3727.55160 
        8.5000       0.086543         0.0000         0.0000         0.3358 
      115.0000        14.0000       0.000007         0.0000         0.0000 
        1.7900         2.4500      -999.2500       0.086606       0.086606 
      0.800000         2.6600      0.0214131         0.0000         0.9993 
        6.6456       114.1646       0.784347
    3727.70400 
        8.5000       0.090205         0.0000         0.0000         0.2301 
      115.0000        14.0000       0.000013         0.0000         0.0000 
        1.7900         2.4500      -999.2500       0.101554       0.101554 
      0.800000         2.6600      0.0214126         0.0000         0.8883 
        5.0165       114.1681       0.785090
    3727.85640 
        8.5000       0.088363         0.0000         0.0000         0.2055 
      115.0000        14.0000       0.000009         0.0000         0.0000 
        1.7900         2.4500      -999.2500       0.094651       0.094651 
      0.800000         2.6600      0.0214120         0.0000         0.9336 
        5.9428       114.1716       0.785833
    3728.00880 
        8.5000       0.093747         0.0000         0.0000         0.1946 
      115.0000        14.0000       0.000018         0.0000         0.0000 
        1.7900         2.4500      -999.2500       0.118722       0.118722 
      0.800000         2.6600      0.0214114         0.0000         0.7896 
        4.3912       114.1752       0.786577
    3728.16120 
        8.5000       0.087389         0.0000         0.0000         0.2807 
      115.0000        14.0000       0.000010         0.0000         0.0000 
        1.7900         2.4500      -999.2500       0.092041       0.092041 
      0.800000         2.6600      0.0214109         0.0000         0.9495 
        5.7020       114.1787       0.787320
    3728.31360 
        8.5000       0.087490         0.0000         0.0000         0.2537 
      115.0000        14.0000       0.000015         0.0000         0.0000 
        1.7900         2.4500      -999.2500       0.093007       0.093007 
      0.800000         2.6600      0.0214103         0.0000         0.9407 
        4.8677       114.1823       0.788063
    3728.46600 
        8.5000       0.085452         0.0000         0.0000         0.2734 
      115.0000        14.0000       0.000014         0.0000         0.0000 
        1.7900         2.4500      -999.2500       0.085514       0.085514 
      0.800000         2.6600      0.0214098         0.0000         0.9993 
        5.0186       114.1858       0.788807
    3728.61840 
        8.5000       0.071560         0.0000         0.0000         0.2329 
      115.0000        14.0000       0.000022         0.0000         0.0000 
        1.7900         2.4500      -999.2500       0.071560       0.071560 
      0.800000         2.6600      0.0214092         0.0000         1.0000 
        4.4858       114.1893       0.789550
    3728.77080 
        8.5000       0.090750         0.0000         0.0000         0.2241 
      115.0000        14.0000       0.000024         0.0000         0.0000 
        1.7900         2.4500      -999.2500       0.104708       0.104708 
      0.800000         2.6600      0.0214086         0.0000         0.8667 
        4.0511       114.1929       0.791440
    3728.92320 
        8.5000       0.089395         0.0000         0.0000         0.2783 
      115.0000        14.0000       0.000017         0.0000         0.0000 
        1.7900         2.4500      -999.2500       0.098413       0.098413 
      0.800000         2.6600      0.0214081         0.0000         0.9084 
        4.6054       114.1964       0.793813
    3729.07560 
        8.5000       0.089324         0.0000         0.0000         0.2544 
      115.0000        14.0000       0.000022         0.0000         0.0000 
        1.7900         2.4500      -999.2500       0.098387       0.098387 
      0.800000         2.6600      0.0214075         0.0000         0.9079 
        4.2148       114.2000       0.796186
    3729.22800 
        8.5000       0.090794         0.0000         0.0000         0.2653 
      115.0000        14.0000       0.000025         0.0000         0.0000 
        1.7900         2.4500      -999.2500       0.104813       0.104813 
      0.800000         2.6600      0.0214070         0.0000         0.8662 
        3.9658       114.2035       0.786217
    3729.38040 
        8.5000       0.092081         0.0000         0.0000         0.2699 
      115.0000        14.0000       0.000018         0.0000         0.0000 
        1.7900         2.4500      -999.2500       0.110729       0.110729 
      0.800000         2.6600      0.0214064         0.0000         0.8316 
        4.4026       114.2070       0.786652
    3729.53280 
        8.5000       0.089577         0.0000         0.0000         0.2662 
      115.0000        14.0000       0.000016         0.0000         0.0000 
        1.7900         2.4500      -999.2500       0.100578       0.100578 
      0.800000         2.6600      0.0214058         0.0000         0.8906 
        4.7456       114.2106       0.787086
    3729.68520 
        8.5000       0.092560         0.0000         0.0000         0.2458 
      115.0000        14.0000       0.000022         0.0000         0.0000 
        1.7900         2.4500      -999.2500       0.113390       0.113390 
      0.800000         2.6600      0.0214053         0.0000         0.8163 
        4.1087       114.2141       0.787521
    3729.83760 
        8.5000       0.090941         0.0000         0.0000         0.2096 
      115.0000        14.0000       0.000007         0.0000         0.0000 
        1.7900         2.4500      -999.2500       0.103802       0.103802 
      0.800000         2.6600      0.0214047         0.0000         0.8761 
        6.3374       114.2177       0.787956
    3729.99000 
        8.5000       0.094378         0.0000         0.0000         0.2218 
      115.0000        14.0000       0.000012         0.0000         0.0000 
        1.7900         2.4500      -999.2500       0.116080       0.116080 
      0.800000         2.6600      0.0214042         0.0000         0.8130 
        5.1398       114.2212       0.788391
    3730.14240 
        8.5000       0.097493         0.0000         0.0000         0.2330 
      115.0000        14.0000       0.000028         0.0000         0.0000 
        1.7900         2.4500      -999.2500       0.131659       0.131659 
      0.800000         2.6600      0.0214036         0.0000         0.7405 
        3.6636       114.2247       0.788825
