~Version Information Block
VERS .                 2.00:  CWLS LOG ASCII STANDARD - VERSION 2.00
WRAP .                  YES:  Multiple lines per depth step
~Well Information Block
#MNEM.UNIT        Data Type   Information
#---------- ----------------  -----------
STRT .M          3666.59160:  START DEPTH
STOP .M          4124.85840:  STOP DEPTH
STEP .M             0.15240:  STEP
NULL .              -999.25:  NULL VALUE
COMP .                     :  COMPANY
WELL .         NO_15/9-19_A:  WELL
FLD  .                     :  FIELD
LOC  .                     :  LOCATION
CTRY .                     :  COUNTRY
STAT .                     :  STATE
CNTY .                     :  COUNTY
SRVC .                     :  SERVICE COMPANY
DATE .                     :  DATE
API  .                     :  API NUMBER
UWI  .                     :  UNIQUE WELL ID
~Curve Information Block
#MNEM.UNIT         API CODE   Curve Description
#---------- ----------------  -----------------
DEPTH.M                    :  
BS   .IN                   :  8.5
BVW  .V/V                  :  PHIF*SW
CARB_FLAG.UNITLESS                 :  Values changed using TEXT_EDIT
COAL_FLAG.UNITLESS                 :  Coal flag
DELTA.V/V                  :  (NPHI-PORD)
GRMAX.GAPI                 :  Gamma Ray Shale Value
GRMIN.GAPI                 :  Gamma Ray Clean Value
J    .                     :  (0.034355/8.27)*REFERENCE.H_FWL*(KLOGH/PHIF)**0.5
KLHC_INT.MD                   :  Values changed using TEXT_EDIT
KLOGH.MD                   :  Values changed using TEXT_EDIT
M    .UNITLESS                 :  1.865*KLOGH**-0.0083
N    .                     :  Saturation exponent
PERF_FLAG.UNITLESS                 :  1
PHIF .V/V                  :  Values changed using TEXT_EDIT
PORD .V/V                  :  Density porosity
RHOFL.G/CM3                 :  Fluid density
RHOMA.G/CM3                 :  Fixed RHOMA
RW   .OHMM                 :  Formation Resistivity
SAND_FLAG.UNITLESS                 :  Values changed using TEXT_EDIT
SW   .V/V                  :  Water Saturation
SWIRR.                     :  0.42*KLOGH**-0.18
TEMP .DEGC                 :  Calculated temperature curve
VSH  .V/V                  :  Merged HQLD.HQLDVSH_1 and OFFICIAL.VSH_1 at 3673.32
~Parameter Information Block
#MNEM.UNIT            Value   Description
#---------- ----------------  -----------
CUR_INT_BOT.M           4125.0108:  
PROJECT.     SLEIPNER_OST@st-vlinapp01:  
SET  .             STAT_CPI:  
~Other Information Block
~Ascii Log Data
# ...
    3824.17320 
        8.5000       0.042386         0.0000         0.0000         0.0699 
      115.0000        14.0000       0.087554        48.5012        48.5012 
        1.8059         2.4500      -999.2500       0.109186       0.109186 
      0.800000         2.6600      0.0210652         1.0000         0.3938 
        0.2088       116.4051       0.131971
    3824.32560 
        8.5000       0.043904         0.0000         0.0000         0.0421 
      115.0000        14.0000       0.098430        71.1945        71.1945 
        1.8001         2.4500      -999.2500       0.126812       0.126812 
      0.800000         2.6600      0.0210647         1.0000         0.3492 
        0.1949       116.4086       0.129117
    3824.47800 
        8.5000       0.045299         0.0000         0.0000         0.0396 
      115.0000        14.0000       0.115849       104.5077       104.5077 
        1.7944         2.4500      -999.2500       0.134379       0.134379 
      0.800000         2.6600      0.0210641         1.0000         0.3383 
        0.1819       116.4122       0.117320
    3824.63040 
        8.5000       0.046321         0.0000         0.0000         0.0305 
      115.0000        14.0000       0.077247        45.7350        45.7350 
        1.8068         2.4500      -999.2500       0.132267       0.132267 
      0.800000         2.6600      0.0210636         1.0000         0.3551 
        0.2111       116.4157       0.155320
    3824.78280 
        8.5000       0.047859         0.0000         0.0000         0.0435 
      115.0000        14.0000       0.078944        50.6636        50.6636 
        1.8052         2.4500      -999.2500       0.140291       0.140291 
      0.800000         2.6600      0.0210630         1.0000         0.3453 
        0.2072       116.4193       0.157515
    3824.93520 
        8.5000       0.046017         0.0000         0.0000         0.0620 
      115.0000        14.0000       0.077229        42.7597        42.7597 
        1.8078         2.4500         0.0000       0.123722       0.123722 
      0.800000         2.6600      0.0210625         1.0000         0.3776 
        0.2136       116.4228       0.150971
    3825.08760 
        8.5000       0.046757         0.0000         0.0000         0.0229 
      115.0000        14.0000       0.081714        55.9256        55.9256 
        1.8037         2.4500         1.0000       0.144541       0.144541 
      0.800000         2.6600      0.0210620         1.0000         0.3270 
        0.2036       116.4264       0.156524
    3825.24000 
        8.5000       0.045823         0.0000         0.0000         0.0203 
      115.0000        14.0000       0.099298        87.2229        87.2229 
        1.7971         2.4500         1.0000       0.152656       0.152656 
      0.800000         2.6600      0.0210614         1.0000         0.3018 
        0.1879       116.4300       0.142291
    3825.39240 
        8.5000       0.044503         0.0000         0.0000         0.0113 
      115.0000        14.0000       0.114842       118.7372       118.7372 
        1.7925         2.4500         1.0000       0.155366       0.155366 
      0.800000         2.6600      0.0210609         1.0000         0.2870 
        0.1778       116.4335       0.129816
    3825.54480 
        8.5000       0.043084         0.0000         0.0000         0.0244 
      115.0000        14.0000       0.114549       118.1406       118.1406 
        1.7926         2.4500         1.0000       0.155376       0.155376 
      0.800000         2.6600      0.0210603         1.0000         0.2778 
        0.1779       116.4371       0.130068
    3825.69720 
        8.5000       0.041985         0.0000         0.0000         0.0246 
      115.0000        14.0000       0.122068       134.6203       134.6203 
        1.7906         2.4500         1.0000       0.155912       0.155912 
      0.800000         2.6600      0.0210598         1.0000         0.2694 
        0.1738       116.4406       0.124243
    3825.84960 
        8.5000       0.043587         0.0000         0.0000         0.0047 
      115.0000        14.0000       0.185481       364.2037       364.2037 
        1.7759         2.4500         1.0000       0.182690       0.182690 
      0.800000         2.6600      0.0210592         1.0000         0.2363 
        0.1453       116.4442       0.100019
    3826.00200 
        8.5000       0.044944         0.0000         0.0000        -0.0131 
      115.0000        14.0000       0.172933       329.6408       329.6408 
        1.7774         2.4500         1.0000       0.190220       0.185473 
      0.800000         2.6600      0.0210587         1.0000         0.2343 
        0.1479       116.4478       0.111524
    3826.15440 
        8.5000       0.045633         0.0000         0.0000         0.0084 
      115.0000        14.0000       0.167826       301.8564       301.8564 
        1.7787         2.4500         1.0000       0.184948       0.184948 
      0.800000         2.6600      0.0210582         1.0000         0.2448 
        0.1503       116.4513       0.111087
    3826.30680 
        8.5000       0.045748         0.0000         0.0000         0.0229 
      115.0000        14.0000       0.147422       228.1965       228.1965 
        1.7828         2.4500         1.0000       0.181198       0.181198 
      0.800000         2.6600      0.0210576         1.0000         0.2512 
        0.1580       116.4549       0.121252
    3826.45920 
        8.5000       0.046137         0.0000         0.0000         0.0293 
      115.0000        14.0000       0.151496       253.7820       253.7820 
        1.7812         2.4500         1.0000       0.190822       0.190822 
      0.800000         2.6600      0.0210571         1.0000         0.2404 
        0.1550       116.4584       0.124680
    3826.61160 
        8.5000       0.046193         0.0000         0.0000         0.0024 
      115.0000        14.0000       0.136692       214.1854       214.1854 
        1.7837         2.4500         1.0000       0.197822       0.197822 
      0.800000         2.6600      0.0210565         1.0000         0.2325 
        0.1598       116.4620       0.139087
    3826.76400 
        8.5000       0.046557         0.0000         0.0000        -0.0019 
      115.0000        14.0000       0.179955       388.5990       388.5990 
        1.7749         2.4500         1.0000       0.207082       0.197849 
      0.800000         2.6600      0.0210560         1.0000         0.2227 
        0.1436       116.4656       0.118573
    3826.91640 
        8.5000       0.044468         0.0000         0.0000         0.0242 
      115.0000        14.0000       0.140869       202.2616       202.2616 
        1.7846         2.4500         1.0000       0.175893       0.175893 
      0.800000         2.6600      0.0210554         1.0000         0.2518 
        0.1615       116.4691       0.122359
    3827.06880 
        8.5000       0.043904         0.0000         0.0000         0.0174 
      115.0000        14.0000       0.177782       313.1617       313.1617 
        1.7781         2.4500         1.0000       0.170987       0.170987 
      0.800000         2.6600      0.0210549         1.0000         0.2546 
        0.1493       116.4727       0.096903
    3827.22120 
        8.5000       0.043225         0.0000         0.0000         0.0011 
      115.0000        14.0000       0.179035       319.5467       319.5467 
        1.7778         2.4500         1.0000       0.172039       0.172039 
      0.800000         2.6600      0.0210543         1.0000         0.2491 
        0.1487       116.4762       0.096864
    3827.37360 
        8.5000       0.043561         0.0000         0.0000        -0.0132 
      115.0000        14.0000       0.221858       595.8173       595.8173 
        1.7687         2.4500         1.0000       0.208898       0.204174 
      0.800000         2.6600      0.0210538         1.0000         0.2057 
        0.1330       116.4798       0.099563
