~Version Information Block
VERS .                 2.00:  CWLS LOG ASCII STANDARD - VERSION 2.00
WRAP .                  YES:  Multiple lines per depth step
~Well Information Block
#MNEM.UNIT        Data Type   Information
#---------- ----------------  -----------
STRT .M          3666.59160:  START DEPTH
STOP .M          4124.85840:  STOP DEPTH
STEP .M             0.15240:  STEP
NULL .              -999.25:  NULL VALUE
COMP .                     :  COMPANY
WELL .         NO_15/9-19_A:  WELL
FLD  .                     :  FIELD
LOC  .                     :  LOCATION
CTRY .                     :  COUNTRY
STAT .                     :  STATE
CNTY .                     :  COUNTY
SRVC .                     :  SERVICE COMPANY
DATE .                     :  DATE
API  .                     :  API NUMBER
UWI  .                     :  UNIQUE WELL ID
~Curve Information Block
#MNEM.UNIT         API CODE   Curve Description
#---------- ----------------  -----------------
DEPTH.M                    :  
BS   .IN                   :  8.5
BVW  .V/V                  :  PHIF*SW
CARB_FLAG.UNITLESS                 :  Values changed using TEXT_EDIT
COAL_FLAG.UNITLESS                 :  Coal flag
DELTA.V/V                  :  (NPHI-PORD)
GRMAX.GAPI                 :  Gamma Ray Shale Value
GRMIN.GAPI                 :  Gamma Ray Clean Value
J    .                     :  (0.034355/8.27)*REFERENCE.H_FWL*(KLOGH/PHIF)**0.5
KLHC_INT.MD                   :  Values changed using TEXT_EDIT
KLOGH.MD                   :  Values changed using TEXT_EDIT
M    .UNITLESS                 :  1.865*KLOGH**-0.0083
N    .                     :  Saturation exponent
PERF_FLAG.UNITLESS                 :  1
PHIF .V/V                  :  Values changed using TEXT_EDIT
PORD .V/V                  :  Density porosity
RHOFL.G/CM3                 :  Fluid density
RHOMA.G/CM3                 :  Fixed RHOMA
RW   .OHMM                 :  Formation Resistivity
SAND_FLAG.UNITLESS                 :  Values changed using TEXT_EDIT
SW   .V/V                  :  Water Saturation
SWIRR.                     :  0.42*KLOGH**-0.18
TEMP .DEGC                 :  Calculated temperature curve
VSH  .V/V                  :  Merged HQLD.HQLDVSH_1 and OFFICIAL.VSH_1 at 3673.32
~Parameter Information Block
#MNEM.UNIT            Value   Description
#---------- ----------------  -----------
CUR_INT_BOT.M           4125.0108:  
PROJECT.     SLEIPNER_OST@st-vlinapp01:  
SET  .             STAT_CPI:  
~Other Information Block
~Ascii Log Data
# ...
    3686.70840 
        8.5000       0.102869         0.0000         0.0000         0.2478 
      115.0000        14.0000       0.000000         0.0000         0.0000 
        1.7900         2.4500      -999.2500       0.209764       0.209764 
      0.800000         2.6600      0.0215658         0.0000         0.4904 
       24.2419       113.2042       0.698469
    3686.86080 
        8.5000       0.104154         0.0000         0.0000         0.3024 
      115.0000        14.0000       0.000000         0.0000         0.0000 
        1.7900         2.4500      -999.2500       0.211820       0.211820 
      0.800000         2.6600      0.0215652         0.0000         0.4917 
       20.6463       113.2079       0.699224
    3687.01320 
        8.5000       0.101001         0.0000         0.0000         0.1958 
      115.0000        14.0000       0.000000         0.0000         0.0000 
        1.7900         2.4500      -999.2500       0.186659       0.186659 
      0.800000         2.6600      0.0215646         0.0000         0.5411 
       17.9395       113.2115       0.699979
    3687.16560 
        8.5000       0.104586         0.0000         0.0000         0.2024 
      115.0000        14.0000       0.000000         0.0000         0.0000 
        1.7900         2.4500      -999.2500       0.217084       0.217084 
      0.800000         2.6600      0.0215640         0.0000         0.4818 
       21.6761       113.2151       0.700735
    3687.31800 
        8.5000       0.105842         0.0000         0.0000         0.2105 
      115.0000        14.0000       0.000000         0.0000         0.0000 
        1.7900         2.4500      -999.2500       0.237554       0.237554 
      0.800000         2.6600      0.0215634         0.0000         0.4455 
       18.4309       113.2187       0.701490
    3687.47040 
        8.5000       0.103540         0.0000         0.0000         0.2056 
      115.0000        14.0000       0.000000         0.0000         0.0000 
        1.7900         2.4500      -999.2500       0.229066       0.229066 
      0.800000         2.6600      0.0215629         0.0000         0.4520 
       27.7549       113.2224       0.702245
    3687.62280 
        8.5000       0.102392         0.0000         0.0000         0.1550 
      115.0000        14.0000       0.000000         0.0000         0.0000 
        1.7900         2.4500      -999.2500       0.225819       0.225819 
      0.800000         2.6600      0.0215623         0.0000         0.4534 
       32.8482       113.2260       0.703000
    3687.77520 
        8.5000       0.100556         0.0000         0.0000         0.2079 
      115.0000        14.0000       0.000000         0.0000         0.0000 
        1.7900         2.4500      -999.2500       0.212954       0.212954 
      0.800000         2.6600      0.0215617         0.0000         0.4722 
       42.0967       113.2296       0.703755
    3687.92760 
        8.5000       0.100896         0.0000         0.0000         0.2699 
      115.0000        14.0000       0.000000         0.0000         0.0000 
        1.7900         2.4500      -999.2500       0.215045       0.215045 
      0.800000         2.6600      0.0215611         0.0000         0.4692 
       51.1126       113.2332       0.704510
    3688.08000 
        8.5000       0.100856         0.0000         0.0000         0.3378 
      115.0000        14.0000       0.000000         0.0000         0.0000 
        1.7900         2.4500      -999.2500       0.213983       0.213983 
      0.800000         2.6600      0.0215605         0.0000         0.4713 
       53.4608       113.2368       0.705265
    3688.23240 
        8.5000       0.100273         0.0000         0.0000         0.1781 
      115.0000        14.0000       0.000000         0.0000         0.0000 
        1.7900         2.4500      -999.2500       0.210765       0.210765 
      0.800000         2.6600      0.0215600         0.0000         0.4758 
       91.8813       113.2405       0.706020
    3688.38480 
        8.5000       0.099471         0.0000         0.0000         0.2466 
      115.0000        14.0000       0.000000         0.0000         0.0000 
        1.7900         2.4500      -999.2500       0.208611       0.208611 
      0.800000         2.6600      0.0215594         0.0000         0.4768 
      141.4084       113.2441       0.706775
    3688.53720 
        8.5000       0.099553         0.0000         0.0000         0.2085 
      115.0000        14.0000       0.000000         0.0000         0.0000 
        1.7900         2.4500      -999.2500       0.214493       0.214493 
      0.800000         2.6600      0.0215588         0.0000         0.4641 
      182.8078       113.2477       0.707530
    3688.68960 
        8.5000       0.097448         0.0000         0.0000         0.2961 
      115.0000        14.0000       0.000000         0.0000         0.0000 
        1.7900         2.4500      -999.2500       0.201664       0.201664 
      0.800000         2.6600      0.0215582         0.0000         0.4832 
      216.6315       113.2513       0.708285
    3688.84200 
        8.5000       0.102337         0.0000         0.0000         0.1860 
      115.0000        14.0000       0.000000         0.0000         0.0000 
        1.7900         2.4500      -999.2500       0.242848       0.242848 
      0.800000         2.6600      0.0215577         0.0000         0.4214 
      172.4346       113.2549       0.709040
    3688.99440 
        8.5000       0.096312         0.0000         0.0000         0.2429 
      115.0000        14.0000       0.000000         0.0000         0.0000 
        1.7900         2.4500      -999.2500       0.193743       0.193743 
      0.800000         2.6600      0.0215571         0.0000         0.4971 
      242.7758       113.2586       0.709795
    3689.14680 
        8.5000       0.097964         0.0000         0.0000         0.2625 
      115.0000        14.0000       0.000000         0.0000         0.0000 
        1.7900         2.4500      -999.2500       0.206936       0.206936 
      0.800000         2.6600      0.0215565         0.0000         0.4734 
      192.6838       113.2622       0.710550
    3689.29920 
        8.5000       0.095526         0.0000         0.0000         0.2732 
      115.0000        14.0000       0.000000         0.0000         0.0000 
        1.7900         2.4500      -999.2500       0.189853       0.189853 
      0.800000         2.6600      0.0215559         0.0000         0.5032 
      254.6191       113.2658       0.711306
    3689.45160 
        8.5000       0.091710         0.0000         0.0000         0.2539 
      115.0000        14.0000       0.000000         0.0000         0.0000 
        1.7900         2.4500      -999.2500       0.164616       0.164616 
      0.800000         2.6600      0.0215553         0.0000         0.5571 
      267.5863       113.2694       0.712061
    3689.60400 
        8.5000       0.094378         0.0000         0.0000         0.1752 
      115.0000        14.0000       0.000000         0.0000         0.0000 
        1.7900         2.4500      -999.2500       0.184330       0.184330 
      0.800000         2.6600      0.0215548         0.0000         0.5120 
      139.5110       113.2730       0.712816
    3689.75640 
        8.5000       0.096312         0.0000         0.0000         0.1903 
      115.0000        14.0000       0.000000         0.0000         0.0000 
        1.7900         2.4500      -999.2500       0.199939       0.199939 
      0.800000         2.6600      0.0215542         0.0000         0.4817 
      109.8347       113.2767       0.713571
    3689.90880 
        8.5000       0.097209         0.0000         0.0000         0.1551 
      115.0000        14.0000       0.000000         0.0000         0.0000 
        1.7900         2.4500      -999.2500       0.208033       0.208033 
      0.800000         2.6600      0.0215536         0.0000         0.4673 
      160.9308       113.2803       0.714326
