~Version Information Block
VERS .                 2.00:  CWLS LOG ASCII STANDARD - VERSION 2.00
WRAP .                  YES:  Multiple lines per depth step
~Well Information Block
#MNEM.UNIT        Data Type   Information
#---------- ----------------  -----------
STRT .M          3666.59160:  START DEPTH
STOP .M          4124.85840:  STOP DEPTH
STEP .M             0.15240:  STEP
NULL .              -999.25:  NULL VALUE
COMP .                     :  COMPANY
WELL .         NO_15/9-19_A:  WELL
FLD  .                     :  FIELD
LOC  .                     :  LOCATION
CTRY .                     :  COUNTRY
STAT .                     :  STATE
CNTY .                     :  COUNTY
SRVC .                     :  SERVICE COMPANY
DATE .                     :  DATE
API  .                     :  API NUMBER
UWI  .                     :  UNIQUE WELL ID
~Curve Information Block
#MNEM.UNIT         API CODE   Curve Description
#---------- ----------------  -----------------
DEPTH.M                    :  
BS   .IN                   :  8.5
BVW  .V/V                  :  PHIF*SW
CARB_FLAG.UNITLESS                 :  Values changed using TEXT_EDIT
COAL_FLAG.UNITLESS                 :  Coal flag
DELTA.V/V                  :  (NPHI-PORD)
GRMAX.GAPI                 :  Gamma Ray Shale Value
GRMIN.GAPI                 :  Gamma Ray Clean Value
J    .                     :  (0.034355/8.27)*REFERENCE.H_FWL*(KLOGH/PHIF)**0.5
KLHC_INT.MD                   :  Values changed using TEXT_EDIT
KLOGH.MD                   :  Values changed using TEXT_EDIT
M    .UNITLESS                 :  1.865*KLOGH**-0.0083
N    .                     :  Saturation exponent
PERF_FLAG.UNITLESS                 :  1
PHIF .V/V                  :  Values changed using TEXT_EDIT
PORD .V/V                  :  Density porosity
RHOFL.G/CM3                 :  Fluid density
RHOMA.G/CM3                 :  Fixed RHOMA
RW   .OHMM                 :  Formation Resistivity
SAND_FLAG.UNITLESS                 :  Values changed using TEXT_EDIT
SW   .V/V                  :  Water Saturation
SWIRR.                     :  0.42*KLOGH**-0.18
TEMP .DEGC                 :  Calculated temperature curve
VSH  .V/V                  :  Merged HQLD.HQLDVSH_1 and OFFICIAL.VSH_1 at 3673.32
~Parameter Information Block
#MNEM.UNIT            Value   Description
#---------- ----------------  -----------
CUR_INT_BOT.M           4125.0108:  
PROJECT.     SLEIPNER_OST@st-vlinapp01:  
SET  .             STAT_CPI:  
~Other Information Block
~Ascii Log Data
# ...
    3787.29240 
        8.5000       0.070428         0.0000         0.0000         0.2153 
      115.0000        14.0000       0.000167         0.0001         0.0001 
        2.0110         2.4500      -999.2500       0.070428       0.070428 
      0.800000         2.6600      0.0211967         0.0000         1.0000 
        2.1524       115.5499       0.604022
    3787.44480 
        8.5000       0.077392         0.0000         0.0000         0.1991 
      115.0000        14.0000       0.000126         0.0001         0.0001 
        2.0187         2.4500      -999.2500       0.077392       0.077392 
      0.800000         2.6600      0.0211961         0.0000         1.0000 
        2.3403       115.5534       0.630902
    3787.59720 
        8.5000       0.081168         0.0000         0.0000         0.1809 
      115.0000        14.0000       0.000187         0.0002         0.0002 
        2.0049         2.4500      -999.2500       0.081168       0.081168 
      0.800000         2.6600      0.0211956         0.0000         1.0000 
        2.0171       115.5569       0.596899
    3787.74960 
        8.5000       0.074757         0.0000         0.0000         0.2078 
      115.0000        14.0000       0.000250         0.0003         0.0003 
        1.9965         2.4500      -999.2500       0.074757       0.074757 
      0.800000         2.6600      0.0211950         0.0000         1.0000 
        1.8412       115.5604       0.568638
    3787.90200 
        8.5000       0.064556         0.0000         0.0000         0.2354 
      115.0000        14.0000       0.000188         0.0001         0.0001 
        2.0085         2.4500      -999.2500       0.064556       0.064556 
      0.800000         2.6600      0.0211945         0.0000         1.0000 
        2.0951       115.5639       0.592437
    3788.05440 
        8.5000       0.067729         0.0000         0.0000         0.2098 
      115.0000        14.0000       0.000126         0.0001         0.0001 
        2.0211         2.4500      -999.2500       0.067729       0.067729 
      0.800000         2.6600      0.0211939         0.0000         1.0000 
        2.3996       115.5675       0.629113
    3788.20680 
        8.5000       0.057032         0.0000         0.0000         0.1956 
      115.0000        14.0000       0.000120         0.0000         0.0000 
        2.0256         2.4500      -999.2500       0.057032       0.057032 
      0.800000         2.6600      0.0211934         0.0000         1.0000 
        2.5179       115.5710       0.632383
    3788.35920 
        8.5000       0.075732         0.0000         0.0000         0.2614 
      115.0000        14.0000       0.000165         0.0001         0.0001 
        2.0103         2.4500      -999.2500       0.075732       0.075732 
      0.800000         2.6600      0.0211929         0.0000         1.0000 
        2.1361       115.5745       0.606740
    3788.51160 
        8.5000       0.083064         0.0000         0.0000         0.2270 
      115.0000        14.0000       0.000134         0.0001         0.0001 
        2.0147         2.4500      -999.2500       0.088123       0.088123 
      0.800000         2.6600      0.0211923         0.0000         1.0000 
        2.2403       115.5780       0.628887
    3788.66400 
        8.5000       0.085403         0.0000         0.0000         0.1941 
      115.0000        14.0000       0.000212         0.0002         0.0002 
        1.9981         2.4500      -999.2500       0.095134       0.095134 
      0.800000         2.6600      0.0211918         0.0000         1.0000 
        1.8724       115.5815       0.589848
    3788.81640 
        8.5000       0.088737         0.0000         0.0000         0.2158 
      115.0000        14.0000       0.000172         0.0002         0.0002 
        2.0034         2.4500      -999.2500       0.104801       0.104801 
      0.800000         2.6600      0.0211912         0.0000         1.0000 
        1.9845       115.5850       0.612322
    3788.96880 
        8.5000       0.091463         0.0000         0.0000         0.2163 
      115.0000        14.0000       0.000142         0.0001         0.0001 
        2.0087         2.4500      -999.2500       0.111796       0.111796 
      0.800000         2.6600      0.0211907         0.0000         0.9948 
        2.0999       115.5886       0.632347
    3789.12120 
        8.5000       0.091161         0.0000         0.0000         0.1794 
      115.0000        14.0000       0.000222         0.0003         0.0003 
        1.9946         2.4500      -999.2500       0.107008       0.107008 
      0.800000         2.6600      0.0211901         0.0000         1.0000 
        1.8040       115.5921       0.590392
    3789.27360 
        8.5000       0.086630         0.0000         0.0000         0.2572 
      115.0000        14.0000       0.000240         0.0003         0.0003 
        1.9952         2.4500      -999.2500       0.088246       0.088246 
      0.800000         2.6600      0.0211896         0.0000         1.0000 
        1.8151       115.5956       0.576246
    3789.42600 
        8.5000       0.089439         0.0000         0.0000         0.1991 
      115.0000        14.0000       0.000137         0.0001         0.0001 
        2.0117         2.4500      -999.2500       0.101024       0.101024 
      0.800000         2.6600      0.0211891         0.0000         1.0000 
        2.1686       115.5991       0.631373
    3789.57840 
        8.5000       0.076977         0.0000         0.0000         0.1847 
      115.0000        14.0000       0.000144         0.0001         0.0001 
        2.0144         2.4500      -999.2500       0.076977       0.076977 
      0.800000         2.6600      0.0211885         0.0000         1.0000 
        2.2337       115.6026       0.618951
    3789.73080 
        8.5000       0.085003         0.0000         0.0000         0.1899 
      115.0000        14.0000       0.000139         0.0001         0.0001 
        2.0138         2.4500      -999.2500       0.086521       0.086521 
      0.800000         2.6600      0.0211880         0.0000         1.0000 
        2.2192       115.6062       0.625220
    3789.88320 
        8.5000       0.084802         0.0000         0.0000         0.2871 
      115.0000        14.0000       0.000134         0.0001         0.0001 
        2.0149         2.4500      -999.2500       0.087095       0.087095 
      0.800000         2.6600      0.0211874         0.0000         1.0000 
        2.2461       115.6097       0.628727
    3790.03560 
        8.5000       0.080645         0.0000         0.0000         0.1872 
      115.0000        14.0000       0.000084         0.0000         0.0000 
        2.0319         2.4500      -999.2500       0.080645       0.080645 
      0.800000         2.6600      0.0211869         0.0000         1.0000 
        2.6959       115.6132       0.669085
    3790.18800 
        8.5000       0.059140         0.0000         0.0000         0.2266 
      115.0000        14.0000       0.000146         0.0001         0.0001 
        2.0184         2.4500      -999.2500       0.059140       0.059140 
      0.800000         2.6600      0.0211863         0.0000         1.0000 
        2.3319       115.6167       0.615015
    3790.34040 
        8.5000       0.041548         0.0000         0.0000         0.2507 
      115.0000        14.0000       0.000224         0.0001         0.0001 
        2.0100         2.4500      -999.2500       0.041548       0.041548 
      0.800000         2.6600      0.0211858         0.0000         1.0000 
        2.1302       115.6202       0.577625
    3790.49280 
        8.5000       0.000000         0.0000         0.0000         0.2394 
      115.0000        14.0000    -999.250000         0.0008         0.0008 
        1.9780         2.4500      -999.2500       0.000000       0.000000 
      0.800000         2.6600      0.0211852         0.0000         1.0000 
        1.5049       115.6237       0.456038
