~VERSION INFORMATION
 VERS.                2.0:   CWLS LOG ASCII STANDARD - VERSION 2.0
 WRAP.                 NO:   ONE LINE PER DEPTH STEP
~WELL INFORMATION
#MNEM.UNIT      DATA TYPE    INFORMATION
#----------   ------------   ------------------------------
 STRT.F           80.0000:   START DEPTH
 STOP.F         1100.0000:   STOP DEPTH
 STEP.F            0.5000:   STEP LENGTH
 NULL.          -999.2500:   NO VALUE
 COMP.          U.S. NAVY:   COMPANY
 WELL.     NPR #3 #65-S-2:   WELL
 FLD .             TEAPOT:   FIELD
 LOC .       S2 T38N R78W:   LOCATION
 CNTY.            NATRONA:   COUNTY
 STAT.            WYOMING:   STATE
 CTRY. UNITED STATES OF AMERICA:   COUNTRY
 SRVC.       Schlumberger:   SERVICE COMPANY
 DATE.        17-JUL-1964:   LOGDATE
 API .       490250642600:   API NUMBER
~CURVE INFORMATION
#MNEM.UNIT       API CODE    CURVE DESCRIPTION
#----------   ------------   ------------------------------
 DEPT.F                  :   
 CALS.IN     60 280 50 00:   CALIPER FROM SONIC LOG
 DT  .US/F   60 520 33 00:   INTERVAL TRANSIT TIME
 GR  .GAPI   30 310 01 00:   GAMMA RAY
 ASN .OHMM   05 041 16 00:   AMPLIFIER SHORT NORMAL 16"
 CILD.MMHO   05 110 46 00:   CONDUCTIVITY INDUCTION LOG DEEP
 ILD .OHMM   05 120 46 00:   INDUCTION LOG DEEP
 SPR .MV     05 010 01 00:   SPONTANEOUS POTENTIAL FROM RES.
~PARAMETER INFORMATION
#MNEM.UNIT          VALUE    DESCRIPTION
#----------   ------------   ------------------------------
 PD  .                 GL:   PERMANENT DATUM
 EPD .F              5199:   ELEVATION PERMANENT DATUM
 LMF .                 KB:   LOG MEASURED FROM
 DAPD.F                 5:   FEET ABOVE PERMANENT DATUM
 DMF .                 KB:   DRILLING MEASURED FROM
 EKB .F              5204:   KELLING BUSHING
 EGL .F              5199:   GROUND LEVEL
 DATE.        17-JUL-1964:   RUN DATE
 RUN .                  1:   RUN NUMBER
 DD  .F              1100:   DEPTH DRILLER
 DL  .F              1101:   DEPTH LOGGER
 BLI .F              1100:   BOTTOM LOG INTERVAL
 TLI .F                85:   TOP LOG INTERVAL
 CS  .IN            8.625:   CASING SIZE
 CBD .F                10:   CASING BOTTOM DRILLER
 BS  .IN             6.75:   BIT SIZE
 BSD .F              1100:   BIT SIZE AT DEPTH
 DFT .                GEL:   DRILLING FLUID TYPE
 DFD .                9.5:   DRILLING FLUID DENSITY
 DFV .                 47:   DRILLING FLUID VISCOSITY
 MSS .           FLOWLINE:   MUD SAMPLE SOURCE
 RMS .OHMM           2.60:   RESISTIVITY MUD SAMPLE
 MST .F                80:   MUD SAMPLE TEMPERATURE
 RMF .OHMM           1.65:   RESISTIVITY MUD FILTRATE SAMPLE
 MFST.F                80:   MUD FILTRATE SAMPLE TEMPERATURE
 RMC .OHMM           2.53:   RESISTIVITY MUD CAKE
 MCST.F                80:   MUD CAKE SAMPLE TEMPERATURE
 MFSS.                 FP:   MUD FILTRATE SAMPLE SOURCE
 MCSS.                 FP:   MUD CAKE SAMPLE SOURCE
 TCS .HRS               2:   TIME CURCULATED STOPPED
 LUN .               4507:   LOGGING UNIT NUMBER
 LUL .               CSPR:   LOGGING UNIT LOCATION
 ENGI.             DANNER:   RECORDING ENGINEER
 CLNT.            A2DTECH:   CLIENT CODE
 ORIG.        2" 5" PRINT:   ORIGIN OF DATA
 UWI .       490250642600:   UNIQUE WELL ID
 DICO. A2D Technologies, Inc.:   DIGITIZING COMPANY
~OTHER INFORMATION
~A   DEPT     CALS         DT         GR          ASN      CILD         ILD      SPR   
# ...
  580.5000     6.7867   103.6449    80.0342     6.9580   165.1082     6.4295   -32.9030
  581.0000     6.7872   103.5722    75.3559     6.8281   162.7521     6.4689   -32.9002
  581.5000     6.7726   103.9751    79.4401     6.7527   160.5951     6.5169   -32.9245
  582.0000     6.7884   104.5515    81.1062     6.7819   159.8339     6.5848   -33.0432
  582.5000     6.7738   104.7771    85.0381     6.8669   159.0756     6.6399   -33.1023
  583.0000     6.6538   104.4729    87.0063     7.0532   157.5174     6.7377   -33.3354
  583.5000     6.5789   104.2447    85.5002     7.1426   155.0859     6.8143   -33.3323
  584.0000     6.7001   103.9408    81.7283     7.2036   152.6548     6.8909   -33.3294
  584.5000     6.8060   103.8638    77.3521     7.2571   150.0478     6.8929   -33.3262
  585.0000     6.8065   103.7867    76.5962     7.2642   150.0374     6.8946   -33.3234
  585.5000     6.7769   103.7100    78.8892     7.2946   150.0262     6.8965   -33.3204
  586.0000     6.7624   104.4640    81.3171     7.3159   150.7616     6.8987   -33.4660
  586.5000     6.7629   104.3113    80.9748     7.3557   152.0246     6.9002   -33.4113
  587.0000     6.7333   103.7807    79.9435     7.3950   153.7348     6.9022   -33.3114
  587.5000     6.7188   103.9304    77.0779     7.3821   155.3455     6.8635   -33.3085
  588.0000     6.7042   104.5336    74.0612     7.3264   157.7547     6.7324   -33.4549
  588.5000     6.7047   105.1368    73.4614     7.2751   158.9409     6.6087   -33.4512
  589.0000     6.7354   105.5170    73.4659     7.1834   160.7510     6.5062   -33.3840
  589.5000     6.7811   105.9734    73.6214     7.0132   163.4842     6.3872   -32.9911
  590.0000     6.8143   106.4425    74.5311     6.8488   165.8932     6.3154   -32.7471
  590.5000     6.8877   106.8689    72.8751     6.6995   166.5931     6.2422   -32.6945
  591.0000     6.9484   106.7163    71.8221     6.6465   167.8661     6.1698   -32.8404
  591.5000     6.9941   106.4125    73.4883     6.6077   167.8555     6.1715   -32.9866
  592.0000     6.9344   106.2598    77.1181     6.5809   168.5937     6.0985   -33.2819
  592.5000     6.8747   106.1071    78.6331     6.5750   168.5798     6.1756   -33.4273
  593.0000     6.7999   106.0301    73.6527     6.5666   169.3189     6.2028   -33.5738
  593.5000     6.7402   105.9530    72.5998     6.5767   169.3075     6.3285   -33.7198
  594.0000     6.7255   106.1782    66.7130     6.6013   169.2964     6.3303   -33.6274
  594.5000     6.7563   106.7059    63.0921     6.6426   168.3745     6.4070   -33.5003
  595.0000     6.8171   107.1579    66.0420     6.6879   166.2788     6.4838   -33.2635
  595.5000     6.8778   107.6099    67.3545     6.7534   165.1834     6.4854   -33.0447
  596.0000     6.9536   107.3817    67.9405     6.8534   163.2635     6.4833   -32.8008
  596.5000     6.9240   106.8511    68.7002     6.9091   163.2500     6.3642   -32.6581
  597.0000     6.8342   106.1693    69.9131     6.9439   163.2410     6.3412   -32.6557
  597.5000     6.7443   105.4812    67.8028     6.9268   163.9777     6.3435   -32.6526
  598.0000     6.7464   105.1761    70.2242     6.9087   163.5678     6.2706   -32.6498
  598.5000     6.8556   105.0310    72.4945     6.8552   163.2073     6.1975   -32.6468
  599.0000     7.0171   104.8780    73.1032     6.8191   161.6975     6.2746   -32.6434
  599.5000     6.9574   105.4056    74.1651     6.7960   161.6879     6.3509   -32.6408
  600.0000     6.8750   105.5557    74.7727     6.9012   160.1796     6.5022   -32.6379
  600.5000     6.8067   104.7980    73.8687     6.9721   158.9733     6.5777   -32.6349
  601.0000     6.7459   104.1162    74.0333     7.0772   157.7670     6.5785   -32.6319
  601.5000     6.7178   103.7368    78.1286     7.1566   156.4371     6.5045   -32.6287
  602.0000     6.7784   103.2093    79.9336     7.2012   156.7714     6.4833   -32.6259
  602.5000     6.8238   102.6039    80.0830     7.2320   158.8138     6.2819   -32.6230
  603.0000     6.8090   102.4521    80.4716     7.1875   162.4328     6.1041   -32.6195
  603.5000     6.7943   103.8118    84.5468     7.1177   166.8003     5.9096   -32.6170
  604.0000     6.7645   104.8692    87.1963     7.0084   172.0347     5.8166   -32.6140
  604.5000     6.7497   105.7755    86.1299     6.8234   177.8970     5.7615   -32.6110
  605.0000     6.7500   106.5306    85.5287     6.5569   183.3584     5.7624   -32.6081
  605.5000     6.7955   107.5124    85.0950     6.4405   184.7156     5.6520   -32.6048
  606.0000     6.8711   108.3431    81.9517     6.3611   184.7006     5.5316   -32.6021
  606.5000     6.8864   108.4268    79.6466     6.3054   184.6848     5.4656   -32.5991
  607.0000     6.8265   108.1905    79.2174     6.2916   184.6707     5.4664   -32.5956
  607.5000     6.7666   107.8118    79.0708     6.3458   184.6557     5.5419   -32.5931
  608.0000     6.7819   107.6599    83.0212     6.3970   184.6382     5.6173   -32.7391
  608.5000     6.7822   107.2812    85.4758     6.4584   185.3743     5.6181   -32.7362
  609.0000     6.7825   106.9781    86.2387     6.4874   185.3588     5.6937   -32.7332
  609.5000     6.7828   106.6750    84.7145     6.4728   185.3443     5.7691   -32.5809
  610.0000     6.7831   106.3719    83.1731     6.3892   184.5808     5.8495   -32.5782
  610.5000     6.7834   106.2200    80.4586     6.2626   184.5638     5.9949   -32.5753
  611.0000     6.7837   106.1436    79.7078     6.1946   183.2286     6.0703   -32.5718
  611.5000     6.7841   106.3734    79.4091     6.1745   180.7933     6.2205   -32.5693
  612.0000     6.7844   106.9030    81.3785     6.1749   177.6347     6.3029   -32.5662
  612.5000     6.7847   107.2814    83.1957     6.2949   175.2121     6.3714   -32.6503
  613.0000     6.7850   107.5843    84.5597     6.5006   172.5133     6.5218   -32.8588
  613.5000     6.7852   107.5671    88.1897     6.6399   169.6182     6.5224   -32.8551
  614.0000     6.7856   107.1116    83.8135     6.7162   166.4471     6.5979   -33.0015
  614.5000     6.7859   106.5692    79.8905     6.8051   164.0244     6.5987   -33.1477
  615.0000     6.7862   106.2887    78.3845     6.9012   161.0403     6.5795   -33.1440
  615.5000     6.7865   106.5286    77.6337     6.9769   160.4628     6.5254   -33.1416
  616.0000     6.7868   106.0603    74.6171     7.0156   160.4491     6.4136   -33.1385
  616.5000     6.7720   105.5305    70.6941     7.0228   160.4341     6.3680   -33.1356
  617.0000     6.7572   105.0006    75.6835     7.0461   160.4162     6.2288   -33.1326
  617.5000     6.7575   104.6219    79.9177     7.0465   160.6226     6.1273   -33.1293
  618.0000     6.7578   104.2432    82.6412     7.0269   161.1377     6.0807   -33.1267
  618.5000     6.7431   104.0913    83.3999     7.0171   162.6321     5.9614   -33.1237
  619.0000     6.7434   103.9394    78.8738     7.0006   165.0249     5.9158   -33.1201
  619.5000     6.7286   103.6363    77.5177     6.9320   167.0783     5.8587   -33.1177
  620.0000     6.7290   103.2578    79.7892     6.8084   169.3111     5.7848   -33.1146
  620.5000     6.7293   114.3680    81.6064     6.6638   173.0384     5.7920   -33.2777
  621.0000     6.7144   104.8434    79.0430     6.5683   175.3443     5.9359   -33.4337
  621.5000     6.7148   104.3893    78.4421     6.5299   176.8699     5.9365   -33.7016
  622.0000     6.7302   105.1443    82.9795     6.5251   177.4850     6.0120   -33.9116
  622.5000     6.7455   105.2947    82.3798     6.5404   176.1602     6.0874   -33.9941
  623.0000     6.7458   105.3695    80.4205     6.5407   171.4669     6.1908   -33.9911
  623.5000     6.7612   109.8283    78.0082     6.5431   167.4351     6.3880   -33.7948
  624.0000     6.7916   106.5018    73.4809     6.5713   163.5029     6.6019   -33.3888
  624.5000     6.8371   107.2569    70.4643     6.6150   160.1928     6.7701   -33.0070
  625.0000     6.8976   107.0294    66.9945     6.8114   156.5619     6.9631   -32.7620
  625.5000     6.9431   105.5169    65.1852     7.0563   154.1020     7.0850   -32.6345
