~VERSION INFORMATION
 VERS.                2.0:   CWLS LOG ASCII STANDARD - VERSION 2.0
 WRAP.                 NO:   ONE LINE PER DEPTH STEP
~WELL INFORMATION
#MNEM.UNIT      DATA TYPE    INFORMATION
#----------   ------------   ------------------------------
 STRT.F          180.0000:   START DEPTH
 STOP.F         3280.0000:   STOP DEPTH
 STEP.F            0.5000:   STEP LENGTH
 NULL.          -999.2500:   NO VALUE
 COMP.    FENIX & SCISSON:   COMPANY
 WELL.  FENIX "AX" #85-10:   WELL
 FLD .              NPR 3:   FIELD
 LOC .      S10 T38N R78W:   LOCATION
 CNTY.            NATRONA:   COUNTY
 STAT.            WYOMING:   STATE
 CTRY. UNITED STATES OF AMERICA:   COUNTRY
 SRVC.       SCHLUMBERGER:   SERVICE COMPANY
 DATE.        03-JUL-1977:   LOGDATE
 API .     49025104000000:   API NUMBER
~CURVE INFORMATION
#MNEM.UNIT       API CODE    CURVE DESCRIPTION
#----------   ------------   ------------------------------
 DEPT.F                  :   
 SPR .MV     11 010 01 00:   SPONTANEOUS POTENTIAL FROM RES.
 MSFL.OHMM   11 270 04 00:   MICRO SPHERICALLY FOCUSED
 LLD .OHMM   11 220 10 00:   LATEROLOG LOG DEEP
 LLS .OHMM   11 220 09 00:   LATEROLOG LOG SHALLOW
 GRD .GAPI   45 310 01 00:   GAMMA RAY FROM DENSITY LOG
 CALD.IN     45 280 60 00:   CALIPER FROM DENSITY LOG
 CORR.G/C3   45 356 01 00:   DENSITY CORRECTION
 RHOB.G/C3   45 350 01 00:   BULK DENSITY
 NPHI.DEC    42 890 03 00:   NEUTRON POROSITY SANDSTONE
~PARAMETER INFORMATION
#MNEM.UNIT          VALUE    DESCRIPTION
#----------   ------------   ------------------------------
 EKB .F         5210.0000:   Kelly bushing
 EGL .F         5200.0000:   Ground level
 EDF .F            0.0000:   Drilling floor
 TD  .F         3265.0000:   Total depth
 DATE.        03-JUL-1977:   Date logged
 CLNT.            A2DTECH:   Client Code
 SL  . 2000' FSL & 100' FEL:   Surface Location
 PD  .                 GL:   Permanent Datum
 EPD .F              5200:   Elevation Permanent Datum
 LMF .                 KB:   Log Measured From
 DMF .                 KB:   Drilling Measured From
 DAPD.F                10:   Feet Above Permanent Datum
 DD  .F              3261:   Depth driller
 DL  .F              3265:   Depth logger
 BLI .F              2364:   Bottom log interval
 TLI .F               220:   Top log interval
 CS1 .IN            8.625:   Casing size
 CBD1.      8.625" @ 220':   Casing driller 1
 CBL1.F               220:   Casing logger 1
 BS1 .IN            7.875:   Bit size
 BSD1.F              3261:   Depth drilled with bit1
 DFT .                KCL:   Type fluid in hole
 DFD .                9.7:   Density
 DFV .                 38:   Viscosity
 DFPH.                7.5:   pH
 DFL .                 40:   Fluid loss
 MSS .                PIT:   Source of sample
 RMS .OHMM          0.167:   Rm
 MST .F                78:   Rm Meas. temp.
 RMF .OHMM          0.167:   Rmf
 MFST.F                78:   Rmf Meas. temp.
 MFSS.               MEAS:   Source Rmf.
 RMB .OHMM          0.103:   Rm. at BHT
 BHT .F               126:   BHT.
 TLAB.HRS            0930:   Time logger at bottom
 MRT .F               126:   Maximum recorded temp.
 LUN .               5642:   Logging unit number
 LUL .               CSPR:   Logging unit location
 ENGI.             MARTIN:   Recorded By
 WITN.         PETTINGILL:   Witnessed by
 ORIG.           5" PRINT:   Origin of data
 UWI .     49025104000000:   Unique Well ID
 DICO. A2D TECHNOLOGIES, INC.:   Digitizing Company
~OTHER INFORMATION
~A   DEPT      SPR       MSFL        LLD        LLS         GRD      CALD        CORR        RHOB       NPHI 
# ...
 1822.5000   -33.6860     9.2770     6.7060     7.4870   127.9720    10.7040     0.0140     2.5320     0.3060
 1823.0000   -33.6010     9.9230     6.6450     7.6550   128.3500    10.6120     0.0030     2.5100     0.3090
 1823.5000   -33.5160    10.9100     6.8300     7.9160   130.5030    10.5180    -0.0020     2.4880     0.3120
 1824.0000   -33.4310    10.1370     7.1120     8.1760   132.5830    10.4900    -0.0010     2.4820     0.3120
 1824.5000   -33.3470    10.2520     7.3950     8.4370   129.6440    10.5010     0.0020     2.4980     0.3120
 1825.0000   -33.2620    10.3730     7.6770     8.6720   124.8430    10.5120     0.0080     2.5080     0.3190
 1825.5000   -33.1760     8.9110     7.9840     9.3330   121.6140    10.5250     0.0150     2.5000     0.3270
 1826.0000   -33.1060     6.3020     7.9840     8.9290   118.8370    10.5030     0.0230     2.4960     0.3230
 1826.5000   -33.3150     4.5600     7.1480     7.9350   116.6540    10.5030     0.0360     2.5000     0.3150
 1827.0000   -33.5470     8.0480     6.1170     7.1510   117.8710    10.5030     0.0170     2.4950     0.3070
 1827.5000   -33.7780    12.4070     6.7680     7.3400   122.0520    10.5010     0.0090     2.4890     0.3030
 1828.0000   -34.0090    11.9500     7.9840     8.1170   126.3490    10.5270     0.0140     2.5220     0.3030
 1828.5000   -34.2420    10.7080     8.0580     8.7520   130.6890    10.5330     0.0190     2.5120     0.3030
 1829.0000   -34.2540     9.7990     7.4840     8.5440   132.9580    10.5400     0.0220     2.5090     0.3040
 1829.5000   -34.0720     9.3330     6.9990     8.3270   133.6220    10.5430     0.0250     2.5200     0.2990
 1830.0000   -33.8900     9.5030     6.5240     8.1100   134.2870    10.5460     0.0210     2.5230     0.3020
 1830.5000   -33.7080     9.7720     6.4640     7.8930   134.2880    10.5560     0.0000     2.5030     0.3040
 1831.0000   -33.5260     9.6430     6.4050     7.6750   133.7390    10.5650     0.0080     2.5170     0.3070
 1831.5000   -33.3450     9.4830     6.4640     7.5560   133.1880    10.5750     0.0030     2.5260     0.3090
 1832.0000   -33.1560     9.2860     6.5840     7.6260   132.6400    10.5840     0.0000     2.5230     0.3110
 1832.5000   -33.1040     9.5270     6.7060     7.5560   132.0890    10.5940     0.0070     2.5200     0.3140
 1833.0000   -33.1020     9.8480     6.8150     7.6380   132.3740    10.6040     0.0140     2.5250     0.3160
 1833.5000   -33.1030    10.1690     6.9160     7.6620   133.4840    10.5830     0.0230     2.5280     0.3180
 1834.0000   -33.1030    10.5160     7.0170     7.6870   134.4720    10.5830     0.0190     2.5230     0.3190
 1834.5000   -33.1030    10.3810     7.0860     7.7120   134.8390    10.5830     0.0130     2.5130     0.3180
 1835.0000   -33.1030    10.1200     6.9100     7.7360   134.6320    10.5820     0.0060     2.5120     0.3200
 1835.5000   -33.1030     9.8600     6.7200     7.7610   135.5820    10.5830     0.0050     2.5000     0.3250
 1836.0000   -33.1030     9.6000     6.5240     7.7670   136.5150    10.5830     0.0070     2.5060     0.3310
 1836.5000   -33.1020     9.3330     6.4720     7.7680   137.3500    10.5830     0.0110     2.5130     0.3360
 1837.0000   -33.1030     9.4370     6.4050     7.7720   137.1000    10.5790     0.0130     2.5150     0.3290
 1837.5000   -33.1110     9.7100     6.4050     7.6910   135.2470    10.5750     0.0180     2.5220     0.3220
 1838.0000   -32.8470     9.9820     6.4160     7.6960   132.6250    10.5710     0.0220     2.5350     0.3120
 1838.5000   -32.5320    10.2540     6.4260     7.6350   129.9450    10.5660     0.0260     2.5470     0.3150
 1839.0000   -32.2140    10.5160     6.4360     7.5350   130.2190    10.5600     0.0260     2.5430     0.3200
 1839.5000   -31.8970    10.2300     6.4450     7.4360   132.0400    10.6070     0.0220     2.5300     0.3090
 1840.0000   -31.5800     9.8870     6.4550     7.3370   133.9010    10.6450     0.0180     2.5200     0.3040
 1840.5000   -31.2630     9.5450     6.4640     7.2170   134.3230    10.6770     0.0250     2.5270     0.3170
 1841.0000   -30.9460     9.1630     6.2450     7.0290   133.9040    10.6630     0.0330     2.5320     0.3150
 1841.5000   -30.6230     9.3120     6.0620     6.8530   133.4170    10.6400     0.0420     2.5110     0.3110
 1842.0000   -30.3490     9.4750     5.9310     6.6770   135.3340    10.6200     0.0570     2.5040     0.3090
 1842.5000   -30.0830     8.4630     5.8970     6.5010   137.7120    10.6820     0.0440     2.5130     0.3280
 1843.0000   -29.8190     7.2410     5.9840     6.3250   140.1200    10.7410     0.0260     2.4970     0.3220
 1843.5000   -29.5540     5.9510     6.0620     6.1930   142.5280    10.6570     0.0200     2.5030     0.3140
 1844.0000   -29.2900     7.2400     5.7900     6.8300   144.9090    10.6000     0.0160     2.5150     0.3110
 1844.5000   -29.0290     7.8390     5.7000     6.8300   147.0830    10.5940     0.0130     2.5120     0.3130
 1845.0000   -28.7370     7.6260     5.6320     6.8300   147.5950    10.5860     0.0240     2.5220     0.3140
 1845.5000   -27.6770     8.1820     5.7070     6.8300   147.1900    10.5820     0.0400     2.5330     0.3200
 1846.0000   -26.5710     9.1340     5.8260     6.8300   145.0940    10.5760     0.0550     2.4930     0.3270
 1846.5000   -25.4650     9.5060     5.9460     6.8300   141.8500    10.5700     0.0440     2.5060     0.3340
 1847.0000   -24.3580     8.8750     6.0620     6.8300   138.6000    10.5630     0.0220     2.4950     0.3370
 1847.5000   -23.2720     8.2540     5.9060     6.7090   135.3520    10.5570     0.0230     2.5070     0.3240
 1848.0000   -22.7450     7.6320     5.6590     6.4320   133.5230    10.5460     0.0310     2.5180     0.3300
 1848.5000   -24.2740     7.4190     5.4120     6.1540   134.5910    10.5350     0.0210     2.5090     0.3270
 1849.0000   -25.7550     7.6590     5.2610     5.8970   136.1310    10.5230     0.0120     2.5070     0.3220
 1849.5000   -27.2250     7.8210     5.1870     5.8430   136.9820    10.5410     0.0110     2.5130     0.3210
 1850.0000   -28.5670     6.8830     5.1130     5.5300   137.8420    10.5760     0.0130     2.5070     0.3370
 1850.5000   -29.0710     5.0930     4.8010     4.8780   138.7490    10.6110     0.0350     2.5020     0.3510
 1851.0000   -29.5370     3.3030     4.4070     4.0900   138.4150    10.7120     0.0670     2.5050     0.3650
 1851.5000   -30.0040     1.6910     3.9730     2.9080   136.3010    10.8150     0.0870     2.4590     0.3860
 1852.0000   -30.4710     3.3910     3.9250     3.0440   133.6770    10.5330     0.0300     2.4170     0.3870
 1852.5000   -30.9370     9.3330     3.8650     4.0030   131.0460    10.5090     0.0030     2.4440     0.3540
 1853.0000   -31.4070     8.7230     4.8510     4.8740   128.4110    10.5330     0.0250     2.5010     0.3450
 1853.5000   -31.8730     7.8520     6.1460     5.7450   126.1900    10.5580     0.0380     2.5320     0.3370
 1854.0000   -32.3940     6.8930     6.1740     6.0060   126.0680    10.5820     0.0560     2.5520     0.3260
 1854.5000   -32.9020     5.0910     5.7900     5.6200   126.9470    10.5880     0.0400     2.5260     0.3280
 1855.0000   -33.4100     4.8910     5.7900     5.2330   126.4290    10.5930     0.0300     2.5350     0.3320
 1855.5000   -33.9180     4.5180     5.8980     5.1850   125.9080    10.5980     0.0220     2.5090     0.3310
 1856.0000   -34.4270     5.1390     6.0060     5.6370   126.2950    10.5860     0.0150     2.4910     0.3290
 1856.5000   -34.9360     6.6450     5.6390     5.8430   126.5650    10.5620     0.0060     2.4940     0.3310
 1857.0000   -35.4400     5.9900     5.0150     5.1010   126.0060    10.5910     0.0040     2.4860     0.3330
 1857.5000   -35.8860     4.0130     4.3910     4.5100   124.3400    10.6200     0.0240     2.4780     0.3420
 1858.0000   -35.8680     2.6280     3.8300     3.9200   122.9420    10.5900     0.0330     2.4560     0.3570
 1858.5000   -35.7610     7.6260     3.3680     3.5910   124.9650    10.5830     0.0090     2.4320     0.3680
