~VERSION INFORMATION
 VERS.                2.0:   CWLS LOG ASCII STANDARD - VERSION 2.0
 WRAP.                 NO:   ONE LINE PER DEPTH STEP
~WELL INFORMATION
#MNEM.UNIT      DATA TYPE    INFORMATION
#----------   ------------   ------------------------------
 STRT.F           80.0000:   START DEPTH
 STOP.F         1100.0000:   STOP DEPTH
 STEP.F            0.5000:   STEP LENGTH
 NULL.          -999.2500:   NO VALUE
 COMP.          U.S. NAVY:   COMPANY
 WELL.     NPR #3 #65-S-2:   WELL
 FLD .             TEAPOT:   FIELD
 LOC .       S2 T38N R78W:   LOCATION
 CNTY.            NATRONA:   COUNTY
 STAT.            WYOMING:   STATE
 CTRY. UNITED STATES OF AMERICA:   COUNTRY
 SRVC.       Schlumberger:   SERVICE COMPANY
 DATE.        17-JUL-1964:   LOGDATE
 API .       490250642600:   API NUMBER
~CURVE INFORMATION
#MNEM.UNIT       API CODE    CURVE DESCRIPTION
#----------   ------------   ------------------------------
 DEPT.F                  :   
 CALS.IN     60 280 50 00:   CALIPER FROM SONIC LOG
 DT  .US/F   60 520 33 00:   INTERVAL TRANSIT TIME
 GR  .GAPI   30 310 01 00:   GAMMA RAY
 ASN .OHMM   05 041 16 00:   AMPLIFIER SHORT NORMAL 16"
 CILD.MMHO   05 110 46 00:   CONDUCTIVITY INDUCTION LOG DEEP
 ILD .OHMM   05 120 46 00:   INDUCTION LOG DEEP
 SPR .MV     05 010 01 00:   SPONTANEOUS POTENTIAL FROM RES.
~PARAMETER INFORMATION
#MNEM.UNIT          VALUE    DESCRIPTION
#----------   ------------   ------------------------------
 PD  .                 GL:   PERMANENT DATUM
 EPD .F              5199:   ELEVATION PERMANENT DATUM
 LMF .                 KB:   LOG MEASURED FROM
 DAPD.F                 5:   FEET ABOVE PERMANENT DATUM
 DMF .                 KB:   DRILLING MEASURED FROM
 EKB .F              5204:   KELLING BUSHING
 EGL .F              5199:   GROUND LEVEL
 DATE.        17-JUL-1964:   RUN DATE
 RUN .                  1:   RUN NUMBER
 DD  .F              1100:   DEPTH DRILLER
 DL  .F              1101:   DEPTH LOGGER
 BLI .F              1100:   BOTTOM LOG INTERVAL
 TLI .F                85:   TOP LOG INTERVAL
 CS  .IN            8.625:   CASING SIZE
 CBD .F                10:   CASING BOTTOM DRILLER
 BS  .IN             6.75:   BIT SIZE
 BSD .F              1100:   BIT SIZE AT DEPTH
 DFT .                GEL:   DRILLING FLUID TYPE
 DFD .                9.5:   DRILLING FLUID DENSITY
 DFV .                 47:   DRILLING FLUID VISCOSITY
 MSS .           FLOWLINE:   MUD SAMPLE SOURCE
 RMS .OHMM           2.60:   RESISTIVITY MUD SAMPLE
 MST .F                80:   MUD SAMPLE TEMPERATURE
 RMF .OHMM           1.65:   RESISTIVITY MUD FILTRATE SAMPLE
 MFST.F                80:   MUD FILTRATE SAMPLE TEMPERATURE
 RMC .OHMM           2.53:   RESISTIVITY MUD CAKE
 MCST.F                80:   MUD CAKE SAMPLE TEMPERATURE
 MFSS.                 FP:   MUD FILTRATE SAMPLE SOURCE
 MCSS.                 FP:   MUD CAKE SAMPLE SOURCE
 TCS .HRS               2:   TIME CURCULATED STOPPED
 LUN .               4507:   LOGGING UNIT NUMBER
 LUL .               CSPR:   LOGGING UNIT LOCATION
 ENGI.             DANNER:   RECORDING ENGINEER
 CLNT.            A2DTECH:   CLIENT CODE
 ORIG.        2" 5" PRINT:   ORIGIN OF DATA
 UWI .       490250642600:   UNIQUE WELL ID
 DICO. A2D Technologies, Inc.:   DIGITIZING COMPANY
~OTHER INFORMATION
~A   DEPT     CALS         DT         GR          ASN      CILD         ILD      SPR   
# ...
  216.5000  -999.2500  -999.2500  -999.2500     6.9111   164.1180     6.5515   -39.8174
  217.0000  -999.2500  -999.2500  -999.2500     6.9114   163.7953     6.5534   -39.9623
  217.5000  -999.2500  -999.2500  -999.2500     6.9117   165.2877     6.4795   -39.9590
  218.0000  -999.2500  -999.2500  -999.2500     6.9120   167.0908     6.4814   -39.9553
  218.5000  -999.2500  -999.2500  -999.2500     6.9273   168.2748     6.4828   -39.9516
  219.0000  -999.2500  -999.2500  -999.2500     6.9275   168.2710     6.4721   -39.9478
  219.5000  -999.2500  -999.2500  -999.2500     6.8726   168.2672     6.4111   -39.9439
  220.0000  -999.2500  -999.2500  -999.2500     6.7486   166.7662     6.4126   -39.9404
  220.5000  -999.2500  -999.2500  -999.2500     6.7593   164.5472     6.4141   -39.9367
  221.0000  -999.2500  -999.2500  -999.2500     6.8389   162.9466     6.4155   -39.7834
  221.5000  -999.2500  -999.2500  -999.2500     6.9845   160.7665     6.4170   -39.7802
  222.0000  -999.2500  -999.2500  -999.2500     7.0883   160.7635     6.4934   -39.7765
  222.5000  -999.2500  -999.2500  -999.2500     7.1692   159.2626     6.5695   -39.7727
  223.0000  -999.2500  -999.2500  -999.2500     7.1844   158.8498     6.6540   -39.9186
  223.5000  -999.2500  -999.2500  -999.2500     7.1847   157.7582     6.7222   -40.0631
  224.0000  -999.2500  -999.2500  -999.2500     7.2300   158.5025     6.6487   -40.1351
  224.5000  -999.2500  -999.2500  -999.2500     7.2602   159.2478     6.6503   -40.2052
  225.0000  -999.2500  -999.2500  -999.2500     7.2605   159.2440     6.6517   -40.2006
  225.5000  -999.2500  -999.2500  -999.2500     7.2608   160.4478     6.5634   -40.1975
  226.0000  -999.2500  -999.2500  -999.2500     7.2611   162.4002     6.4307   -40.0447
  226.5000  -999.2500  -999.2500  -999.2500     7.2614   165.2204     6.1842   -40.0410
  227.0000  -999.2500  -999.2500  -999.2500     7.2201   167.3927     5.7481   -39.8882
  227.5000  -999.2500  -999.2500  -999.2500     7.1710   171.4009     5.4372   -39.8842
  228.0000  -999.2500  -999.2500  -999.2500     6.8501   180.9274     5.2404   -39.8808
  228.5000  -999.2500  -999.2500  -999.2500     6.6079   188.5391     5.2422   -39.7280
  229.0000  -999.2500  -999.2500  -999.2500     6.5294   192.8965     5.3229   -39.7237
  229.5000  -999.2500  -999.2500  -999.2500     6.2164   192.5038     5.4057   -39.7206
  230.0000  -999.2500  -999.2500  -999.2500     6.1856   190.1447     5.5458   -39.7889
  230.5000  -999.2500  -999.2500  -999.2500     6.3057   179.4118     5.7541   -39.8621
  231.0000  -999.2500  -999.2500  -999.2500     6.4563   171.0555     5.9975   -39.8584
  231.5000  -999.2500  -999.2500  -999.2500     6.8302   163.6863     6.3803   -40.0033
  232.0000  -999.2500  -999.2500  -999.2500     7.2890   157.3056     7.0045   -40.0676
  232.5000  -999.2500  -999.2500  -999.2500     7.8326   147.8107     7.5711   -40.2945
  233.0000  -999.2500  -999.2500  -999.2500     7.8933   139.7226     7.8323   -40.2899
  233.5000  -999.2500  -999.2500  -999.2500     7.8558   137.5836     7.9548   -40.2869
  234.0000  -999.2500  -999.2500  -999.2500     8.0927   135.2245     8.0242   -40.2830
  234.5000  -999.2500  -999.2500  -999.2500     8.1644   135.2208     8.0006   -40.2794
  235.0000  -999.2500  -999.2500  -999.2500     8.1435   136.0154     7.9522   -40.2757
  235.5000  -999.2500  -999.2500  -999.2500     8.0752   139.7041     7.8042   -40.2720
  236.0000  -999.2500  -999.2500  -999.2500     7.8168   143.4331     7.6423   -40.2683
  236.5000  -999.2500  -999.2500  -999.2500     7.6266   146.6729     7.5084   -40.2645
  237.0000  -999.2500  -999.2500  -999.2500     7.8665   150.1715     7.3286   -40.2608
  237.5000  -999.2500  -999.2500  -999.2500     7.8967   153.9109     7.1344   -40.2571
  238.0000  -999.2500  -999.2500  -999.2500     7.8671   157.6496     6.9656   -40.2532
  238.5000  -999.2500  -999.2500  -999.2500     7.7642   161.1489     6.7460   -40.2496
  239.0000  -999.2500  -999.2500  -999.2500     7.2644   164.1491     6.6189   -40.2693
  239.5000  -999.2500  -999.2500  -999.2500     7.0297   168.8655     6.3939   -40.5397
  240.0000  -999.2500  -999.2500  -999.2500     6.9481   171.7066     6.1733   -40.5365
  240.5000  -999.2500  -999.2500  -999.2500     6.9092   174.1180     6.1004   -40.5328
  241.0000  -999.2500  -999.2500  -999.2500     6.8060   175.5913     6.1016   -40.4332
  241.5000  -999.2500  -999.2500  -999.2500     6.7170   176.3366     6.1031   -40.1878
  242.0000  -999.2500  -999.2500  -999.2500     6.6719   176.3320     6.1794   -39.9252
  242.5000  -999.2500  -999.2500  -999.2500     6.6722   173.7836     6.3640   -39.7727
  243.0000  -999.2500  -999.2500  -999.2500     6.6725   170.9655     6.6309   -39.7496
  243.5000  -999.2500  -999.2500  -999.2500     6.7027   168.0869     6.8163   -39.6157
  244.0000  -999.2500  -999.2500  -999.2500     6.7824   166.1277     7.0135   -39.6125
  244.5000  -999.2500  -999.2500  -999.2500     7.0074   162.8404     7.1587   -39.6088
  245.0000  -999.2500  -999.2500  -999.2500     7.2597   159.7929     7.2347   -39.6051
  245.5000  -999.2500  -999.2500  -999.2500     7.3326   157.3740     7.3110   -39.7509
  246.0000  -999.2500  -999.2500  -999.2500     7.3330   154.5953     7.3124   -39.8954
  246.5000  -999.2500  -999.2500  -999.2500     7.3783   153.5641     7.3139   -39.8202
  247.0000  -999.2500  -999.2500  -999.2500     7.4402   153.0913     7.3156   -39.5902
  247.5000  -999.2500  -999.2500  -999.2500     7.4836   152.6385     7.0622   -39.5858
  248.0000  -999.2500  -999.2500  -999.2500     7.4838   151.5868     6.7952   -39.5827
  248.5000  -999.2500  -999.2500  -999.2500     7.4692   151.5827     6.7003   -39.5789
  249.0000  -999.2500  -999.2500  -999.2500     7.5023   152.6572     6.4796   -39.5753
  249.5000  -999.2500  -999.2500  -999.2500     7.5179   153.9010     6.3514   -39.5715
  250.0000  -999.2500  -999.2500  -999.2500     7.5300   156.3124     6.2407   -39.7165
  250.5000  -999.2500  -999.2500  -999.2500     7.4964   159.4723     6.2047   -39.8621
  251.0000  -999.2500  -999.2500  -999.2500     7.0702   162.0432     6.2813   -40.0076
  251.5000  -999.2500  -999.2500  -999.2500     6.7328   165.4229     6.3090   -40.1521
  252.0000  -999.2500  -999.2500  -999.2500     6.7677   169.7905     6.3588   -40.1490
  252.5000  -999.2500  -999.2500  -999.2500     6.6931   173.2591     6.4350   -40.1452
  253.0000  -999.2500  -999.2500  -999.2500     6.5261   175.2720     6.5112   -39.9086
  253.5000  -999.2500  -999.2500  -999.2500     6.6657   176.9947     6.5129   -39.8122
  254.0000  -999.2500  -999.2500  -999.2500     6.8138   171.8513     6.5889   -39.5376
  254.5000  -999.2500  -999.2500  -999.2500     6.8709   167.7258     6.6652   -39.5343
  255.0000  -999.2500  -999.2500  -999.2500     6.9192   166.5040     6.6670   -39.3741
  255.5000  -999.2500  -999.2500  -999.2500     6.8515   168.6165     6.6456   -39.2288
  256.0000  -999.2500  -999.2500  -999.2500     6.7401   169.4911     6.5203   -39.2250
  256.5000  -999.2500  -999.2500  -999.2500     7.1297   169.0082     6.4814   -39.3701
  257.0000  -999.2500  -999.2500  -999.2500     7.1975   167.6073     6.3735   -39.3666
  257.5000  -999.2500  -999.2500  -999.2500     7.1472   167.1345     6.3754   -39.5123
  258.0000  -999.2500  -999.2500  -999.2500     6.8611   168.3383     6.2725   -39.5077
  258.5000  -999.2500  -999.2500  -999.2500     6.7106   169.6119     6.2287   -39.5045
  259.0000  -999.2500  -999.2500  -999.2500     6.5623   173.9589     6.2302   -39.5008
  259.5000  -999.2500  -999.2500  -999.2500     6.4442   179.1355     6.2317   -39.7422
  260.0000  -999.2500  -999.2500  -999.2500     6.3353   182.9340     6.2333   -39.8311
  260.5000  -999.2500  -999.2500  -999.2500     6.2488   182.1121     6.2709   -40.0854
  261.0000  -999.2500  -999.2500  -999.2500     6.2641   181.4296     6.3186   -40.0820
  261.5000  -999.2500  -999.2500  -999.2500     6.2943   181.4254     6.3874   -40.0782
