~VERSION INFORMATION
 VERS.                2.0:   CWLS LOG ASCII STANDARD - VERSION 2.0
 WRAP.                 NO:   ONE LINE PER DEPTH STEP
~WELL INFORMATION
#MNEM.UNIT      DATA TYPE    INFORMATION
#----------   ------------   ------------------------------
 STRT.F           80.0000:   START DEPTH
 STOP.F         1100.0000:   STOP DEPTH
 STEP.F            0.5000:   STEP LENGTH
 NULL.          -999.2500:   NO VALUE
 COMP.          U.S. NAVY:   COMPANY
 WELL.     NPR #3 #65-S-2:   WELL
 FLD .             TEAPOT:   FIELD
 LOC .       S2 T38N R78W:   LOCATION
 CNTY.            NATRONA:   COUNTY
 STAT.            WYOMING:   STATE
 CTRY. UNITED STATES OF AMERICA:   COUNTRY
 SRVC.       Schlumberger:   SERVICE COMPANY
 DATE.        17-JUL-1964:   LOGDATE
 API .       490250642600:   API NUMBER
~CURVE INFORMATION
#MNEM.UNIT       API CODE    CURVE DESCRIPTION
#----------   ------------   ------------------------------
 DEPT.F                  :   
 CALS.IN     60 280 50 00:   CALIPER FROM SONIC LOG
 DT  .US/F   60 520 33 00:   INTERVAL TRANSIT TIME
 GR  .GAPI   30 310 01 00:   GAMMA RAY
 ASN .OHMM   05 041 16 00:   AMPLIFIER SHORT NORMAL 16"
 CILD.MMHO   05 110 46 00:   CONDUCTIVITY INDUCTION LOG DEEP
 ILD .OHMM   05 120 46 00:   INDUCTION LOG DEEP
 SPR .MV     05 010 01 00:   SPONTANEOUS POTENTIAL FROM RES.
~PARAMETER INFORMATION
#MNEM.UNIT          VALUE    DESCRIPTION
#----------   ------------   ------------------------------
 PD  .                 GL:   PERMANENT DATUM
 EPD .F              5199:   ELEVATION PERMANENT DATUM
 LMF .                 KB:   LOG MEASURED FROM
 DAPD.F                 5:   FEET ABOVE PERMANENT DATUM
 DMF .                 KB:   DRILLING MEASURED FROM
 EKB .F              5204:   KELLING BUSHING
 EGL .F              5199:   GROUND LEVEL
 DATE.        17-JUL-1964:   RUN DATE
 RUN .                  1:   RUN NUMBER
 DD  .F              1100:   DEPTH DRILLER
 DL  .F              1101:   DEPTH LOGGER
 BLI .F              1100:   BOTTOM LOG INTERVAL
 TLI .F                85:   TOP LOG INTERVAL
 CS  .IN            8.625:   CASING SIZE
 CBD .F                10:   CASING BOTTOM DRILLER
 BS  .IN             6.75:   BIT SIZE
 BSD .F              1100:   BIT SIZE AT DEPTH
 DFT .                GEL:   DRILLING FLUID TYPE
 DFD .                9.5:   DRILLING FLUID DENSITY
 DFV .                 47:   DRILLING FLUID VISCOSITY
 MSS .           FLOWLINE:   MUD SAMPLE SOURCE
 RMS .OHMM           2.60:   RESISTIVITY MUD SAMPLE
 MST .F                80:   MUD SAMPLE TEMPERATURE
 RMF .OHMM           1.65:   RESISTIVITY MUD FILTRATE SAMPLE
 MFST.F                80:   MUD FILTRATE SAMPLE TEMPERATURE
 RMC .OHMM           2.53:   RESISTIVITY MUD CAKE
 MCST.F                80:   MUD CAKE SAMPLE TEMPERATURE
 MFSS.                 FP:   MUD FILTRATE SAMPLE SOURCE
 MCSS.                 FP:   MUD CAKE SAMPLE SOURCE
 TCS .HRS               2:   TIME CURCULATED STOPPED
 LUN .               4507:   LOGGING UNIT NUMBER
 LUL .               CSPR:   LOGGING UNIT LOCATION
 ENGI.             DANNER:   RECORDING ENGINEER
 CLNT.            A2DTECH:   CLIENT CODE
 ORIG.        2" 5" PRINT:   ORIGIN OF DATA
 UWI .       490250642600:   UNIQUE WELL ID
 DICO. A2D Technologies, Inc.:   DIGITIZING COMPANY
~OTHER INFORMATION
~A   DEPT     CALS         DT         GR          ASN      CILD         ILD      SPR   
# ...
  671.5000     6.7299    96.2690    77.2137     9.9979   112.3802     9.2997   -33.1061
  672.0000     6.7302    95.3605    77.3723    10.1938   112.3653     9.3752   -33.2514
  672.5000     6.7153    94.8299    77.2287    10.3902   112.1944     9.3012   -33.4550
  673.0000     6.7157    94.2207    75.4235    10.3731   110.8366     9.2133   -33.6930
  673.5000     6.7008    93.9199    72.4099    10.2631   111.1415     9.1532   -33.7839
  674.0000     6.7012    94.5983    71.3581    10.1351   112.3304     9.0473   -33.9856
  674.5000     6.7015    95.2771    72.7270     9.8501   113.5192     8.9270   -33.9819
  675.0000     6.7018    95.6539    73.3387     9.8845   115.4567     8.8067   -34.0536
  675.5000     6.7021    96.1056    73.9504     9.8826   116.7502     8.7076   -34.1254
  676.0000     6.7024    96.7088    75.0153     9.8287   118.2335     8.6338   -34.1217
  676.5000     6.7027    96.8589    76.2313     9.7464   119.7163     8.5598   -34.0641
  677.0000     6.7181    96.8570    77.2962     9.7096   121.1947     8.5605   -33.9672
  677.5000     6.7184    97.5358    79.8716     9.6856   122.1495     8.4867   -33.6314
  678.0000     6.7338    98.2902    81.5428     9.6575   122.6647     8.4873   -33.2936
  678.5000     6.7341    98.8178    82.9078     9.6629   123.3982     8.4880   -32.7658
  679.0000     6.7193    99.1942    81.2536     9.7030   123.3832     8.4141   -32.5415
  679.5000     6.7347    98.9660    81.7613     9.7183   124.1142     8.4148   -32.4620
  680.0000     6.7350    98.5059    83.2324     9.6946   124.1018     8.4156   -32.4585
  680.5000     6.7353    98.5306    81.1007     9.6141   124.0863     8.3416   -32.5092
  681.0000     6.7204    98.8104    80.8016     9.5000   123.3234     8.2675   -32.7511
  681.5000     6.7208    98.4306    80.6869     9.4500   122.5599     8.3432   -32.9871
  682.0000     6.7211    98.1271    78.1283     9.4803   121.0457     8.3697   -33.1108
  682.5000     6.7063    98.7299    73.6041     9.5195   119.2553     8.4193   -33.4871
  683.0000     6.7066    99.3332    76.0285     9.5856   117.2753     8.6134   -33.7039
  683.5000     6.7069    99.7852    77.2444     9.6862   115.6262     8.7352   -33.7796
  684.0000     6.7072    99.9352    81.3305     9.8156   114.1018     8.8700   -33.6269
  684.5000     6.6925    99.2531    82.6975     9.8710   114.2347     8.8707   -33.6244
  685.0000     6.6626    98.7225    83.7624     9.9072   114.5334     8.8714   -33.6214
  685.5000     6.6468    98.0408    87.9995     9.7817   114.9738     8.8723   -33.8554
  686.0000     6.6312    97.5858    90.4239     9.7820   116.1627     8.7981   -33.9140
  686.5000     6.5882    98.1920    91.1848     9.8722   117.3516     8.7242   -33.9103
  687.0000     6.5735    98.8133    88.9283     9.9106   119.3998     8.5755   -33.9076
  687.5000     6.5738    99.5843    87.4253     9.8877   120.4778     8.4890   -33.8673
  688.0000     6.5741   101.1320    86.3735     9.5587   122.4652     8.3529   -33.1559
  688.5000     6.5895   102.3399    88.9508     9.2736   124.8578     8.2788   -32.6081
  689.0000     6.6802   102.2628    90.7710     9.1082   127.2505     8.2775   -32.1072
  689.5000     6.8311   101.3543    92.2891     9.0356   129.8044     8.1572   -32.1043
  690.0000     6.9820   100.7481    94.5624     9.0319   131.6618     7.9422   -32.1013
  690.5000     7.0726   100.8982    94.7191     9.0063   133.5991     7.6839   -32.0980
  691.0000     7.0578   100.8963    95.1817     8.9463   135.7459     7.5341   -32.0954
  691.5000     7.0582   101.2728    93.0743     8.8344   138.7086     7.2832   -32.0924
  692.0000     7.0584   102.0272    91.3776     8.4983   143.2030     7.0136   -32.0889
  692.5000     7.0587   102.7059    89.9171     8.2475   146.6503     6.8847   -32.0864
  693.0000     7.0590   103.5359    88.7162     7.8102   150.9955     6.7907   -32.0833
  693.5000     7.0593   104.4520    87.8172     7.6244   154.3840     6.7167   -32.0805
  694.0000     7.0596   105.2895    87.8248     7.5645   155.1198     6.7344   -32.0775
  694.5000     7.0599   105.7234    88.5881     7.5117   155.1046     6.8678   -32.0742
  695.0000     7.0452   104.8901    88.7462     7.5120   152.7195     7.0130   -32.0715
  695.5000     7.0455   103.4525    87.1953     7.5474   150.2970     7.1064   -32.0770
  696.0000     7.0157   102.5440    82.7854     7.7222   147.5730     7.2438   -32.6611
  696.5000     6.9708   102.0134    80.4236     8.1343   145.1460     7.3435   -33.3319
  697.0000     6.8657   101.4828    81.1650     8.2090   142.2804     7.3946   -33.9969
  697.5000     6.7606   100.8767    83.0992     8.2090   140.3256     7.4377   -34.1431
  698.0000     6.6856   100.3461    81.5423     8.2090   139.8552     7.5456   -33.9911
  698.5000     6.6407   101.5540    78.9799     8.2305   137.7680     7.5464   -33.8387
  699.0000     6.6410   102.3083    79.8956     8.2858   137.0060     7.4723   -33.8361
  699.5000     6.7166   102.5336    80.8095     8.3284   137.0783     7.3983   -33.5286
  700.0000     6.7922   101.3228    82.7807     8.3483   139.2219     7.3991   -33.2837
  700.5000     6.8979   100.4132    83.9967     8.3731   140.7031     7.3052   -33.0834
  701.0000     7.0036    99.8781    83.3999     8.3316   141.5169     7.2534   -32.9160
  701.5000     7.0792    99.4203    82.6521     8.2653   142.2929     7.2552   -32.7826
  702.0000     7.0645    98.8939    83.7170     8.2090   142.9042     7.2571   -32.9300
  702.5000     7.0346    98.4291    86.1415     8.1204   142.8892     7.2593   -33.1942
  703.0000     6.9747    98.2948    84.3363     8.0746   142.1257     7.3622   -33.3741
  703.5000     6.8685    99.1378    81.3226     8.2090   140.1622     7.5617   -33.3726
  704.0000     6.7783    97.9678    80.4238     8.2704   138.9421     7.5635   -33.3711
  704.5000     6.7483    97.0074    80.2783     8.3583   137.5882     7.6401   -33.3694
  705.0000     6.7636    96.7043    81.3451     8.4070   137.5748     7.6422   -33.3681
  705.5000     6.8541    96.5524    81.6547     8.4258   136.7789     7.6439   -33.3666
  706.0000     6.9446    95.3423    82.8707     8.4776   136.0479     7.6457   -33.3651
  706.5000     6.9447    94.8880    84.3887     8.5003   135.0874     7.5729   -33.3636
  707.0000     6.8545    95.7187    84.6983     8.5247   134.5198     7.5747   -33.3620
  707.5000     6.7944    96.0959    85.7632     8.5373   134.5060     7.5767   -33.3607
  708.0000     6.7494    96.2463    88.6408     8.5584   135.3094     7.4659   -33.3592
  708.5000     6.7797    96.4723    89.4506     8.5672   137.4673     7.4307   -33.3574
  709.0000     6.8853    96.8495    86.0879     8.5672   138.4381     7.3583   -33.3562
  709.5000     6.9758    97.0755    83.8295     8.5626   138.9371     7.2851   -33.3547
  710.0000     7.0663    97.4527    82.6284     8.4776   139.6707     7.2870   -33.5867
  710.5000     7.0965    97.3763    83.3913     8.3460   139.5483     7.2889   -33.6499
  711.0000     7.0214    97.3000    83.7009     8.2359   138.8899     7.2907   -33.6481
  711.5000     6.8709    97.2992    83.7085     8.2836   138.8772     7.2928   -33.4978
  712.0000     6.7657    97.1473    84.3201     8.3487   138.1135     7.2945   -33.4963
  712.5000     6.7809    97.0710    78.5889     8.4055   138.0988     7.2963   -33.4948
  713.0000     6.8413    96.9946    77.2369     8.4478   138.2286     7.2982   -33.4933
  713.5000     6.8215    97.5230    79.3592     8.4478   138.8174     7.3204   -33.4917
  714.0000     6.7964    98.2781    78.9135     8.4478   139.8603     7.3768   -33.5589
  714.5000     6.7363    98.3531    78.1657     8.4058   141.7990     7.3038   -33.6379
  715.0000     6.7058    99.0324    77.8692     8.3478   142.5150     7.3057   -33.6361
  715.5000     6.6764   100.0899    79.6913     8.2687   143.2508     7.3079   -33.6349
  716.0000     6.6928   101.2229    82.5689     8.2464   141.7352     7.3094   -33.4843
  716.5000     6.7535   101.4491    87.2592     8.1922   141.3748     7.3113   -33.4056
