~VERSION INFORMATION
 VERS.                2.0:   CWLS LOG ASCII STANDARD - VERSION 2.0
 WRAP.                 NO:   ONE LINE PER DEPTH STEP
~WELL INFORMATION
#MNEM.UNIT      DATA TYPE    INFORMATION
#----------   ------------   ------------------------------
 STRT.F          180.0000:   START DEPTH
 STOP.F         3280.0000:   STOP DEPTH
 STEP.F            0.5000:   STEP LENGTH
 NULL.          -999.2500:   NO VALUE
 COMP.    FENIX & SCISSON:   COMPANY
 WELL.  FENIX "AX" #85-10:   WELL
 FLD .              NPR 3:   FIELD
 LOC .      S10 T38N R78W:   LOCATION
 CNTY.            NATRONA:   COUNTY
 STAT.            WYOMING:   STATE
 CTRY. UNITED STATES OF AMERICA:   COUNTRY
 SRVC.       SCHLUMBERGER:   SERVICE COMPANY
 DATE.        03-JUL-1977:   LOGDATE
 API .     49025104000000:   API NUMBER
~CURVE INFORMATION
#MNEM.UNIT       API CODE    CURVE DESCRIPTION
#----------   ------------   ------------------------------
 DEPT.F                  :   
 SPR .MV     11 010 01 00:   SPONTANEOUS POTENTIAL FROM RES.
 MSFL.OHMM   11 270 04 00:   MICRO SPHERICALLY FOCUSED
 LLD .OHMM   11 220 10 00:   LATEROLOG LOG DEEP
 LLS .OHMM   11 220 09 00:   LATEROLOG LOG SHALLOW
 GRD .GAPI   45 310 01 00:   GAMMA RAY FROM DENSITY LOG
 CALD.IN     45 280 60 00:   CALIPER FROM DENSITY LOG
 CORR.G/C3   45 356 01 00:   DENSITY CORRECTION
 RHOB.G/C3   45 350 01 00:   BULK DENSITY
 NPHI.DEC    42 890 03 00:   NEUTRON POROSITY SANDSTONE
~PARAMETER INFORMATION
#MNEM.UNIT          VALUE    DESCRIPTION
#----------   ------------   ------------------------------
 EKB .F         5210.0000:   Kelly bushing
 EGL .F         5200.0000:   Ground level
 EDF .F            0.0000:   Drilling floor
 TD  .F         3265.0000:   Total depth
 DATE.        03-JUL-1977:   Date logged
 CLNT.            A2DTECH:   Client Code
 SL  . 2000' FSL & 100' FEL:   Surface Location
 PD  .                 GL:   Permanent Datum
 EPD .F              5200:   Elevation Permanent Datum
 LMF .                 KB:   Log Measured From
 DMF .                 KB:   Drilling Measured From
 DAPD.F                10:   Feet Above Permanent Datum
 DD  .F              3261:   Depth driller
 DL  .F              3265:   Depth logger
 BLI .F              2364:   Bottom log interval
 TLI .F               220:   Top log interval
 CS1 .IN            8.625:   Casing size
 CBD1.      8.625" @ 220':   Casing driller 1
 CBL1.F               220:   Casing logger 1
 BS1 .IN            7.875:   Bit size
 BSD1.F              3261:   Depth drilled with bit1
 DFT .                KCL:   Type fluid in hole
 DFD .                9.7:   Density
 DFV .                 38:   Viscosity
 DFPH.                7.5:   pH
 DFL .                 40:   Fluid loss
 MSS .                PIT:   Source of sample
 RMS .OHMM          0.167:   Rm
 MST .F                78:   Rm Meas. temp.
 RMF .OHMM          0.167:   Rmf
 MFST.F                78:   Rmf Meas. temp.
 MFSS.               MEAS:   Source Rmf.
 RMB .OHMM          0.103:   Rm. at BHT
 BHT .F               126:   BHT.
 TLAB.HRS            0930:   Time logger at bottom
 MRT .F               126:   Maximum recorded temp.
 LUN .               5642:   Logging unit number
 LUL .               CSPR:   Logging unit location
 ENGI.             MARTIN:   Recorded By
 WITN.         PETTINGILL:   Witnessed by
 ORIG.           5" PRINT:   Origin of data
 UWI .     49025104000000:   Unique Well ID
 DICO. A2D TECHNOLOGIES, INC.:   Digitizing Company
~OTHER INFORMATION
~A   DEPT      SPR       MSFL        LLD        LLS         GRD      CALD        CORR        RHOB       NPHI 
# ...
 1640.0000   -35.3710    11.2150     7.2170     8.7520   108.5540    10.7180     0.0250     2.6020     0.2640
 1640.5000   -35.2650    12.0930     7.2630     8.5150   107.0830    10.8010     0.0110     2.5840     0.2600
 1641.0000   -35.1600    12.2930     7.4070     8.2830   109.0100    10.8830     0.0520     2.5720     0.2560
 1641.5000   -35.0540     9.9280     7.3530     8.0510   111.3280    10.9650     0.0950     2.6100     0.2530
 1642.0000   -34.9490     4.6870     7.2440     7.9110   113.6490    11.0480     0.1960     2.6310     0.2700
 1642.5000   -34.8810     5.9880     7.1350     7.8390   115.5070    11.0220     0.1610     2.5910     0.2910
 1643.0000   -34.9170     8.1800     7.0260     7.8390   115.1130    10.9290     0.0820     2.5260     0.2880
 1643.5000   -35.1490    10.4200     6.8930     7.8390   116.1280    10.8370     0.0300     2.5470     0.2830
 1644.0000   -35.3810     9.5940     6.9660     7.9470   117.1240    10.7780     0.0120     2.5600     0.2790
 1644.5000   -35.6120     9.8290     7.0590     8.1340   117.3280    10.7550     0.0110     2.5680     0.2790
 1645.0000   -35.8440    10.4700     7.1520     8.3210   116.5710    10.7440     0.0070     2.5790     0.2800
 1645.5000   -36.0760    11.0110     7.2450     8.5090   115.8200    10.7340     0.0040     2.5710     0.2770
 1646.0000   -36.3060    10.3840     7.3390     8.5930   115.0710    10.7240     0.0010     2.5660     0.2740
 1646.5000   -36.4520    10.1370     7.4090     8.4650   114.3170    10.7140     0.0000     2.5600     0.2790
 1647.0000   -36.4000    11.1120     7.3250     8.2310   113.9720    10.7050     0.0070     2.5720     0.2740
 1647.5000   -36.3530    10.6070     7.2970     7.9970   115.3270    10.6950     0.0120     2.5910     0.2700
 1648.0000   -36.3060    10.4200     7.2840     7.7620   116.6670    10.6850     0.0190     2.5990     0.2680
 1648.5000   -36.2590    10.6130     7.0690     7.4870   117.9820    10.6820     0.0200     2.5810     0.2730
 1649.0000   -36.2120     9.9530     6.8380     7.4870   118.2340    10.6820     0.0210     2.5870     0.2760
 1649.5000   -36.1650    10.0330     6.5840     7.7500   116.4530    10.6820     0.0230     2.5910     0.2740
 1650.0000   -36.1180    10.1910     6.6600     7.9870   114.7190    10.6820     0.0180     2.5810     0.2700
 1650.5000   -36.0710    10.3480     6.8120     8.2230   113.4350    10.6820     0.0090     2.5710     0.2730
 1651.0000   -36.0240    10.5060     6.9640     8.4360   115.3610    10.6820     0.0110     2.5770     0.2720
 1651.5000   -35.9780    10.6640     7.1160     8.5940   114.4410    10.6830     0.0040     2.5860     0.2670
 1652.0000   -35.9310    10.7110     7.2840     8.7520   114.5920    10.6920    -0.0030     2.5890     0.2640
 1652.5000   -35.8810    10.4030     7.2840     8.5070   116.1580    10.7020     0.0080     2.5840     0.2710
 1653.0000   -35.9200    10.0600     7.2360     8.1770   115.4460    10.7110     0.0220     2.5910     0.2780
 1653.5000   -35.9890     9.6820     7.2170     7.8460   116.0380    10.7210     0.0290     2.5820     0.2860
 1654.0000   -36.0600     9.6170     6.3460     7.5160   117.8070    10.7340     0.0270     2.5950     0.2930
 1654.5000   -36.1310     9.7350     6.4850     7.3510   116.4720    10.7480     0.0120     2.5660     0.3010
 1655.0000   -36.2010     9.8300     6.5840     7.3510   114.9010    10.7610     0.0130     2.5560     0.2970
 1655.5000   -36.2660     9.9530     6.2880     7.3740   113.5310    10.7750     0.0190     2.5720     0.3000
 1656.0000   -36.2040     9.7810     6.5280     7.4190   114.1170    10.7800     0.0280     2.5800     0.2940
 1656.5000   -36.1180     9.5940     6.7680     7.4640   115.1250    10.7750     0.0320     2.5830     0.2880
 1657.0000   -36.0310     9.7360     6.4050     7.5100   114.3800    10.7700     0.0250     2.5850     0.2820
 1657.5000   -35.9440     9.9390     6.6180     7.5550   113.5350    10.7660     0.0190     2.5860     0.2750
 1658.0000   -35.8570    10.1420     7.0860     7.6010   113.9270    10.7610     0.0130     2.5900     0.2690
 1658.5000   -35.7710    10.3250     6.9670     7.6460   115.3710    10.7610     0.0160     2.5970     0.2650
 1659.0000   -35.6840    10.1400     6.7060     7.6960   116.3380    10.7610     0.0200     2.6000     0.2620
 1659.5000   -35.5970     9.9590     6.7060     7.6960   115.6340    10.7610     0.0230     2.5940     0.2670
 1660.0000   -35.5110     9.7780     6.7060     7.6960   114.7570    10.7610     0.0200     2.5940     0.2740
 1660.5000   -35.4240     9.5970     6.4050     7.5410   115.3280    10.7610     0.0170     2.5880     0.2820
 1661.0000   -35.3380     9.5060     6.5410     7.3510   115.9980    10.7590     0.0150     2.5840     0.2770
 1661.5000   -35.2730     9.5060     6.7680     7.3510   116.6660    10.7450     0.0240     2.5940     0.2700
 1662.0000   -35.2280     9.5060     6.5720     7.4870   117.3350    10.7310     0.0420     2.5870     0.2720
 1662.5000   -35.1830     9.5060     6.1790     7.2880   117.2610    10.7170     0.0360     2.6070     0.2750
 1663.0000   -35.1370     9.4630     6.0480     7.0800   116.5080    10.7020     0.0260     2.5950     0.2790
 1663.5000   -35.0890     9.4190     6.0060     6.8930   114.9840    10.6880     0.0170     2.5870     0.2810
 1664.0000   -35.1550     9.6820     6.2690     7.1480   113.2580    10.6740     0.0220     2.5790     0.2820
 1664.5000   -35.2610     9.9200     6.5660     7.6570   111.5090    10.6600     0.0300     2.5780     0.2710
 1665.0000   -35.3690    10.2310     6.8930     7.9110   111.5010    10.6450     0.0250     2.5870     0.2760
 1665.5000   -35.4760     9.8930     6.6560     7.7780   112.8120    10.6420     0.0160     2.5810     0.2820
 1666.0000   -35.5840     9.4190     6.5240     7.6300   114.1330    10.6440     0.0200     2.6010     0.2890
 1666.5000   -35.6910    10.3580     6.7680     7.5560   114.5470    10.6470     0.0260     2.5930     0.2930
 1667.0000   -35.7990    10.6130     6.6050     7.5770   113.5510    10.6490     0.0080     2.5830     0.2820
 1667.5000   -35.9060     9.9900     6.4640     7.6450   112.5100    10.6510     0.0170     2.5790     0.2730
 1668.0000   -36.0130     9.5940     6.6360     7.7130   113.2080    10.6530     0.0200     2.5760     0.2650
 1668.5000   -36.0640    10.4290     6.9570     7.7810   113.9450    10.6560     0.0140     2.5810     0.2620
 1669.0000   -36.0060    11.1120     6.8930     7.8500   113.2880    10.6580     0.0080     2.5590     0.2610
 1669.5000   -35.9500    10.7410     6.8930     7.9110   113.9880    10.6600     0.0130     2.5670     0.2600
 1670.0000   -35.8940    10.0000     6.8930     7.9840   115.4210    10.6620     0.0190     2.5850     0.2650
 1670.5000   -35.8380     9.3330     6.8300     7.9840   116.8830    10.6620     0.0250     2.5870     0.2690
 1671.0000   -35.7820     9.4550     6.7370     7.9110   116.6310    10.6620     0.0180     2.5890     0.2730
 1671.5000   -35.7260     9.6980     6.5450     7.4710   115.2110    10.6620     0.0130     2.5950     0.2770
 1672.0000   -35.6700     9.7720     6.3660     7.1880   113.7750    10.6620     0.0170     2.5800     0.2750
 1672.5000   -35.6140     9.4270     6.1870     6.9040   112.3550    10.6620     0.0210     2.5750     0.2700
 1673.0000   -35.5580     9.2480     6.0620     6.7060   111.7800    10.6620     0.0240     2.5840     0.2660
 1673.5000   -35.5020     9.3330     6.0620     6.8820   111.2230    10.6620     0.0170     2.5880     0.2670
 1674.0000   -35.4760     9.6490     6.2660     7.0440   111.5990    10.6620     0.0120     2.5650     0.2680
 1674.5000   -35.6180     9.9360     6.4780     7.2070   112.9490    10.6630     0.0150     2.5730     0.2610
 1675.0000   -35.7790    10.1370     6.6450     7.3700   115.5770    10.6650     0.0180     2.5870     0.2670
 1675.5000   -35.9390     9.6370     6.2750     7.4190   118.1820    10.6660     0.0180     2.5830     0.2740
 1676.0000   -36.0990     9.2480     6.1170     7.4080   119.7980    10.6680     0.0170     2.5810     0.2840
