~VERSION INFORMATION
 VERS.                2.0:   CWLS LOG ASCII STANDARD - VERSION 2.0
 WRAP.                 NO:   ONE LINE PER DEPTH STEP
~WELL INFORMATION
#MNEM.UNIT      DATA TYPE    INFORMATION
#----------   ------------   ------------------------------
 STRT.F           80.0000:   START DEPTH
 STOP.F         1100.0000:   STOP DEPTH
 STEP.F            0.5000:   STEP LENGTH
 NULL.          -999.2500:   NO VALUE
 COMP.          U.S. NAVY:   COMPANY
 WELL.     NPR #3 #65-S-2:   WELL
 FLD .             TEAPOT:   FIELD
 LOC .       S2 T38N R78W:   LOCATION
 CNTY.            NATRONA:   COUNTY
 STAT.            WYOMING:   STATE
 CTRY. UNITED STATES OF AMERICA:   COUNTRY
 SRVC.       Schlumberger:   SERVICE COMPANY
 DATE.        17-JUL-1964:   LOGDATE
 API .       490250642600:   API NUMBER
~CURVE INFORMATION
#MNEM.UNIT       API CODE    CURVE DESCRIPTION
#----------   ------------   ------------------------------
 DEPT.F                  :   
 CALS.IN     60 280 50 00:   CALIPER FROM SONIC LOG
 DT  .US/F   60 520 33 00:   INTERVAL TRANSIT TIME
 GR  .GAPI   30 310 01 00:   GAMMA RAY
 ASN .OHMM   05 041 16 00:   AMPLIFIER SHORT NORMAL 16"
 CILD.MMHO   05 110 46 00:   CONDUCTIVITY INDUCTION LOG DEEP
 ILD .OHMM   05 120 46 00:   INDUCTION LOG DEEP
 SPR .MV     05 010 01 00:   SPONTANEOUS POTENTIAL FROM RES.
~PARAMETER INFORMATION
#MNEM.UNIT          VALUE    DESCRIPTION
#----------   ------------   ------------------------------
 PD  .                 GL:   PERMANENT DATUM
 EPD .F              5199:   ELEVATION PERMANENT DATUM
 LMF .                 KB:   LOG MEASURED FROM
 DAPD.F                 5:   FEET ABOVE PERMANENT DATUM
 DMF .                 KB:   DRILLING MEASURED FROM
 EKB .F              5204:   KELLING BUSHING
 EGL .F              5199:   GROUND LEVEL
 DATE.        17-JUL-1964:   RUN DATE
 RUN .                  1:   RUN NUMBER
 DD  .F              1100:   DEPTH DRILLER
 DL  .F              1101:   DEPTH LOGGER
 BLI .F              1100:   BOTTOM LOG INTERVAL
 TLI .F                85:   TOP LOG INTERVAL
 CS  .IN            8.625:   CASING SIZE
 CBD .F                10:   CASING BOTTOM DRILLER
 BS  .IN             6.75:   BIT SIZE
 BSD .F              1100:   BIT SIZE AT DEPTH
 DFT .                GEL:   DRILLING FLUID TYPE
 DFD .                9.5:   DRILLING FLUID DENSITY
 DFV .                 47:   DRILLING FLUID VISCOSITY
 MSS .           FLOWLINE:   MUD SAMPLE SOURCE
 RMS .OHMM           2.60:   RESISTIVITY MUD SAMPLE
 MST .F                80:   MUD SAMPLE TEMPERATURE
 RMF .OHMM           1.65:   RESISTIVITY MUD FILTRATE SAMPLE
 MFST.F                80:   MUD FILTRATE SAMPLE TEMPERATURE
 RMC .OHMM           2.53:   RESISTIVITY MUD CAKE
 MCST.F                80:   MUD CAKE SAMPLE TEMPERATURE
 MFSS.                 FP:   MUD FILTRATE SAMPLE SOURCE
 MCSS.                 FP:   MUD CAKE SAMPLE SOURCE
 TCS .HRS               2:   TIME CURCULATED STOPPED
 LUN .               4507:   LOGGING UNIT NUMBER
 LUL .               CSPR:   LOGGING UNIT LOCATION
 ENGI.             DANNER:   RECORDING ENGINEER
 CLNT.            A2DTECH:   CLIENT CODE
 ORIG.        2" 5" PRINT:   ORIGIN OF DATA
 UWI .       490250642600:   UNIQUE WELL ID
 DICO. A2D Technologies, Inc.:   DIGITIZING COMPANY
~OTHER INFORMATION
~A   DEPT     CALS         DT         GR          ASN      CILD         ILD      SPR   
   80.0000  -999.2500  -999.2500  -999.2500     1.9102   196.4072     5.2317   -41.7884
   80.5000  -999.2500  -999.2500  -999.2500     1.9107   194.5958     5.2336   -41.7869
   81.0000  -999.2500  -999.2500  -999.2500     1.9113   191.9000     5.1849   -41.7854
   81.5000  -999.2500  -999.2500  -999.2500     1.9118   190.3967     5.1622   -41.7839
   82.0000  -999.2500  -999.2500  -999.2500     1.9123   191.8860     5.1646   -41.7823
   82.5000  -999.2500  -999.2500  -999.2500     1.9128   193.0389     5.2410   -41.7809
   83.0000  -999.2500  -999.2500  -999.2500     1.9133   193.3690     5.2429   -41.7794
   83.5000  -999.2500  -999.2500  -999.2500     1.9139   192.6111     5.3199   -41.7779
   84.0000  -999.2500  -999.2500  -999.2500     1.9267   192.3353     5.3214   -41.8142
   84.5000  -999.2500  -999.2500  -999.2500     1.9618   191.8486     5.4728   -41.9240
   85.0000  -999.2500  -999.2500  -999.2500     2.6489   189.4960     5.5879   -42.0715
   85.5000  -999.2500  -999.2500  -999.2500     4.0834   187.0883     5.7845   -42.0700
   86.0000  -999.2500  -999.2500  -999.2500     5.8537   184.3403     5.9271   -42.0683
   86.5000  -999.2500  -999.2500  -999.2500     5.8943   181.9910     5.9534   -42.0671
   87.0000  -999.2500  -999.2500  -999.2500     6.0660   179.8352     6.0053   -42.2145
   87.5000  -999.2500  -999.2500  -999.2500     6.1770   176.7091     5.9324   -42.2131
   88.0000  -999.2500  -999.2500  -999.2500     6.2448   173.5529     5.9342   -42.3608
   88.5000  -999.2500  -999.2500  -999.2500     6.2429   170.8298     5.9364   -42.3589
   89.0000  -999.2500  -999.2500  -999.2500     6.3746   168.7375     5.9380   -42.5544
   89.5000  -999.2500  -999.2500  -999.2500     6.5608   166.3248     5.9399   -42.6542
   90.0000  -999.2500  -999.2500  -999.2500     6.5369   165.1198     5.9841   -42.5733
   90.5000  -999.2500  -999.2500  -999.2500     6.5135   164.6607     6.0183   -42.3115
   91.0000  -999.2500  -999.2500  -999.2500     6.4876   164.8045     6.0952   -41.9044
   91.5000  -999.2500  -999.2500  -999.2500     6.5096   164.7979     6.0968   -41.6488
   92.0000  -999.2500  -999.2500  -999.2500     6.5359   165.5489     6.0987   -41.4545
   92.5000  -999.2500  -999.2500  -999.2500     6.6131   166.2799     6.1005   -41.2196
   93.0000  -999.2500  -999.2500  -999.2500     6.6394   167.7705     6.1024   -41.1535
   93.5000  -999.2500  -999.2500  -999.2500     6.6399   167.7612     6.1045   -41.1518
   94.0000  -999.2500  -999.2500  -999.2500     6.6404   168.8224     6.1061   -41.3572
   94.5000  -999.2500  -999.2500  -999.2500     6.5625   169.2442     6.1080   -41.4471
   95.0000  -999.2500  -999.2500  -999.2500     6.4626   169.2365     6.1099   -41.5350
   95.5000  -999.2500  -999.2500  -999.2500     6.4099   169.2290     6.1865   -41.6239
   96.0000  -999.2500  -999.2500  -999.2500     6.3880   169.2208     6.1885   -41.5915
   96.5000  -999.2500  -999.2500  -999.2500     6.3885   169.2141     6.1902   -41.5902
   97.0000  -999.2500  -999.2500  -999.2500     6.3891   168.4581     6.1921   -41.5847
   97.5000  -999.2500  -999.2500  -999.2500     6.3896   167.9641     6.1939   -41.4382
   98.0000  -999.2500  -999.2500  -999.2500     6.4090   166.7565     6.2706   -41.4367
   98.5000  -999.2500  -999.2500  -999.2500     6.4206   165.4409     6.1979   -41.4350
   99.0000  -999.2500  -999.2500  -999.2500     6.4649   165.0898     6.1996   -41.4337
   99.5000  -999.2500  -999.2500  -999.2500     6.5153   164.6781     6.2014   -41.4322
  100.0000  -999.2500  -999.2500  -999.2500     6.6018   164.6707     6.2531   -41.4307
  100.5000  -999.2500  -999.2500  -999.2500     6.6702   164.6632     6.2799   -41.4292
  101.0000  -999.2500  -999.2500  -999.2500     6.6328   166.1521     6.2819   -41.4276
  101.5000  -999.2500  -999.2500  -999.2500     6.4537   167.9990     6.2836   -41.4262
  102.0000  -999.2500  -999.2500  -999.2500     6.4841   169.2515     6.1231   -41.4247
  102.5000  -999.2500  -999.2500  -999.2500     6.4948   172.1168     5.8393   -41.4230
  103.0000  -999.2500  -999.2500  -999.2500     6.5001   174.0369     5.6692   -41.5711
  103.5000  -999.2500  -999.2500  -999.2500     6.4259   178.0908     5.5438   -41.5692
  104.0000  -999.2500  -999.2500  -999.2500     6.3234   181.4371     5.3582   -41.5678
  104.5000  -999.2500  -999.2500  -999.2500     6.1788   184.2091     5.3231   -41.5663
  105.0000  -999.2500  -999.2500  -999.2500     5.9634   187.0495     5.3254   -41.5646
  105.5000  -999.2500  -999.2500  -999.2500     5.8612   190.9456     5.4017   -41.4143
  106.0000  -999.2500  -999.2500  -999.2500     5.8147   194.5205     5.4037   -41.4128
  106.5000  -999.2500  -999.2500  -999.2500     5.8002   197.1557     5.5199   -41.2623
  107.0000  -999.2500  -999.2500  -999.2500     5.7981   196.4121     5.6418   -41.2370
  107.5000  -999.2500  -999.2500  -999.2500     5.7713   190.0062     5.7832   -41.1101
  108.0000  -999.2500  -999.2500  -999.2500     5.7675   186.0479     5.8854   -41.2578
  108.5000  -999.2500  -999.2500  -999.2500     5.7574   181.0101     6.0109   -41.4053
  109.0000  -999.2500  -999.2500  -999.2500     5.8919   177.9291     6.0127   -41.4039
  109.5000  -999.2500  -999.2500  -999.2500     6.1730   174.8129     6.0267   -41.4024
  110.0000  -999.2500  -999.2500  -999.2500     6.3130   173.5018     6.0915   -41.4007
  110.5000  -999.2500  -999.2500  -999.2500     6.2908   173.4955     6.0653   -41.3994
  111.0000  -999.2500  -999.2500  -999.2500     6.1792   173.4877     6.0202   -41.2489
  111.5000  -999.2500  -999.2500  -999.2500     6.1799   173.4805     6.0220   -41.3964
  112.0000  -999.2500  -999.2500  -999.2500     6.2465   173.4731     6.0239   -41.3949
  112.5000  -999.2500  -999.2500  -999.2500     6.3306   173.4644     6.0260   -41.3933
  113.0000  -999.2500  -999.2500  -999.2500     6.3506   173.7225     6.0277   -41.3264
  113.5000  -999.2500  -999.2500  -999.2500     6.3765   174.1991     6.0295   -41.2414
  114.0000  -999.2500  -999.2500  -999.2500     6.4906   174.1916     5.9860   -41.2399
  114.5000  -999.2500  -999.2500  -999.2500     6.5588   174.1841     5.9583   -41.2772
  115.0000  -999.2500  -999.2500  -999.2500     6.5619   174.1756     5.9606   -41.6839
  115.5000  -999.2500  -999.2500  -999.2500     6.5289   173.4207     5.9623   -41.9101
  116.0000  -999.2500  -999.2500  -999.2500     6.4389   173.4131     5.9661   -41.3592
  116.5000  -999.2500  -999.2500  -999.2500     6.3639   172.5424     6.0407   -40.7851
  117.0000  -999.2500  -999.2500  -999.2500     6.3670   170.4790     6.2098   -40.5912
  117.5000  -999.2500  -999.2500  -999.2500     6.4256   164.4077     6.4931   -40.4843
  118.0000  -999.2500  -999.2500  -999.2500     6.5003   158.4631     6.7444   -40.5584
  118.5000  -999.2500  -999.2500  -999.2500     6.8308   152.4176     7.0984   -40.6305
  119.0000  -999.2500  -999.2500  -999.2500     7.2392   148.0838     7.2693   -40.7777
  119.5000  -999.2500  -999.2500  -999.2500     7.5224   143.7275     7.4915   -40.8738
  120.0000  -999.2500  -999.2500  -999.2500     7.6109   140.4182     7.6982   -41.2220
  120.5000  -999.2500  -999.2500  -999.2500     7.8909   138.9147     7.8099   -41.5305
  121.0000  -999.2500  -999.2500  -999.2500     7.9861   138.1587     8.0007   -41.6663
  121.5000  -999.2500  -999.2500  -999.2500     7.9785   139.5209     8.0030   -41.6645
  122.0000  -999.2500  -999.2500  -999.2500     7.9359   144.1816     7.9083   -41.5142
  122.5000  -999.2500  -999.2500  -999.2500     7.7782   150.8599     7.5580   -41.3636
  123.0000  -999.2500  -999.2500  -999.2500     7.4624   154.7904     7.1500   -41.3621
  123.5000  -999.2500  -999.2500  -999.2500     7.0905   157.6172     6.6647   -41.3607
  124.0000  -999.2500  -999.2500  -999.2500     6.8936   160.4790     6.6670   -41.3590
  124.5000  -999.2500  -999.2500  -999.2500     6.7921   162.4027     6.6685   -41.5653
  125.0000  -999.2500  -999.2500  -999.2500     6.7927   165.7926     6.6705   -41.6542
