~VERSION INFORMATION
 VERS.                2.0:   CWLS LOG ASCII STANDARD - VERSION 2.0
 WRAP.                 NO:   ONE LINE PER DEPTH STEP
~WELL INFORMATION
#MNEM.UNIT      DATA TYPE    INFORMATION
#----------   ------------   ------------------------------
 STRT.F          180.0000:   START DEPTH
 STOP.F         3280.0000:   STOP DEPTH
 STEP.F            0.5000:   STEP LENGTH
 NULL.          -999.2500:   NO VALUE
 COMP.    FENIX & SCISSON:   COMPANY
 WELL.  FENIX "AX" #85-10:   WELL
 FLD .              NPR 3:   FIELD
 LOC .      S10 T38N R78W:   LOCATION
 CNTY.            NATRONA:   COUNTY
 STAT.            WYOMING:   STATE
 CTRY. UNITED STATES OF AMERICA:   COUNTRY
 SRVC.       SCHLUMBERGER:   SERVICE COMPANY
 DATE.        03-JUL-1977:   LOGDATE
 API .     49025104000000:   API NUMBER
~CURVE INFORMATION
#MNEM.UNIT       API CODE    CURVE DESCRIPTION
#----------   ------------   ------------------------------
 DEPT.F                  :   
 SPR .MV     11 010 01 00:   SPONTANEOUS POTENTIAL FROM RES.
 MSFL.OHMM   11 270 04 00:   MICRO SPHERICALLY FOCUSED
 LLD .OHMM   11 220 10 00:   LATEROLOG LOG DEEP
 LLS .OHMM   11 220 09 00:   LATEROLOG LOG SHALLOW
 GRD .GAPI   45 310 01 00:   GAMMA RAY FROM DENSITY LOG
 CALD.IN     45 280 60 00:   CALIPER FROM DENSITY LOG
 CORR.G/C3   45 356 01 00:   DENSITY CORRECTION
 RHOB.G/C3   45 350 01 00:   BULK DENSITY
 NPHI.DEC    42 890 03 00:   NEUTRON POROSITY SANDSTONE
~PARAMETER INFORMATION
#MNEM.UNIT          VALUE    DESCRIPTION
#----------   ------------   ------------------------------
 EKB .F         5210.0000:   Kelly bushing
 EGL .F         5200.0000:   Ground level
 EDF .F            0.0000:   Drilling floor
 TD  .F         3265.0000:   Total depth
 DATE.        03-JUL-1977:   Date logged
 CLNT.            A2DTECH:   Client Code
 SL  . 2000' FSL & 100' FEL:   Surface Location
 PD  .                 GL:   Permanent Datum
 EPD .F              5200:   Elevation Permanent Datum
 LMF .                 KB:   Log Measured From
 DMF .                 KB:   Drilling Measured From
 DAPD.F                10:   Feet Above Permanent Datum
 DD  .F              3261:   Depth driller
 DL  .F              3265:   Depth logger
 BLI .F              2364:   Bottom log interval
 TLI .F               220:   Top log interval
 CS1 .IN            8.625:   Casing size
 CBD1.      8.625" @ 220':   Casing driller 1
 CBL1.F               220:   Casing logger 1
 BS1 .IN            7.875:   Bit size
 BSD1.F              3261:   Depth drilled with bit1
 DFT .                KCL:   Type fluid in hole
 DFD .                9.7:   Density
 DFV .                 38:   Viscosity
 DFPH.                7.5:   pH
 DFL .                 40:   Fluid loss
 MSS .                PIT:   Source of sample
 RMS .OHMM          0.167:   Rm
 MST .F                78:   Rm Meas. temp.
 RMF .OHMM          0.167:   Rmf
 MFST.F                78:   Rmf Meas. temp.
 MFSS.               MEAS:   Source Rmf.
 RMB .OHMM          0.103:   Rm. at BHT
 BHT .F               126:   BHT.
 TLAB.HRS            0930:   Time logger at bottom
 MRT .F               126:   Maximum recorded temp.
 LUN .               5642:   Logging unit number
 LUL .               CSPR:   Logging unit location
 ENGI.             MARTIN:   Recorded By
 WITN.         PETTINGILL:   Witnessed by
 ORIG.           5" PRINT:   Origin of data
 UWI .     49025104000000:   Unique Well ID
 DICO. A2D TECHNOLOGIES, INC.:   Digitizing Company
~OTHER INFORMATION
~A   DEPT      SPR       MSFL        LLD        LLS         GRD      CALD        CORR        RHOB       NPHI 
# ...
 2224.0000   -39.1700     6.1740     4.0100     4.8630   132.8090     9.5760     0.0170     2.5360     0.3490
 2224.5000   -39.0580     8.5140     4.1220     5.0550   131.9570     9.5730     0.0200     2.5440     0.3420
 2225.0000   -38.9450     8.4960     5.0910     5.5490   132.9990     9.5710     0.0240     2.5670     0.3350
 2225.5000   -38.8330     8.4700     5.0260     6.0420   133.9570     9.5490     0.0270     2.5830     0.3330
 2226.0000   -38.9550     8.4440     4.9980     6.2880   135.9730     9.5490     0.0220     2.5660     0.3430
 2226.5000   -39.1060     7.8940     5.0160     6.0060   138.1400     9.5490     0.0170     2.5490     0.3350
 2227.0000   -39.2580     7.3510     5.0300     6.0060   140.3240     9.5490     0.0200     2.5510     0.3250
 2227.5000   -39.4100     8.2560     5.0450     6.1580   142.5050     9.5490     0.0200     2.5540     0.3170
 2228.0000   -39.5620     8.9960     4.9890     6.2880   144.6860     9.5490     0.0160     2.5180     0.3260
 2228.5000   -39.5950     7.9600     4.8770     6.2310   146.8740     9.5490     0.0120     2.5130     0.3330
 2229.0000   -39.4300     6.8090     4.7650     6.0050   149.0330     9.5490     0.0190     2.5140     0.3390
 2229.5000   -39.2650     6.4640     4.6530     5.7550   149.6390     9.5490     0.0270     2.5170     0.3450
 2230.0000   -39.1010     7.5560     4.5410     5.5040   149.6890     9.5490     0.0280     2.5250     0.3500
 2230.5000   -38.9360     6.8300     4.4290     5.3310   147.8470     9.5400     0.0170     2.4930     0.3530
 2231.0000   -38.7730     6.7060     4.2760     5.1900   144.2160     9.5240     0.0160     2.4890     0.3490
 2231.5000   -38.6380     6.7990     4.1220     5.0680   140.5640     9.5080     0.0180     2.4950     0.3320
 2232.0000   -38.6780     7.7670     4.5120     5.0450   137.5070     9.4920     0.0090     2.5070     0.3140
 2232.5000   -38.7150     9.4960     5.0160     5.7880   138.5170     9.4760     0.0070     2.5190     0.3040
 2233.0000   -38.7500    10.9100     5.5190     6.3590   139.7470     9.4600     0.0240     2.5310     0.3080
 2233.5000   -38.7860     9.5720     6.0230     6.9310   139.5220     9.4490     0.0150     2.5370     0.3180
 2234.0000   -38.8220     7.6610     6.2310     7.2170   136.5370     9.4490     0.0080     2.5210     0.3270
 2234.5000   -38.8580     6.3010     5.1630     6.9170   133.5540     9.4490     0.0170     2.5170     0.3330
 2235.0000   -38.8940     5.8430     3.9010     6.7060   133.4390     9.4490     0.0120     2.5090     0.3290
 2235.5000   -38.9300     8.0340     4.0470     7.0930   134.9210     9.4490     0.0060     2.4960     0.3250
 2236.0000   -38.9660    10.7110     4.9710     7.4190   136.4600     9.4490     0.0040     2.4900     0.3210
 2236.5000   -38.9930    10.2270     6.2310     7.0860   138.0270     9.4490     0.0220     2.5100     0.3260
 2237.0000   -38.8710     9.5360     6.1230     7.2170   138.3510     9.4490     0.0370     2.5430     0.3320
 2237.5000   -38.7170     8.9140     5.9080     7.3490   135.2430     9.4490     0.0300     2.5250     0.3400
 2238.0000   -38.6020     9.7440     5.8430     7.4690   131.6510     9.4490     0.0220     2.5150     0.3300
 2238.5000   -38.4840    10.8100     5.9090     7.5880   131.5110     9.4490     0.0110     2.5030     0.3160
 2239.0000   -38.3620     9.8910     5.9600     7.6960   132.7580     9.4490     0.0020     2.4930     0.3090
 2239.5000   -38.2550     8.8700     6.0060     7.6960   134.0500     9.4510    -0.0070     2.4850     0.3110
 2240.0000   -38.8240     8.3590     5.9410     7.5560   133.8250     9.4590    -0.0070     2.4990     0.3070
 2240.5000   -39.3980     9.9180     5.8100     7.4020   133.2910     9.4660     0.0080     2.5120     0.3030
 2241.0000   -39.3090    10.9100     5.6800     7.1200   132.7080     9.4690     0.0190     2.5050     0.2960
 2241.5000   -39.1430     8.8330     5.5490     6.8380   133.8500     9.4740     0.0220     2.4990     0.2970
 2242.0000   -38.9770     9.2000     5.3790     6.5540   135.5360     9.4810     0.0140     2.4920     0.3060
 2242.5000   -38.8110    10.1530     5.6630     6.5240   137.2530     9.4870     0.0050     2.4850     0.3130
 2243.0000   -38.6430    11.1120     6.1300     7.0480   139.0490     9.4940    -0.0020     2.4760     0.3230
 2243.5000   -38.6610    10.2910     6.8300     7.4520   137.4750     9.5010     0.0000     2.4680     0.3050
 2244.0000   -38.7100     8.9960     6.3500     7.8560   137.9980     9.5080     0.0030     2.4730     0.3170
 2244.5000   -38.7580     9.4760     6.0620     8.0580   139.6680     9.5120     0.0080     2.4880     0.3250
 2245.0000   -38.8060     9.6820     6.0340     7.3140   141.3710     9.5170     0.0140     2.4980     0.3340
 2245.5000   -38.8540     8.3960     5.6600     6.6450   143.1170     9.5230     0.0190     2.4850     0.3470
 2246.0000   -38.9020     7.2260     5.2750     6.4940   143.6120     9.5240     0.0250     2.4730     0.3710
 2246.5000   -38.9500     6.1740     4.8900     6.2600   139.7470     9.6210     0.0340     2.4580     0.3790
 2247.0000   -38.9980     4.0740     4.5900     5.4820   135.8750     9.7380     0.0410     2.4470     0.3700
 2247.5000   -39.0670     2.8810     4.3080     4.6500   132.4310     9.5250     0.0260     2.4430     0.3350
 2248.0000   -39.3590     6.3360     4.0270     3.9010   130.2830     9.4420     0.0080     2.4630     0.3090
 2248.5000   -39.6560     9.1630     3.8300     4.9260   128.0140     9.4210     0.0080     2.5230     0.3000
 2249.0000   -39.9520    10.5840     6.3670     6.9040   127.6140     9.4050     0.0150     2.5290     0.3010
 2249.5000   -40.2490    11.8750     8.5140     9.0790   131.4860     9.3900     0.0190     2.5270     0.2800
 2250.0000   -40.5450    12.6370     7.7150     9.0790   134.6740     9.3890     0.0290     2.5140     0.2840
 2250.5000   -40.7910     7.9190     6.5740     7.3770   135.5220     9.3960     0.0320     2.4930     0.2940
 2251.0000   -40.6440     4.4110     5.4330     6.0670   132.9280     9.4040     0.0310     2.4880     0.2980
 2251.5000   -40.4900     3.1580     4.2920     4.7570   130.6190     9.4090     0.0170     2.4950     0.2990
 2252.0000   -40.3380     4.4910     2.8290     3.3370   131.7660     9.4250     0.0160     2.4900     0.3000
 2252.5000   -40.1850     6.3600     2.9980     3.5070   130.8890     9.4480     0.0220     2.4840     0.3020
 2253.0000   -40.0330     7.6260     3.4460     3.7750   129.5930     9.4700     0.0730     2.4990     0.2940
 2253.5000   -39.8810     5.0450     3.7220     4.0430   128.2510     9.4920     0.0370     2.4520     0.2990
 2254.0000   -39.7280     5.9470     3.9730     4.2440   129.3070     9.5140     0.0080     2.4670     0.3030
 2254.5000   -39.5760     6.5240     3.0720     3.8460   134.4160     9.5240     0.0460     2.5080     0.3070
 2255.0000   -39.4240     4.9290     3.1010     3.4660   135.2320     9.4910     0.0430     2.4910     0.3110
 2255.5000   -39.2650     3.4300     2.9240     3.3390   136.8790     9.4590     0.0300     2.4760     0.3150
 2256.0000   -39.3450     4.8490     2.7270     3.3010   138.8610     9.4300     0.0150     2.4660     0.3180
 2256.5000   -39.5020     6.5240     2.9690     3.2760   140.8590     9.4350     0.0040     2.5000     0.3280
 2257.0000   -39.6600     5.6750     3.2950     3.7630   142.8440     9.4400     0.0190     2.5080     0.3280
 2257.5000   -39.8190     4.9530     3.6220     4.1230   144.8450     9.4450     0.0250     2.5150     0.3060
 2258.0000   -39.9770     8.5140     3.9600     4.4830   144.5280     9.4490     0.0220     2.5270     0.3090
 2258.5000   -40.1360     8.1450     4.3170     4.8440   142.4740     9.4290     0.0220     2.5380     0.3220
 2259.0000   -40.2940     7.4930     4.6750     5.2040   140.4110     9.4090     0.0220     2.5220     0.3230
 2259.5000   -40.4520     7.0860     5.0330     5.5830   138.3380     9.3880     0.0220     2.5280     0.3240
 2260.0000   -40.6100     8.3440     5.3910     5.9940   136.2460     9.3670     0.0210     2.5470     0.3110
