~VERSION INFORMATION
 VERS.                2.0:   CWLS LOG ASCII STANDARD - VERSION 2.0
 WRAP.                 NO:   ONE LINE PER DEPTH STEP
~WELL INFORMATION
#MNEM.UNIT      DATA TYPE    INFORMATION
#----------   ------------   ------------------------------
 STRT.F          180.0000:   START DEPTH
 STOP.F         3280.0000:   STOP DEPTH
 STEP.F            0.5000:   STEP LENGTH
 NULL.          -999.2500:   NO VALUE
 COMP.    FENIX & SCISSON:   COMPANY
 WELL.  FENIX "AX" #85-10:   WELL
 FLD .              NPR 3:   FIELD
 LOC .      S10 T38N R78W:   LOCATION
 CNTY.            NATRONA:   COUNTY
 STAT.            WYOMING:   STATE
 CTRY. UNITED STATES OF AMERICA:   COUNTRY
 SRVC.       SCHLUMBERGER:   SERVICE COMPANY
 DATE.        03-JUL-1977:   LOGDATE
 API .     49025104000000:   API NUMBER
~CURVE INFORMATION
#MNEM.UNIT       API CODE    CURVE DESCRIPTION
#----------   ------------   ------------------------------
 DEPT.F                  :   
 SPR .MV     11 010 01 00:   SPONTANEOUS POTENTIAL FROM RES.
 MSFL.OHMM   11 270 04 00:   MICRO SPHERICALLY FOCUSED
 LLD .OHMM   11 220 10 00:   LATEROLOG LOG DEEP
 LLS .OHMM   11 220 09 00:   LATEROLOG LOG SHALLOW
 GRD .GAPI   45 310 01 00:   GAMMA RAY FROM DENSITY LOG
 CALD.IN     45 280 60 00:   CALIPER FROM DENSITY LOG
 CORR.G/C3   45 356 01 00:   DENSITY CORRECTION
 RHOB.G/C3   45 350 01 00:   BULK DENSITY
 NPHI.DEC    42 890 03 00:   NEUTRON POROSITY SANDSTONE
~PARAMETER INFORMATION
#MNEM.UNIT          VALUE    DESCRIPTION
#----------   ------------   ------------------------------
 EKB .F         5210.0000:   Kelly bushing
 EGL .F         5200.0000:   Ground level
 EDF .F            0.0000:   Drilling floor
 TD  .F         3265.0000:   Total depth
 DATE.        03-JUL-1977:   Date logged
 CLNT.            A2DTECH:   Client Code
 SL  . 2000' FSL & 100' FEL:   Surface Location
 PD  .                 GL:   Permanent Datum
 EPD .F              5200:   Elevation Permanent Datum
 LMF .                 KB:   Log Measured From
 DMF .                 KB:   Drilling Measured From
 DAPD.F                10:   Feet Above Permanent Datum
 DD  .F              3261:   Depth driller
 DL  .F              3265:   Depth logger
 BLI .F              2364:   Bottom log interval
 TLI .F               220:   Top log interval
 CS1 .IN            8.625:   Casing size
 CBD1.      8.625" @ 220':   Casing driller 1
 CBL1.F               220:   Casing logger 1
 BS1 .IN            7.875:   Bit size
 BSD1.F              3261:   Depth drilled with bit1
 DFT .                KCL:   Type fluid in hole
 DFD .                9.7:   Density
 DFV .                 38:   Viscosity
 DFPH.                7.5:   pH
 DFL .                 40:   Fluid loss
 MSS .                PIT:   Source of sample
 RMS .OHMM          0.167:   Rm
 MST .F                78:   Rm Meas. temp.
 RMF .OHMM          0.167:   Rmf
 MFST.F                78:   Rmf Meas. temp.
 MFSS.               MEAS:   Source Rmf.
 RMB .OHMM          0.103:   Rm. at BHT
 BHT .F               126:   BHT.
 TLAB.HRS            0930:   Time logger at bottom
 MRT .F               126:   Maximum recorded temp.
 LUN .               5642:   Logging unit number
 LUL .               CSPR:   Logging unit location
 ENGI.             MARTIN:   Recorded By
 WITN.         PETTINGILL:   Witnessed by
 ORIG.           5" PRINT:   Origin of data
 UWI .     49025104000000:   Unique Well ID
 DICO. A2D TECHNOLOGIES, INC.:   Digitizing Company
~OTHER INFORMATION
~A   DEPT      SPR       MSFL        LLD        LLS         GRD      CALD        CORR        RHOB       NPHI 
# ...
 1421.0000   -33.6860    10.5600     7.2840     8.8190   109.9340    11.4150     0.0130     2.5750     0.2720
 1421.5000   -33.6410    10.9580     7.2840     8.7460   110.2980    11.4010     0.0100     2.5780     0.2770
 1422.0000   -33.5710    10.5460     7.2830     8.6730   109.3500    11.3910     0.0080     2.5560     0.2820
 1422.5000   -33.5000    10.1370     7.2850     8.5990   108.4100    11.3840     0.0050     2.5640     0.2830
 1423.0000   -33.4280    10.3610     7.2870     8.5260   109.5940    11.3780     0.0040     2.5550     0.2830
 1423.5000   -33.3570    10.5160     7.2840     8.4360   110.9230    11.3800     0.0090     2.5660     0.2820
 1424.0000   -33.2860    10.1370     7.3510     8.3590   110.0130    11.3880     0.0130     2.5770     0.2760
 1424.5000   -33.2150    10.2230     7.2840     8.3590   108.6120    11.3950     0.0190     2.5830     0.2680
 1425.0000   -33.1440    10.4320     7.3410     8.3590   108.6460    11.4000     0.0300     2.5970     0.2700
 1425.5000   -33.0730    10.6400     7.4840     8.3590   109.0000    11.3740     0.0300     2.5910     0.2730
 1426.0000   -33.0020    10.8100     7.6270     8.5020   109.3670    11.3640     0.0180     2.5790     0.2760
 1426.5000   -32.9310    10.5660     7.7700     8.6830   109.7120    11.3540     0.0150     2.5740     0.2790
 1427.0000   -32.8600     9.9530     7.9130     8.8640   109.3910    11.3440     0.0330     2.5920     0.2830
 1427.5000   -32.7890    10.4780     8.0560     9.0450   106.5450    11.3120     0.0500     2.5860     0.2860
 1428.0000   -32.7150    11.9620     8.2070     9.2250   103.7290    11.2500     0.0400     2.6260     0.2890
 1428.5000   -32.7860    13.8520     8.2070     9.4190   100.9130    11.2240     0.0290     2.6190     0.2810
 1429.0000   -32.8770    12.9750     8.2070     9.5080   101.9950    11.3410     0.0170     2.6110     0.2680
 1429.5000   -32.9690    11.7680     8.0580     9.5940   105.8790    11.3550     0.0210     2.6030     0.2480
 1430.0000   -33.0610    10.5620     7.7670     9.5940   109.7580    11.3940     0.0250     2.5860     0.2380
 1430.5000   -33.1530     9.9530     7.4770     9.2990   113.6500    11.4340     0.0110     2.5710     0.2580
 1431.0000   -33.2450    11.2150     7.1860     8.8770   114.3320    11.4730     0.0090     2.5660     0.2730
 1431.5000   -33.3370    10.6130     7.1510     8.4550   112.3960    11.4990     0.0100     2.5620     0.2690
 1432.0000   -33.4290    10.1370     7.3200     8.0580   109.3540    11.5800     0.0110     2.5580     0.2660
 1432.5000   -33.5210    11.8500     7.4530     8.2080   106.2430    11.6630     0.0110     2.5590     0.2780
 1433.0000   -33.6130    11.2720     7.5860     8.3240   105.0740    11.7450     0.0120     2.5500     0.2880
 1433.5000   -33.7050     9.3180     7.7190     8.4360   105.6650    11.8540     0.0120     2.5290     0.3000
 1434.0000   -33.8000     6.2880     7.8520     8.4360   106.2770    11.9780     0.0120     2.5090     0.2980
 1434.5000   -33.8810     6.2310     7.9840     8.2980   106.7680    12.1120     0.0160     2.4890     0.3000
 1435.0000   -33.6460     7.0680     7.8390     8.0750   106.7690    12.3120     0.0410     2.4460     0.3220
 1435.5000   -33.5460     7.4190     7.2930     7.9110   107.2450    13.3300     0.0880     2.3950     0.3430
 1436.0000   -33.4460     2.9400     6.7470     7.5090   109.4790    12.7530     0.1500     2.3450     0.3650
 1436.5000   -33.3480     1.0490     6.4650     7.4190   111.6730    11.6720     0.1900     2.3130     0.3440
 1437.0000   -33.2500     3.0960     7.0690     7.9460   113.8640    11.5550     0.0130     2.3050     0.3760
 1437.5000   -33.1520     5.8970     7.5530     8.4900   116.0600    11.4060     0.0160     2.4380     0.3260
 1438.0000   -33.0550    12.0690     8.0370     9.0340   118.2430    11.3360     0.0080     2.5290     0.3010
 1438.5000   -32.9570    11.9250     8.3590     9.4410   119.8870    11.3280     0.0140     2.5660     0.2910
 1439.0000   -32.9550    11.7420     7.9380     9.1610   118.7380    11.3220     0.0220     2.5560     0.2770
 1439.5000   -33.0570    11.8060     7.6260     8.9140   117.6370    11.3170     0.0140     2.5490     0.2820
 1440.0000   -33.1580    11.8500     7.7200     8.9140   116.3410    11.2800     0.0030     2.5390     0.2780
 1440.5000   -33.2600    11.3220     7.8540     8.9850   113.8190    11.2440    -0.0050     2.5310     0.2790
 1441.0000   -33.3630    10.8550     8.0580     9.0400   111.7350    11.2390     0.0030     2.5490     0.2830
 1441.5000   -33.4650    10.3890     7.8910     9.0790   115.7240    11.2490     0.0180     2.5720     0.2870
 1442.0000   -33.5670    10.0440     7.5490     8.7850   117.9210    11.2610     0.0130     2.5770     0.2860
 1442.5000   -33.6690    10.4960     7.2070     8.3290   115.8810    11.2720     0.0060     2.5650     0.2840
 1443.0000   -33.7710    11.0210     7.0640     7.9110   113.1110    11.3020     0.0100     2.5670     0.2890
 1443.5000   -33.8740    11.3180     7.0150     7.8390   111.7610    11.3340     0.0120     2.5610     0.2860
 1444.0000   -33.8520    10.5950     6.9570     7.8390   110.8720    11.3670     0.0050     2.5470     0.2830
 1444.5000   -33.7460    10.3250     6.9750     7.9810   110.0050    11.3970     0.0030     2.5360     0.2800
 1445.0000   -33.6410    10.4220     7.0190     8.0930   109.1320    11.3820     0.0170     2.5610     0.2800
 1445.5000   -33.5360    10.7110     7.0620     8.2070   108.4150    11.3390     0.0240     2.5560     0.2920
 1446.0000   -33.4310    10.0730     7.1060     8.2020   109.7350    11.2580     0.0190     2.5520     0.3000
 1446.5000   -33.3260     8.4090     7.1510     8.1880   111.0430    11.1770     0.0140     2.5640     0.2980
 1447.0000   -33.2210     7.5050     7.1730     8.1740   112.3310    11.1170     0.0250     2.5850     0.2870
 1447.5000   -33.1160     9.1990     7.1960     8.1610   113.5740    11.1030     0.0270     2.5940     0.2760
 1448.0000   -33.0110    10.5540     7.2180     8.1470   115.1670    11.0990     0.0160     2.5790     0.2670
 1448.5000   -32.9060    10.9100     7.2410     8.1320   116.6980    11.0990     0.0220     2.5790     0.2690
 1449.0000   -32.8010    10.5080     7.2630     8.2190   118.2700    11.0990     0.0200     2.5870     0.2710
 1449.5000   -32.7090    10.3250     7.2840     8.2830   118.2140    11.0990     0.0090     2.5640     0.2750
 1450.0000   -32.7870    10.6130     7.2170     8.2830   117.2980    11.0990    -0.0030     2.5460     0.2800
 1450.5000   -32.8750    10.6130     7.0920     8.1320   116.3500    11.1030     0.0040     2.5340     0.2840
 1451.0000   -32.9640     9.7720     6.9540     7.9950   116.9530    11.1160     0.0180     2.5630     0.2900
 1451.5000   -33.0520     9.9300     6.8300     7.8580   117.7270    11.1290     0.0240     2.5800     0.3010
 1452.0000   -33.1400    10.2440     6.8300     7.7210   116.8970    11.1360     0.0140     2.5780     0.2940
 1452.5000   -33.2280    10.5580     6.8510     7.6260   115.6030    11.1090     0.0240     2.5910     0.2770
 1453.0000   -33.3160    10.7110     6.8730     7.6260   117.9410    11.0940     0.0350     2.5980     0.2790
 1453.5000   -33.4050    10.1830     6.8930     7.6260   120.5380    11.0790     0.0330     2.5960     0.2820
 1454.0000   -33.4940     9.7810     6.8930     7.6960   118.6940    11.0640     0.0240     2.5850     0.2850
 1454.5000   -33.4760     9.4190     6.8370     7.6960   116.5180    11.0490     0.0150     2.5730     0.2870
 1455.0000   -33.4510     9.7550     6.7940     7.7670   115.0670    11.0400     0.0120     2.5570     0.2860
 1455.5000   -33.4270    10.4020     6.7520     7.8200   115.8770    11.0380     0.0070     2.5470     0.2770
 1456.0000   -33.4030    10.7110     6.7060     7.8930   116.8590    11.0360     0.0080     2.5600     0.2680
 1456.5000   -33.3790    10.0870     6.7060     7.9670   116.9470    11.0330     0.0090     2.5680     0.2720
 1457.0000   -33.3540     9.4940     6.7610     8.0400   116.3830    11.0310     0.0100     2.5720     0.2800
