~VERSION INFORMATION
 VERS.                2.0:   CWLS LOG ASCII STANDARD - VERSION 2.0
 WRAP.                 NO:   ONE LINE PER DEPTH STEP
~WELL INFORMATION
#MNEM.UNIT      DATA TYPE    INFORMATION
#----------   ------------   ------------------------------
 STRT.F           80.0000:   START DEPTH
 STOP.F         1100.0000:   STOP DEPTH
 STEP.F            0.5000:   STEP LENGTH
 NULL.          -999.2500:   NO VALUE
 COMP.          U.S. NAVY:   COMPANY
 WELL.     NPR #3 #65-S-2:   WELL
 FLD .             TEAPOT:   FIELD
 LOC .       S2 T38N R78W:   LOCATION
 CNTY.            NATRONA:   COUNTY
 STAT.            WYOMING:   STATE
 CTRY. UNITED STATES OF AMERICA:   COUNTRY
 SRVC.       Schlumberger:   SERVICE COMPANY
 DATE.        17-JUL-1964:   LOGDATE
 API .       490250642600:   API NUMBER
~CURVE INFORMATION
#MNEM.UNIT       API CODE    CURVE DESCRIPTION
#----------   ------------   ------------------------------
 DEPT.F                  :   
 CALS.IN     60 280 50 00:   CALIPER FROM SONIC LOG
 DT  .US/F   60 520 33 00:   INTERVAL TRANSIT TIME
 GR  .GAPI   30 310 01 00:   GAMMA RAY
 ASN .OHMM   05 041 16 00:   AMPLIFIER SHORT NORMAL 16"
 CILD.MMHO   05 110 46 00:   CONDUCTIVITY INDUCTION LOG DEEP
 ILD .OHMM   05 120 46 00:   INDUCTION LOG DEEP
 SPR .MV     05 010 01 00:   SPONTANEOUS POTENTIAL FROM RES.
~PARAMETER INFORMATION
#MNEM.UNIT          VALUE    DESCRIPTION
#----------   ------------   ------------------------------
 PD  .                 GL:   PERMANENT DATUM
 EPD .F              5199:   ELEVATION PERMANENT DATUM
 LMF .                 KB:   LOG MEASURED FROM
 DAPD.F                 5:   FEET ABOVE PERMANENT DATUM
 DMF .                 KB:   DRILLING MEASURED FROM
 EKB .F              5204:   KELLING BUSHING
 EGL .F              5199:   GROUND LEVEL
 DATE.        17-JUL-1964:   RUN DATE
 RUN .                  1:   RUN NUMBER
 DD  .F              1100:   DEPTH DRILLER
 DL  .F              1101:   DEPTH LOGGER
 BLI .F              1100:   BOTTOM LOG INTERVAL
 TLI .F                85:   TOP LOG INTERVAL
 CS  .IN            8.625:   CASING SIZE
 CBD .F                10:   CASING BOTTOM DRILLER
 BS  .IN             6.75:   BIT SIZE
 BSD .F              1100:   BIT SIZE AT DEPTH
 DFT .                GEL:   DRILLING FLUID TYPE
 DFD .                9.5:   DRILLING FLUID DENSITY
 DFV .                 47:   DRILLING FLUID VISCOSITY
 MSS .           FLOWLINE:   MUD SAMPLE SOURCE
 RMS .OHMM           2.60:   RESISTIVITY MUD SAMPLE
 MST .F                80:   MUD SAMPLE TEMPERATURE
 RMF .OHMM           1.65:   RESISTIVITY MUD FILTRATE SAMPLE
 MFST.F                80:   MUD FILTRATE SAMPLE TEMPERATURE
 RMC .OHMM           2.53:   RESISTIVITY MUD CAKE
 MCST.F                80:   MUD CAKE SAMPLE TEMPERATURE
 MFSS.                 FP:   MUD FILTRATE SAMPLE SOURCE
 MCSS.                 FP:   MUD CAKE SAMPLE SOURCE
 TCS .HRS               2:   TIME CURCULATED STOPPED
 LUN .               4507:   LOGGING UNIT NUMBER
 LUL .               CSPR:   LOGGING UNIT LOCATION
 ENGI.             DANNER:   RECORDING ENGINEER
 CLNT.            A2DTECH:   CLIENT CODE
 ORIG.        2" 5" PRINT:   ORIGIN OF DATA
 UWI .       490250642600:   UNIQUE WELL ID
 DICO. A2D Technologies, Inc.:   DIGITIZING COMPANY
~OTHER INFORMATION
~A   DEPT     CALS         DT         GR          ASN      CILD         ILD      SPR   
# ...
  398.5000  -999.2500  -999.2500  -999.2500     6.5259   180.0674     5.9388   -36.5964
  399.0000  -999.2500  -999.2500  -999.2500     6.5412   187.1396     5.7374   -36.3532
  399.5000  -999.2500  -999.2500  -999.2500     5.8230   191.2599     5.4547   -36.0674
  400.0000  -999.2500  -999.2500  -999.2500     6.0928   196.1078     5.1719   -35.8669
  400.5000  -999.2500  -999.2500  -999.2500     5.9135   201.6738     4.9340   -35.9127
  401.0000  -999.2500  -999.2500  -999.2500     5.8200   207.2399     4.9358   -35.7601
  401.5000  -999.2500  -999.2500  -999.2500     5.7616   210.2969     4.9766   -35.9058
  402.0000  -999.2500  -999.2500  -999.2500     5.7497   207.5148     5.0244   -35.9012
  402.5000  -999.2500  -999.2500  -999.2500     5.7650   202.0571     5.0899   -35.7489
  403.0000  -999.2500  -999.2500  -999.2500     5.7967   198.2783     5.1948   -35.7452
  403.5000  -999.2500  -999.2500  -999.2500     5.9183   193.0612     5.3174   -35.7407
  404.0000  -999.2500  -999.2500  -999.2500     6.0892   188.0239     5.3931   -35.5430
  404.5000  -999.2500  -999.2500  -999.2500     6.2003   183.5054     5.4878   -35.4358
  405.0000  -999.2500  -999.2500  -999.2500     6.1407   181.0620     5.5457   -35.4322
  405.5000  -999.2500  -999.2500  -999.2500     5.9763   180.4365     5.6582   -35.2794
  406.0000  -999.2500  -999.2500  -999.2500     6.3060   178.7824     5.6981   -35.4243
  406.5000  -999.2500  -999.2500  -999.2500     6.4418   178.0464     5.6998   -35.4210
  407.0000  -999.2500  -999.2500  -999.2500     6.4862   178.0389     5.7010   -35.4174
  407.5000  -999.2500  -999.2500  -999.2500     6.4628   178.0308     5.7026   -35.6607
  408.0000  -999.2500  -999.2500  -999.2500     6.4419   178.0239     5.6293   -35.7085
  408.5000  -999.2500  -999.2500  -999.2500     6.4273   178.0165     5.6153   -35.7039
  409.0000  -999.2500  -999.2500  -999.2500     6.4275   178.0076     5.5575   -35.8495
  409.5000  -999.2500  -999.2500  -999.2500     6.4278   178.0015     5.5590   -36.0164
  410.0000  -999.2500  -999.2500  -999.2500     6.4182   178.7422     5.4808   -36.2886
  410.5000  -999.2500  -999.2500  -999.2500     6.3601   180.3020     5.4126   -36.3433
  411.0000  -999.2500  -999.2500  -999.2500     6.3090   181.2126     5.3911   -36.5798
  411.5000  -999.2500  -999.2500  -999.2500     6.1731   184.7070     5.3408   -36.6701
  412.0000  -999.2500  -999.2500  -999.2500     6.0700   186.0280     5.2676   -36.8709
  412.5000  -999.2500  -999.2500  -999.2500     6.0554   188.4356     5.2691   -36.8663
  413.0000  -999.2500  -999.2500  -999.2500     6.0612   189.9252     5.2708   -36.8629
  413.5000  -999.2500  -999.2500  -999.2500     6.0710   189.9177     5.2720   -36.5258
  414.0000  -999.2500  -999.2500  -999.2500     6.0952   189.9094     5.2735   -36.1097
  414.5000  -999.2500  -999.2500  -999.2500     6.1080   189.9027     5.2750   -35.9036
  415.0000  -999.2500  -999.2500  -999.2500     6.1617   189.8952     5.2765   -35.6557
  415.5000  -999.2500  -999.2500  -999.2500     6.2054   189.8862     5.3529   -35.6520
  416.0000  -999.2500  -999.2500  -999.2500     6.2541   188.9122     5.3543   -35.6483
  416.5000  -999.2500  -999.2500  -999.2500     6.3123   188.3753     5.4305   -35.6442
  417.0000  -999.2500  -999.2500  -999.2500     6.3275   187.2305     5.4322   -35.6408
  417.5000  -999.2500  -999.2500  -999.2500     6.2979   186.6642     5.5356   -35.6371
  418.0000  -999.2500  -999.2500  -999.2500     6.2603   183.8611     5.7339   -35.6327
  418.5000  -999.2500  -999.2500  -999.2500     6.2536   180.0524     5.9756   -35.6297
  419.0000  -999.2500  -999.2500  -999.2500     6.2988   175.6136     6.2940   -35.6258
  419.5000  -999.2500  -999.2500  -999.2500     6.4750   168.6103     6.5607   -35.6222
  420.0000  -999.2500  -999.2500  -999.2500     6.8533   164.6707     6.7065   -35.6185
  420.5000  -999.2500  -999.2500  -999.2500     7.1498   159.8719     6.8625   -35.6143
  421.0000  -999.2500  -999.2500  -999.2500     7.4253   156.2325     6.8642   -35.7601
  421.5000  -999.2500  -999.2500  -999.2500     7.5129   155.3668     6.8655   -35.9150
  422.0000  -999.2500  -999.2500  -999.2500     7.4074   155.3593     6.7923   -36.0507
  422.5000  -999.2500  -999.2500  -999.2500     7.2128   156.2999     6.6442   -36.1967
  423.0000  -999.2500  -999.2500  -999.2500     7.1845   158.3378     6.5571   -36.3411
  423.5000  -999.2500  -999.2500  -999.2500     7.1358   162.8020     6.4232   -36.4198
  424.0000  -999.2500  -999.2500  -999.2500     7.0653   166.7964     6.3498   -36.4833
  424.5000  -999.2500  -999.2500  -999.2500     6.9001   174.0331     6.3513   -36.4787
  425.0000  -999.2500  -999.2500  -999.2500     6.7964   178.0190     6.3528   -36.3264
  425.5000  -999.2500  -999.2500  -999.2500     6.7967   177.7617     6.3543   -36.3227
  426.0000  -999.2500  -999.2500  -999.2500     6.7491   175.4191     6.3558   -36.2206
  426.5000  -999.2500  -999.2500  -999.2500     6.5870   172.9965     6.2825   -36.1662
  427.0000  -999.2500  -999.2500  -999.2500     6.5336   170.2535     6.2840   -36.0132
  427.5000  -999.2500  -999.2500  -999.2500     6.5472   168.1512     6.3605   -35.9314
  428.0000  -999.2500  -999.2500  -999.2500     6.6186   165.7184     6.3617   -35.8569
  428.5000  -999.2500  -999.2500  -999.2500     6.7516   162.0883     6.5137   -35.8527
  429.0000  -999.2500  -999.2500  -999.2500     6.9964   158.0989     6.7573   -35.8495
  429.5000  -999.2500  -999.2500  -999.2500     7.3231   150.7553     7.0194   -35.9965
  430.0000  -999.2500  -999.2500  -999.2500     7.5529   145.9581     7.2647   -36.1401
  430.5000  -999.2500  -999.2500  -999.2500     7.6979   141.5193     7.4519   -36.1364
  431.0000  -999.2500  -999.2500  -999.2500     7.9243   137.2590     7.5665   -36.2814
  431.5000  -999.2500  -999.2500  -999.2500     8.1396   137.0235     7.5683   -36.3522
  432.0000  -999.2500  -999.2500  -999.2500     8.2677   135.7481     7.5436   -36.5902
  432.5000  -999.2500  -999.2500  -999.2500     8.2979   135.7410     7.4216   -36.7176
  433.0000  -999.2500  -999.2500  -999.2500     8.2957   137.5600     7.1858   -36.7139
  433.5000  -999.2500  -999.2500  -999.2500     8.1750   143.2100     6.9606   -36.7101
  434.0000  -999.2500  -999.2500  -999.2500     7.9665   148.0638     6.7535   -36.7064
  434.5000  -999.2500  -999.2500  -999.2500     7.6554   152.1781     6.6467   -36.5196
  435.0000  -999.2500  -999.2500  -999.2500     7.5060   156.9612     6.5272   -36.4005
  435.5000  -999.2500  -999.2500  -999.2500     7.3446   161.7841     6.5102   -36.2481
  436.0000  -999.2500  -999.2500  -999.2500     6.9228   166.3764     6.6557   -36.2305
  436.5000  -999.2500  -999.2500  -999.2500     6.8332   168.6153     6.8356   -36.0910
  437.0000  -999.2500  -999.2500  -999.2500     6.9683   167.8194     6.9527   -36.0879
  437.5000  -999.2500  -999.2500  -999.2500     7.0222   165.6062     6.9880   -36.0841
  438.0000  -999.2500  -999.2500  -999.2500     7.0437   162.1856     6.9897   -36.0805
  438.5000  -999.2500  -999.2500  -999.2500     7.0440   159.6028     6.8859   -36.0768
  439.0000  -999.2500  -999.2500  -999.2500     7.1217   158.4681     6.6896   -36.0726
  439.5000  -999.2500  -999.2500  -999.2500     7.1793   158.0919     6.4489   -36.0030
  440.0000  -999.2500  -999.2500  -999.2500     7.1297   161.0766     6.2083   -35.9165
  440.5000  -999.2500  -999.2500  -999.2500     6.9856   164.3539     6.0255   -35.7631
  441.0000  -999.2500  -999.2500  -999.2500     6.6264   169.2962     5.8396   -35.7601
  441.5000  -999.2500  -999.2500  -999.2500     6.4842   174.7480     5.8041   -35.7562
  442.0000  -999.2500  -999.2500  -999.2500     6.6259   178.5428     5.8059   -35.7526
  442.5000  -999.2500  -999.2500  -999.2500     6.7620   181.9976     5.7324   -35.5998
  443.0000  -999.2500  -999.2500  -999.2500     6.6435   183.7974     5.6592   -35.4466
  443.5000  -999.2500  -999.2500  -999.2500     6.4781   184.9777     5.4659   -35.1696
