~VERSION INFORMATION
 VERS.                2.0:   CWLS LOG ASCII STANDARD - VERSION 2.0
 WRAP.                 NO:   ONE LINE PER DEPTH STEP
~WELL INFORMATION
#MNEM.UNIT      DATA TYPE    INFORMATION
#----------   ------------   ------------------------------
 STRT.F          180.0000:   START DEPTH
 STOP.F         3280.0000:   STOP DEPTH
 STEP.F            0.5000:   STEP LENGTH
 NULL.          -999.2500:   NO VALUE
 COMP.    FENIX & SCISSON:   COMPANY
 WELL.  FENIX "AX" #85-10:   WELL
 FLD .              NPR 3:   FIELD
 LOC .      S10 T38N R78W:   LOCATION
 CNTY.            NATRONA:   COUNTY
 STAT.            WYOMING:   STATE
 CTRY. UNITED STATES OF AMERICA:   COUNTRY
 SRVC.       SCHLUMBERGER:   SERVICE COMPANY
 DATE.        03-JUL-1977:   LOGDATE
 API .     49025104000000:   API NUMBER
~CURVE INFORMATION
#MNEM.UNIT       API CODE    CURVE DESCRIPTION
#----------   ------------   ------------------------------
 DEPT.F                  :   
 SPR .MV     11 010 01 00:   SPONTANEOUS POTENTIAL FROM RES.
 MSFL.OHMM   11 270 04 00:   MICRO SPHERICALLY FOCUSED
 LLD .OHMM   11 220 10 00:   LATEROLOG LOG DEEP
 LLS .OHMM   11 220 09 00:   LATEROLOG LOG SHALLOW
 GRD .GAPI   45 310 01 00:   GAMMA RAY FROM DENSITY LOG
 CALD.IN     45 280 60 00:   CALIPER FROM DENSITY LOG
 CORR.G/C3   45 356 01 00:   DENSITY CORRECTION
 RHOB.G/C3   45 350 01 00:   BULK DENSITY
 NPHI.DEC    42 890 03 00:   NEUTRON POROSITY SANDSTONE
~PARAMETER INFORMATION
#MNEM.UNIT          VALUE    DESCRIPTION
#----------   ------------   ------------------------------
 EKB .F         5210.0000:   Kelly bushing
 EGL .F         5200.0000:   Ground level
 EDF .F            0.0000:   Drilling floor
 TD  .F         3265.0000:   Total depth
 DATE.        03-JUL-1977:   Date logged
 CLNT.            A2DTECH:   Client Code
 SL  . 2000' FSL & 100' FEL:   Surface Location
 PD  .                 GL:   Permanent Datum
 EPD .F              5200:   Elevation Permanent Datum
 LMF .                 KB:   Log Measured From
 DMF .                 KB:   Drilling Measured From
 DAPD.F                10:   Feet Above Permanent Datum
 DD  .F              3261:   Depth driller
 DL  .F              3265:   Depth logger
 BLI .F              2364:   Bottom log interval
 TLI .F               220:   Top log interval
 CS1 .IN            8.625:   Casing size
 CBD1.      8.625" @ 220':   Casing driller 1
 CBL1.F               220:   Casing logger 1
 BS1 .IN            7.875:   Bit size
 BSD1.F              3261:   Depth drilled with bit1
 DFT .                KCL:   Type fluid in hole
 DFD .                9.7:   Density
 DFV .                 38:   Viscosity
 DFPH.                7.5:   pH
 DFL .                 40:   Fluid loss
 MSS .                PIT:   Source of sample
 RMS .OHMM          0.167:   Rm
 MST .F                78:   Rm Meas. temp.
 RMF .OHMM          0.167:   Rmf
 MFST.F                78:   Rmf Meas. temp.
 MFSS.               MEAS:   Source Rmf.
 RMB .OHMM          0.103:   Rm. at BHT
 BHT .F               126:   BHT.
 TLAB.HRS            0930:   Time logger at bottom
 MRT .F               126:   Maximum recorded temp.
 LUN .               5642:   Logging unit number
 LUL .               CSPR:   Logging unit location
 ENGI.             MARTIN:   Recorded By
 WITN.         PETTINGILL:   Witnessed by
 ORIG.           5" PRINT:   Origin of data
 UWI .     49025104000000:   Unique Well ID
 DICO. A2D TECHNOLOGIES, INC.:   Digitizing Company
~OTHER INFORMATION
~A   DEPT      SPR       MSFL        LLD        LLS         GRD      CALD        CORR        RHOB       NPHI 
# ...
  435.5000   -26.0440    12.2930    15.1840    11.5440    81.5180    13.1360     0.0250     2.4340     0.2420
  436.0000   -26.1000    13.0800    15.3240    11.3180    80.7630    13.0660     0.0010     2.4390     0.2260
  436.5000   -26.1590    14.9090    15.4750    11.7360    80.1520    13.0480     0.0070     2.4760     0.2110
  437.0000   -25.8690    18.4330    15.6710    12.2970    80.7830    13.0500     0.0160     2.5150     0.1970
  437.5000   -25.3410    21.9570    15.8680    13.0310    81.4030    13.0590     0.0210     2.5550     0.1830
  438.0000   -24.8100    26.8320    16.0640    14.4380    82.0160    13.0780     0.0240     2.5430     0.1810
  438.5000   -24.2760    26.1030    16.2610    15.8440    82.6250    13.1770     0.0130     2.5190     0.1840
  439.0000   -23.7430    22.5490    16.4570    16.6440    83.2900    13.2760     0.0090     2.4950     0.1930
  439.5000   -23.2090    19.0780    16.6440    16.4920    85.3510    13.3760     0.0280     2.4930     0.2060
  440.0000   -22.6760    15.6070    15.8110    16.3420    87.6220    13.4750     0.0170     2.4750     0.2210
  440.5000   -22.1430    12.1360    15.0150    14.6320    89.6350    13.5640     0.0160     2.4370     0.2360
  441.0000   -21.6090    10.6250    14.2200    13.3320    89.3040    13.5870     0.0300     2.4300     0.2520
  441.5000   -21.0760    10.0550    13.4240    12.0320    87.8920    13.6120     0.0330     2.4430     0.2670
  442.0000   -20.5430     9.7720    12.8570    10.6130    86.5370    13.6240     0.0220     2.4370     0.2760
  442.5000   -20.0090     9.6820    12.8110    10.5160    85.1850    13.6130     0.0110     2.4260     0.2790
  443.0000   -19.4760     9.8610    12.7650    10.5490    84.9320    13.6000     0.0090     2.4150     0.2810
  443.5000   -18.9420     9.9960    12.7530    10.5780    85.6760    13.5870     0.0120     2.4030     0.2790
  444.0000   -18.4050    10.1320    12.9100    10.6060    85.4840    13.5740     0.0190     2.4110     0.2750
  444.5000   -18.0650    10.3250    12.9810    10.6640    85.3060    13.5640     0.0230     2.4180     0.2710
  445.0000   -17.7780    10.2230    13.0520    10.7300    86.3390    13.5650     0.0190     2.4150     0.2700
  445.5000   -17.4920    10.0440    13.1090    10.8100    87.2280    13.5670     0.0160     2.4190     0.2690
  446.0000   -17.2070     9.8820    12.8560    10.7110    88.1150    13.5730     0.0130     2.4180     0.2790
  446.5000   -16.9210     9.6780    12.4310    10.7110    89.0560    13.5790     0.0150     2.4160     0.2870
  447.0000   -16.6340     9.4750    12.0060    10.5990    87.9390    13.5840     0.0190     2.4340     0.2870
  447.5000   -16.3500     9.2710    11.8500    10.4890    86.0870    13.5900     0.0190     2.4250     0.2850
  448.0000   -16.2000     9.0670    11.9530    10.3780    84.2180    13.5960     0.0180     2.4310     0.2820
  448.5000   -16.0380     8.9140    12.0360    10.2680    82.7130    13.6020     0.0190     2.4220     0.2790
  449.0000   -15.8760     9.2480    12.1190    10.1570    82.1310    13.6280     0.0200     2.4310     0.2760
  449.5000   -15.7150     8.8330    12.2020    10.0470    81.6570    13.6750     0.0250     2.4300     0.2740
  450.0000   -15.5530     8.8910    12.2930     9.9360    83.6500    13.7210     0.0350     2.4540     0.2720
  450.5000   -15.3910     8.9960    12.2930     9.7720    86.3860    13.7630     0.0390     2.4660     0.2740
  451.0000   -15.2310     8.8720    11.8000     9.8650    88.7980    13.7460     0.0270     2.4570     0.2790
  451.5000   -15.1390     8.5140    11.4220     9.9530    87.8760    13.7270     0.0160     2.4540     0.2770
  452.0000   -15.2250     8.5800    11.3180    10.0440    86.9280    13.6660     0.0160     2.4480     0.2750
  452.5000   -15.3050     8.7030    11.5630    10.0330    86.0960    13.6450     0.0180     2.4450     0.2670
  453.0000   -15.3860     8.8270    11.8170     9.9970    87.3410    13.6590     0.0190     2.4520     0.2610
  453.5000   -15.4660     8.9510    12.0710     9.9620    88.8600    13.6730     0.0210     2.4510     0.2640
  454.0000   -15.5470     9.0790    12.3250     9.9260    88.5970    13.6670     0.0300     2.4540     0.2670
  454.5000   -15.6260     9.1340    12.5790     9.8910    88.7820    13.6250     0.0370     2.4610     0.2700
  455.0000   -15.7160     9.1910    12.8330     9.8620    89.8570    13.6200     0.0360     2.4660     0.2670
  455.5000   -16.0660     9.2480    12.9890     9.8620    90.7930    13.6250     0.0350     2.4730     0.2620
  456.0000   -16.4370     9.6930    12.5230     9.9390    89.6520    13.6240     0.0340     2.4600     0.2680
  456.5000   -16.8080    10.2310    11.9590    10.0160    88.4480    13.6240     0.0180     2.4510     0.2650
  457.0000   -17.1780     9.8680    12.1680    10.0940    89.3720    13.6180     0.0190     2.4580     0.2610
  457.5000   -17.5480     9.1630    12.4280    10.1720    91.3510    13.6120     0.0190     2.4560     0.2590
  458.0000   -17.9190    10.6130    12.6880    10.2500    91.3510    13.6070     0.0190     2.4500     0.2570
  458.5000   -18.2890    10.3420    12.9890    10.3250    92.2360    13.6090     0.0180     2.4490     0.2560
  459.0000   -18.6600     9.9120    12.6580    10.3250    93.7580    13.6180     0.0130     2.4640     0.2550
  459.5000   -19.0300     9.4820    12.1380    10.1300    95.1820    13.6270     0.0070     2.4710     0.2520
  460.0000   -19.3980     9.3160    11.9590     9.9750    94.5440    13.6380     0.0100     2.4550     0.2470
  460.5000   -19.6180     9.1950    12.1600     9.8620    91.1150    13.6550     0.0260     2.4650     0.2410
  461.0000   -19.8020     9.0730    12.3500    10.0470    87.7330    13.7070     0.0330     2.4730     0.2450
  461.5000   -19.9860     8.9520    12.5390    10.3910    84.3620    13.7590     0.0400     2.4560     0.2500
  462.0000   -20.1700     6.3620    12.6370    10.7350    80.9920    13.8100     0.0620     2.4280     0.2550
  462.5000   -20.3530     3.7260    13.5700    11.0790    77.6200    13.8620     0.0780     2.4000     0.2610
  463.0000   -20.5240     5.4910    14.5030    11.3410    76.9820    13.8530     0.0650     2.3560     0.2660
  463.5000   -20.6800     7.2840    14.2020    11.4220    77.6750    13.7760     0.0660     2.3120     0.2710
  464.0000   -20.8360     6.3860    13.6140    11.0460    78.3850    13.7030     0.0760     2.2990     0.2760
  464.5000   -20.9910     5.3610    13.0260    10.5210    78.5260    13.5670     0.0820     2.3040     0.2810
  465.0000   -21.1460     5.2220    12.6370     9.8620    78.5450    13.4190     0.0830     2.2930     0.2840
  465.5000   -21.3020     5.0730    13.4030    10.7020    78.0520    13.2700     0.0830     2.2960     0.2850
  466.0000   -21.4420     4.8650    14.8110    11.8330    77.4480    13.1310     0.0820     2.3040     0.2860
  466.5000   -21.5240     4.7740    16.2200    13.2300    76.6720    13.2340     0.0810     2.3190     0.2870
  467.0000   -21.6140     5.4230    17.0370    13.0160    75.1690    13.4250     0.0870     2.3380     0.2920
  467.5000   -21.7040     5.9340    16.2730    12.4370    73.6700    13.4210     0.0950     2.3720     0.2960
  468.0000   -21.7950     6.1450    15.8980    11.8500    72.1650    13.1210     0.0550     2.4050     0.3000
  468.5000   -21.8850    11.9920    19.5330    13.6180    73.1660    12.8140     0.0140     2.4290     0.2670
  469.0000   -21.9740    21.7370    24.1370    16.6080    76.3180    12.9260     0.0010     2.4940     0.2190
  469.5000   -21.9990    31.3650    28.7410    19.5970    78.6320    13.1410     0.0250     2.4480     0.2000
  470.0000   -21.8660    19.7760    30.7940    20.9400    80.2840    13.2420     0.0440     2.4680     0.2150
  470.5000   -21.7380     8.6470    26.8230    17.8410    81.9330    13.3390     0.0580     2.3670     0.2430
  471.0000   -21.6110     8.1830    20.9010    14.3010    83.5850    13.4390     0.0620     2.3720     0.2710
  471.5000   -21.4830     7.7200    17.4000    12.7940    85.3020    13.5130     0.0670     2.3770     0.2950
