~VERSION INFORMATION
 VERS.                2.0:   CWLS LOG ASCII STANDARD - VERSION 2.0
 WRAP.                 NO:   ONE LINE PER DEPTH STEP
~WELL INFORMATION
#MNEM.UNIT      DATA TYPE    INFORMATION
#----------   ------------   ------------------------------
 STRT.F          180.0000:   START DEPTH
 STOP.F         3280.0000:   STOP DEPTH
 STEP.F            0.5000:   STEP LENGTH
 NULL.          -999.2500:   NO VALUE
 COMP.    FENIX & SCISSON:   COMPANY
 WELL.  FENIX "AX" #85-10:   WELL
 FLD .              NPR 3:   FIELD
 LOC .      S10 T38N R78W:   LOCATION
 CNTY.            NATRONA:   COUNTY
 STAT.            WYOMING:   STATE
 CTRY. UNITED STATES OF AMERICA:   COUNTRY
 SRVC.       SCHLUMBERGER:   SERVICE COMPANY
 DATE.        03-JUL-1977:   LOGDATE
 API .     49025104000000:   API NUMBER
~CURVE INFORMATION
#MNEM.UNIT       API CODE    CURVE DESCRIPTION
#----------   ------------   ------------------------------
 DEPT.F                  :   
 SPR .MV     11 010 01 00:   SPONTANEOUS POTENTIAL FROM RES.
 MSFL.OHMM   11 270 04 00:   MICRO SPHERICALLY FOCUSED
 LLD .OHMM   11 220 10 00:   LATEROLOG LOG DEEP
 LLS .OHMM   11 220 09 00:   LATEROLOG LOG SHALLOW
 GRD .GAPI   45 310 01 00:   GAMMA RAY FROM DENSITY LOG
 CALD.IN     45 280 60 00:   CALIPER FROM DENSITY LOG
 CORR.G/C3   45 356 01 00:   DENSITY CORRECTION
 RHOB.G/C3   45 350 01 00:   BULK DENSITY
 NPHI.DEC    42 890 03 00:   NEUTRON POROSITY SANDSTONE
~PARAMETER INFORMATION
#MNEM.UNIT          VALUE    DESCRIPTION
#----------   ------------   ------------------------------
 EKB .F         5210.0000:   Kelly bushing
 EGL .F         5200.0000:   Ground level
 EDF .F            0.0000:   Drilling floor
 TD  .F         3265.0000:   Total depth
 DATE.        03-JUL-1977:   Date logged
 CLNT.            A2DTECH:   Client Code
 SL  . 2000' FSL & 100' FEL:   Surface Location
 PD  .                 GL:   Permanent Datum
 EPD .F              5200:   Elevation Permanent Datum
 LMF .                 KB:   Log Measured From
 DMF .                 KB:   Drilling Measured From
 DAPD.F                10:   Feet Above Permanent Datum
 DD  .F              3261:   Depth driller
 DL  .F              3265:   Depth logger
 BLI .F              2364:   Bottom log interval
 TLI .F               220:   Top log interval
 CS1 .IN            8.625:   Casing size
 CBD1.      8.625" @ 220':   Casing driller 1
 CBL1.F               220:   Casing logger 1
 BS1 .IN            7.875:   Bit size
 BSD1.F              3261:   Depth drilled with bit1
 DFT .                KCL:   Type fluid in hole
 DFD .                9.7:   Density
 DFV .                 38:   Viscosity
 DFPH.                7.5:   pH
 DFL .                 40:   Fluid loss
 MSS .                PIT:   Source of sample
 RMS .OHMM          0.167:   Rm
 MST .F                78:   Rm Meas. temp.
 RMF .OHMM          0.167:   Rmf
 MFST.F                78:   Rmf Meas. temp.
 MFSS.               MEAS:   Source Rmf.
 RMB .OHMM          0.103:   Rm. at BHT
 BHT .F               126:   BHT.
 TLAB.HRS            0930:   Time logger at bottom
 MRT .F               126:   Maximum recorded temp.
 LUN .               5642:   Logging unit number
 LUL .               CSPR:   Logging unit location
 ENGI.             MARTIN:   Recorded By
 WITN.         PETTINGILL:   Witnessed by
 ORIG.           5" PRINT:   Origin of data
 UWI .     49025104000000:   Unique Well ID
 DICO. A2D TECHNOLOGIES, INC.:   Digitizing Company
~OTHER INFORMATION
~A   DEPT      SPR       MSFL        LLD        LLS         GRD      CALD        CORR        RHOB       NPHI 
# ...
 3027.0000   -36.8140     7.7790    23.3890    13.8520    65.5430     7.9240     0.1070     2.5020     0.1680
 3027.5000   -36.7430     5.9350    29.1430    17.7490    67.0640     7.8390     0.1190     2.4670     0.1880
 3028.0000   -36.6710     4.0910    29.1430    15.5920    69.1280     7.7540     0.1300     2.4290     0.2050
 3028.5000   -36.5980     3.1870    22.2080    12.9850    71.1960     7.7450     0.1130     2.3900     0.2220
 3029.0000   -36.5260     3.1310    16.9640    10.3780    73.2680     7.7510     0.1180     2.3740     0.2360
 3029.5000   -36.4540     3.0760    13.4460     9.0840    75.3120     7.7560     0.1310     2.3980     0.2430
 3030.0000   -36.3820     3.0160    13.2290     8.9370    76.7700     7.7910     0.1410     2.3920     0.2490
 3030.5000   -36.3090     3.1250    13.0120     8.7900    75.6310     7.8170     0.1410     2.3890     0.2560
 3031.0000   -36.2090     3.2460    12.8710     8.7520    74.5330     7.8390     0.1330     2.3980     0.2530
 3031.5000   -36.0600     3.1840    12.9330     9.1630    74.2260     7.8470     0.1270     2.4000     0.2480
 3032.0000   -35.9110     3.1290    12.9890     8.9240    76.1770     7.8570     0.1230     2.3920     0.2430
 3032.5000   -35.7620     3.3020    12.6520     8.5930    78.1660     7.8600     0.1220     2.3830     0.2380
 3033.0000   -35.6130     3.4920    12.3640     8.5930    79.3390     7.8790     0.1220     2.3920     0.2390
 3033.5000   -35.4640     3.6820    12.1810     8.6640    78.6300     7.8960     0.1350     2.4140     0.2400
 3034.0000   -35.3160     3.8680    12.2960     8.7570    77.8250     7.9510     0.1280     2.4020     0.2340
 3034.5000   -35.1670     4.0530    12.4160     8.8500    76.9970     8.0260     0.1130     2.3970     0.2380
 3035.0000   -35.0180     4.2380    12.5350     8.9430    76.6080     8.1000     0.1040     2.3880     0.2380
 3035.5000   -34.8700     4.3150    12.6550     9.0350    78.5490     8.1570     0.0930     2.3930     0.2360
 3036.0000   -34.7170     3.9720    12.7740     9.1280    80.5890     8.1130     0.1100     2.4070     0.2380
 3036.5000   -34.5490     3.7600    12.8710     9.2210    82.5810     8.0960     0.1050     2.4010     0.2430
 3037.0000   -33.6530     3.7020    12.8870     9.3140    84.0280     8.0460     0.0940     2.3920     0.2430
 3037.5000   -32.7560     3.6250    12.9690     9.3420    83.0340     7.9640     0.1030     2.4060     0.2390
 3038.0000   -31.8610     3.4950    13.0510     9.3850    81.9990     7.8430     0.1100     2.3950     0.2330
 3038.5000   -30.9660     3.3330    13.1330     9.4290    85.7310     7.7170     0.0990     2.3770     0.2270
 3039.0000   -30.0710     3.1710    13.2300     9.4720    88.7210     7.6900     0.1030     2.3770     0.2220
 3039.5000   -29.1770     3.0440    13.1090     9.5060    89.6840     7.7280     0.1090     2.3830     0.2210
 3040.0000   -28.2820     3.0440    12.6990     9.2970    85.3960     7.7680     0.1270     2.3960     0.2320
 3040.5000   -27.3860     3.0440    12.1980     9.1000    77.8670     7.8060     0.1320     2.3870     0.2390
 3041.0000   -26.4920     3.1640    11.6960     8.9030    72.1580     7.8260     0.1060     2.3660     0.2320
 3041.5000   -25.6040     3.3120    11.1940     8.7520    69.2540     7.8460     0.0810     2.3480     0.2260
 3042.0000   -24.9810     3.4940    10.7280     8.5290    68.2220     7.8690     0.0620     2.3330     0.2290
 3042.5000   -24.5010     3.7410    10.3800     8.2610    69.3980     7.9360     0.0440     2.3120     0.2320
 3043.0000   -23.9620     4.5020    10.2310     8.0580    73.0790     8.1740     0.0280     2.3120     0.2320
 3043.5000   -23.4230     6.0230    10.4210     8.4430    77.3860     8.4060     0.0250     2.3250     0.2320
 3044.0000   -22.8850     7.5430    10.8490     8.9720    81.1510     8.6090     0.0340     2.3490     0.2450
 3044.5000   -22.3480     7.7670    11.4220     9.5010    83.3050     8.7220     0.0580     2.3730     0.2570
 3045.0000   -21.8130     5.8590    11.3180     9.6820    84.7050     8.7290     0.0860     2.3940     0.2680
 3045.5000   -21.3190     3.8300    10.9100     8.5670    82.9940     8.5830     0.1270     2.4130     0.2800
 3046.0000   -20.3840     4.2390     7.8390     7.5140    78.6020     8.4440     0.1320     2.4060     0.2910
 3046.5000   -19.4310     5.6370     8.1220     6.9570    74.2030     8.4310     0.1020     2.3970     0.2730
 3047.0000   -18.4830     7.0360     8.9000     7.3900    72.6700     8.4530     0.0890     2.4010     0.2560
 3047.5000   -17.5330     7.5560     9.7720     7.8420    72.9210     8.4150     0.0860     2.4130     0.2380
 3048.0000   -16.5520     5.7900     9.5200     8.2940    72.5270     8.5180     0.1000     2.3980     0.2360
 3048.5000   -16.2260     6.0920     8.9970     8.4360    71.7890     8.5270     0.1110     2.4050     0.2500
 3049.0000   -15.9000     6.4050     8.4750     7.6490    73.6490     8.5160     0.1220     2.4170     0.2600
 3049.5000   -15.5960     5.6370     7.9520     6.8490    75.7590     8.5140     0.1270     2.4040     0.2640
 3050.0000   -15.2950     4.5280     7.4300     6.1760    77.8700     8.5660     0.1140     2.3830     0.2670
 3050.5000   -14.7540     3.9730     6.9070     5.6840    79.6660     8.6380     0.0940     2.3610     0.2700
 3051.0000   -14.2360     4.4360     6.6450     5.9180    81.1390     8.7150     0.0800     2.3540     0.2640
 3051.5000   -13.7230     4.4220     6.6450     6.0620    82.6310     8.7670     0.0680     2.3520     0.2580
 3052.0000   -13.2060     4.3950     6.6450     5.7130    85.7610     8.8960     0.0520     2.3580     0.2520
 3052.5000   -12.8020     5.4960     6.7680     5.6840    88.7670     9.0280     0.0360     2.3630     0.2470
 3053.0000   -12.2290     7.0880     7.0200     6.3840    91.7420     9.2110     0.0190     2.3940     0.2410
 3053.5000   -11.6710     8.6790     7.2720     6.9780    94.6600     9.3700     0.0200     2.4460     0.2360
 3054.0000   -11.1740    10.1370     7.4190     7.4360    93.1690     9.3940     0.0230     2.4840     0.2230
 3054.5000   -11.4710    10.2980     7.6140     7.9730    89.1370     9.4100     0.0270     2.4900     0.2340
 3055.0000   -11.8210    11.4900     7.8350     8.4360    90.8240     9.4210     0.0280     2.4960     0.2260
 3055.5000   -12.1700    13.7150     8.0550     8.7570    94.0290     9.4350     0.0240     2.5070     0.2100
 3056.0000   -12.5180    15.3240     8.2760     9.0530    97.1970     9.4510     0.0200     2.5080     0.2000
 3056.5000   -12.8660    13.8070     8.4360     9.5060    98.4850     9.4310     0.0200     2.5060     0.2060
 3057.0000   -13.2140    12.5270     8.4360     9.2770    98.0560     9.4350     0.0340     2.5040     0.2170
 3057.5000   -13.5620    11.3680     7.9350     8.7570   102.9700     9.4390     0.0260     2.4710     0.2290
 3058.0000   -13.9090    10.3440     7.4490     8.2370   107.9480     9.4440     0.0090     2.4590     0.2290
 3058.5000   -14.2580     9.5940     6.9630     7.7160   109.1970     9.4480     0.0040     2.4710     0.2190
 3059.0000   -14.6200    10.1290     6.4760     7.0210   110.8910     9.4460     0.0060     2.4840     0.2120
 3059.5000   -14.8220    10.6130     6.1170     7.1980   114.5130     9.4310     0.0090     2.4980     0.2040
 3060.0000   -15.0450    11.8780     6.5550     7.4650   115.5770     9.4160     0.0130     2.5170     0.1970
 3060.5000   -15.2630    13.0680     6.9020     7.7320   112.7690     9.3930     0.0130     2.5450     0.1900
 3061.0000   -15.4820    13.4750     7.0210     7.9840   117.9580     9.4020     0.0100     2.5350     0.1900
 3061.5000   -15.7020    10.9150     7.0210     7.8390   123.7430     9.4190     0.0080     2.5160     0.1990
 3062.0000   -15.9210     8.8780     6.6150     7.2230   128.5880     9.4370     0.0190     2.5160     0.2130
 3062.5000   -16.1390     7.2210     5.5140     6.5010   129.9560     9.4490     0.0320     2.5330     0.2270
 3063.0000   -16.3090     6.8300     4.9080     5.7790   129.5840     9.4410     0.0460     2.5220     0.2310
