~VERSION INFORMATION
 VERS.                2.0:   CWLS LOG ASCII STANDARD - VERSION 2.0
 WRAP.                 NO:   ONE LINE PER DEPTH STEP
~WELL INFORMATION
#MNEM.UNIT      DATA TYPE    INFORMATION
#----------   ------------   ------------------------------
 STRT.F          180.0000:   START DEPTH
 STOP.F         3280.0000:   STOP DEPTH
 STEP.F            0.5000:   STEP LENGTH
 NULL.          -999.2500:   NO VALUE
 COMP.    FENIX & SCISSON:   COMPANY
 WELL.  FENIX "AX" #85-10:   WELL
 FLD .              NPR 3:   FIELD
 LOC .      S10 T38N R78W:   LOCATION
 CNTY.            NATRONA:   COUNTY
 STAT.            WYOMING:   STATE
 CTRY. UNITED STATES OF AMERICA:   COUNTRY
 SRVC.       SCHLUMBERGER:   SERVICE COMPANY
 DATE.        03-JUL-1977:   LOGDATE
 API .     49025104000000:   API NUMBER
~CURVE INFORMATION
#MNEM.UNIT       API CODE    CURVE DESCRIPTION
#----------   ------------   ------------------------------
 DEPT.F                  :   
 SPR .MV     11 010 01 00:   SPONTANEOUS POTENTIAL FROM RES.
 MSFL.OHMM   11 270 04 00:   MICRO SPHERICALLY FOCUSED
 LLD .OHMM   11 220 10 00:   LATEROLOG LOG DEEP
 LLS .OHMM   11 220 09 00:   LATEROLOG LOG SHALLOW
 GRD .GAPI   45 310 01 00:   GAMMA RAY FROM DENSITY LOG
 CALD.IN     45 280 60 00:   CALIPER FROM DENSITY LOG
 CORR.G/C3   45 356 01 00:   DENSITY CORRECTION
 RHOB.G/C3   45 350 01 00:   BULK DENSITY
 NPHI.DEC    42 890 03 00:   NEUTRON POROSITY SANDSTONE
~PARAMETER INFORMATION
#MNEM.UNIT          VALUE    DESCRIPTION
#----------   ------------   ------------------------------
 EKB .F         5210.0000:   Kelly bushing
 EGL .F         5200.0000:   Ground level
 EDF .F            0.0000:   Drilling floor
 TD  .F         3265.0000:   Total depth
 DATE.        03-JUL-1977:   Date logged
 CLNT.            A2DTECH:   Client Code
 SL  . 2000' FSL & 100' FEL:   Surface Location
 PD  .                 GL:   Permanent Datum
 EPD .F              5200:   Elevation Permanent Datum
 LMF .                 KB:   Log Measured From
 DMF .                 KB:   Drilling Measured From
 DAPD.F                10:   Feet Above Permanent Datum
 DD  .F              3261:   Depth driller
 DL  .F              3265:   Depth logger
 BLI .F              2364:   Bottom log interval
 TLI .F               220:   Top log interval
 CS1 .IN            8.625:   Casing size
 CBD1.      8.625" @ 220':   Casing driller 1
 CBL1.F               220:   Casing logger 1
 BS1 .IN            7.875:   Bit size
 BSD1.F              3261:   Depth drilled with bit1
 DFT .                KCL:   Type fluid in hole
 DFD .                9.7:   Density
 DFV .                 38:   Viscosity
 DFPH.                7.5:   pH
 DFL .                 40:   Fluid loss
 MSS .                PIT:   Source of sample
 RMS .OHMM          0.167:   Rm
 MST .F                78:   Rm Meas. temp.
 RMF .OHMM          0.167:   Rmf
 MFST.F                78:   Rmf Meas. temp.
 MFSS.               MEAS:   Source Rmf.
 RMB .OHMM          0.103:   Rm. at BHT
 BHT .F               126:   BHT.
 TLAB.HRS            0930:   Time logger at bottom
 MRT .F               126:   Maximum recorded temp.
 LUN .               5642:   Logging unit number
 LUL .               CSPR:   Logging unit location
 ENGI.             MARTIN:   Recorded By
 WITN.         PETTINGILL:   Witnessed by
 ORIG.           5" PRINT:   Origin of data
 UWI .     49025104000000:   Unique Well ID
 DICO. A2D TECHNOLOGIES, INC.:   Digitizing Company
~OTHER INFORMATION
~A   DEPT      SPR       MSFL        LLD        LLS         GRD      CALD        CORR        RHOB       NPHI 
# ...
  216.5000  -999.2500  -999.2500  -999.2500  -999.2500    87.5090  -999.2500    -0.2130     2.3500     0.4550
  217.0000  -999.2500  -999.2500  -999.2500  -999.2500    89.8150  -999.2500    -0.1930     2.3340     0.4610
  217.5000  -999.2500  -999.2500  -999.2500  -999.2500    92.1940  -999.2500    -0.1780     2.3270     0.4590
  218.0000  -999.2500  -999.2500  -999.2500  -999.2500    93.0520  -999.2500    -0.1660     2.3320     0.4540
  218.5000  -999.2500  -999.2500  -999.2500  -999.2500    93.4070  -999.2500    -0.1550     2.3410     0.4520
  219.0000  -999.2500  -999.2500  -999.2500     0.3320    93.9560  -999.2500    -0.1510     2.3510     0.4580
  219.5000  -999.2500  -999.2500  -999.2500     0.3090    95.3210     8.6150    -0.1620     2.3470     0.4640
  220.0000  -999.2500  -999.2500     0.9150     0.5830    98.1850     8.8130    -0.1130     2.3330     0.4700
  220.5000  -999.2500  -999.2500     0.4940     0.5820   100.9900     9.1720    -0.0500     2.3850     0.4520
  221.0000  -999.2500  -999.2500     0.7270     0.7790   103.8090     9.4570     0.0990     2.5800     0.4340
  221.5000  -999.2500     5.1600     0.4690     0.9360   105.0160     9.8850     0.1870     2.5130     0.4220
  222.0000  -999.2500     5.7200     0.2530     1.7800   105.4220    10.2990     0.1280     2.4260     0.4070
  222.5000  -999.2500     6.3160     4.1200     4.0130   105.8160    10.5610     0.1390     2.4460     0.3950
  223.0000  -999.2500     6.9120     5.4790     5.6500   106.2300    10.6580     0.1520     2.4640     0.3930
  223.5000  -999.2500     7.6280     4.9690     6.4260   105.2230    10.7230     0.1610     2.4790     0.3940
  224.0000  -999.2500     8.3780     4.5860     7.2020   103.4280    11.3660     0.1560     2.4860     0.4000
  224.5000  -999.2500     8.9380     4.4310     7.9790   101.6110    12.0500     0.1190     2.5000     0.3970
  225.0000  -999.2500     9.6130     4.3150     8.2070    99.9260    12.3510     0.0820     2.4610     0.3870
  225.5000  -999.2500     9.9530     4.4570     8.2070    98.8700    12.4680     0.0470     2.4430     0.3830
  226.0000  -999.2500    10.1580     4.6020     8.2070    98.9190    12.4780     0.0450     2.4660     0.3870
  226.5000  -999.2500    10.3460     4.5690     8.2070    99.5830    12.4680     0.0440     2.4600     0.3940
  227.0000  -999.2500    10.5350     4.5180     8.2070    99.4290    12.4480     0.0530     2.4510     0.4030
  227.5000  -999.2500    10.7110     4.6470     8.4390    99.2310    12.4270     0.0700     2.4490     0.4140
  228.0000  -999.2500    10.7570     4.7960     8.7750    99.9930    12.3170     0.0900     2.4480     0.3950
  228.5000  -999.2500    10.9110     4.9450     9.1110   101.1760    11.7210     0.0560     2.4420     0.3720
  229.0000  -999.2500    11.3190     5.0450     9.4470   101.4640    11.4600     0.0100     2.4680     0.3490
  229.5000  -999.2500    11.7280     5.1500     9.7830    99.8800    11.4640     0.0130     2.4930     0.3270
  230.0000  -999.2500    12.1370     5.2550    10.0440    98.3520    11.5030     0.0140     2.4900     0.3200
  230.5000  -999.2500    12.4110     5.3790    10.2310    98.3170    11.5450     0.0190     2.4980     0.3370
  231.0000  -999.2500    12.6370     5.2350    10.1650   100.7570    11.5870     0.0230     2.5090     0.3510
  231.5000  -999.2500    12.4160     5.0790    10.0570    98.8130    11.6210     0.0290     2.5120     0.3590
  232.0000  -999.2500    12.1410     4.9080     9.9500    96.1270    11.6680     0.0330     2.5160     0.3560
  232.5000  -999.2500    11.8660     5.0260     9.8620    96.8410    11.7140     0.0350     2.4960     0.3490
  233.0000  -999.2500    11.5280     5.4270     9.9530    98.4560    11.7550     0.0360     2.4900     0.3420
  233.5000  -999.2500    11.6280     5.8430     9.9530   100.0590    11.7740     0.0370     2.4850     0.3370
  234.0000  -999.2500    11.7360     6.3900     9.9530   101.2050    11.7950     0.0380     2.4910     0.3370
  234.5000  -999.2500    11.6730     7.0370     9.9530    99.1440    11.8150     0.0480     2.5010     0.3360
  235.0000  -999.2500    11.6220     7.6840     9.8390    96.8440    11.8360     0.0510     2.5130     0.3330
  235.5000  -999.2500    11.5720     8.7680     9.5090    94.9140    11.8550     0.0390     2.5080     0.3320
  236.0000  -999.2500    11.5280     9.1630     9.4190    93.3950    11.8840     0.0270     2.4980     0.3310
  236.5000  -999.2500    11.3070     8.8940     9.4840    91.8740    11.9110     0.0280     2.4960     0.3330
  237.0000  -999.2500    10.9100     8.6720     9.5420    90.4940    11.9390     0.0530     2.5030     0.3260
  237.5000  -999.2500    10.9330     8.7520     9.5940    90.8200    11.9670     0.0700     2.4990     0.3190
  238.0000  -999.2500    10.9780     9.2480     9.5630    91.1810    11.9910     0.0500     2.4950     0.3230
  238.5000  -999.2500    11.0110     9.0290     9.5200    91.5350    12.0380     0.0540     2.4990     0.3270
  239.0000  -999.2500    10.2400     8.7520     9.4190    91.8890    12.0740     0.0610     2.4940     0.3310
  239.5000  -999.2500     9.6820     8.9880     9.4190    92.2450    12.1120     0.0500     2.4770     0.3290
  240.0000  -999.2500    10.4830     9.4880     9.5680    93.1340    12.2220     0.0240     2.4550     0.3260
  240.5000  -999.2500    11.5280     9.8620     9.8890    94.7870    12.4360     0.0350     2.4230     0.3340
  241.0000  -999.2500    10.9350     9.2480    10.3250    96.4380    12.6470     0.0480     2.3740     0.3420
  241.5000  -999.2500     9.6110     9.2830     9.7560    98.1270    12.8270     0.0860     2.3120     0.3640
  242.0000  -999.2500     8.2870     9.3330     8.9290    97.5360    13.0440     0.1300     2.2190     0.3880
  242.5000  -999.2500     6.4640     8.8140     8.1020    96.4790    13.4000     0.1790     2.0590     0.4130
  243.0000  -999.2500     5.7470     7.7900     7.2750    96.0500    13.1990     0.1840     2.0330     0.4300
  243.5000  -999.2500     4.5710     6.7650     6.4480    98.0470    12.8480     0.1230     2.2230     0.4360
  244.0000  -999.2500     2.7050     5.7370     5.9510   102.3090    13.7290     0.0730     2.3870     0.3950
  244.5000  -999.2500     1.1820     6.5310     7.1460   106.6130    14.8190     0.1070     2.5090     0.3600
  245.0000  -999.2500     2.8970     7.5310     8.1430   108.6650    12.9400     0.0750     2.5470     0.3510
  245.5000  -999.2500     7.3750     8.5300     9.1400   107.7990    12.1740     0.0200     2.5140     0.3430
  246.0000  -999.2500    11.1120     9.1630     9.7720   107.4660    12.0940     0.0140     2.5040     0.3390
  246.5000  -999.2500    11.0510     9.5940     9.7950   107.2690    12.1200     0.0340     2.5250     0.3410
  247.0000  -999.2500    10.9520     9.3390     9.9530   106.9210    12.1470     0.0440     2.5380     0.3420
  247.5000  -999.2500    10.5580     8.2160     9.9530   106.0840    12.1730     0.0480     2.5280     0.3530
  248.0000  -999.2500    10.1370     7.6960     9.6600   104.9770    12.2000     0.0180     2.5140     0.3500
  248.5000  -999.2500    10.3450     7.6960     9.2640   102.9600    12.2130     0.0130     2.5040     0.3440
  249.0000  -999.2500    10.6290     7.7480     8.8670   101.8020    12.2130     0.0220     2.5040     0.3390
  249.5000  -999.2500    10.9140     7.9110     8.5140   102.7380    12.2130     0.0250     2.5120     0.3410
  250.0000  -999.2500    11.1120     8.0740     8.5930   103.6130    12.2130     0.0390     2.5260     0.3430
  250.5000  -999.2500    11.0150     8.2380     8.7090   104.2810    12.2160     0.0510     2.5400     0.3310
  251.0000  -999.2500    10.9070     8.4010     8.8150   103.5840    12.2280     0.0540     2.5440     0.3370
  251.5000  -999.2500    10.8100     8.5140     8.9210   101.9990    12.2390     0.0560     2.5350     0.3440
  252.0000  -999.2500    10.6840     8.1130     9.0270   100.4670    12.2500     0.0410     2.5180     0.3500
  252.5000  -999.2500    10.4270     7.7500     9.0790   101.0890    12.2620     0.0310     2.5090     0.3590
