~VERSION INFORMATION
 VERS.                2.0:   CWLS LOG ASCII STANDARD - VERSION 2.0
 WRAP.                 NO:   ONE LINE PER DEPTH STEP
~WELL INFORMATION
#MNEM.UNIT      DATA TYPE    INFORMATION
#----------   ------------   ------------------------------
 STRT.F          180.0000:   START DEPTH
 STOP.F         3280.0000:   STOP DEPTH
 STEP.F            0.5000:   STEP LENGTH
 NULL.          -999.2500:   NO VALUE
 COMP.    FENIX & SCISSON:   COMPANY
 WELL.  FENIX "AX" #85-10:   WELL
 FLD .              NPR 3:   FIELD
 LOC .      S10 T38N R78W:   LOCATION
 CNTY.            NATRONA:   COUNTY
 STAT.            WYOMING:   STATE
 CTRY. UNITED STATES OF AMERICA:   COUNTRY
 SRVC.       SCHLUMBERGER:   SERVICE COMPANY
 DATE.        03-JUL-1977:   LOGDATE
 API .     49025104000000:   API NUMBER
~CURVE INFORMATION
#MNEM.UNIT       API CODE    CURVE DESCRIPTION
#----------   ------------   ------------------------------
 DEPT.F                  :   
 SPR .MV     11 010 01 00:   SPONTANEOUS POTENTIAL FROM RES.
 MSFL.OHMM   11 270 04 00:   MICRO SPHERICALLY FOCUSED
 LLD .OHMM   11 220 10 00:   LATEROLOG LOG DEEP
 LLS .OHMM   11 220 09 00:   LATEROLOG LOG SHALLOW
 GRD .GAPI   45 310 01 00:   GAMMA RAY FROM DENSITY LOG
 CALD.IN     45 280 60 00:   CALIPER FROM DENSITY LOG
 CORR.G/C3   45 356 01 00:   DENSITY CORRECTION
 RHOB.G/C3   45 350 01 00:   BULK DENSITY
 NPHI.DEC    42 890 03 00:   NEUTRON POROSITY SANDSTONE
~PARAMETER INFORMATION
#MNEM.UNIT          VALUE    DESCRIPTION
#----------   ------------   ------------------------------
 EKB .F         5210.0000:   Kelly bushing
 EGL .F         5200.0000:   Ground level
 EDF .F            0.0000:   Drilling floor
 TD  .F         3265.0000:   Total depth
 DATE.        03-JUL-1977:   Date logged
 CLNT.            A2DTECH:   Client Code
 SL  . 2000' FSL & 100' FEL:   Surface Location
 PD  .                 GL:   Permanent Datum
 EPD .F              5200:   Elevation Permanent Datum
 LMF .                 KB:   Log Measured From
 DMF .                 KB:   Drilling Measured From
 DAPD.F                10:   Feet Above Permanent Datum
 DD  .F              3261:   Depth driller
 DL  .F              3265:   Depth logger
 BLI .F              2364:   Bottom log interval
 TLI .F               220:   Top log interval
 CS1 .IN            8.625:   Casing size
 CBD1.      8.625" @ 220':   Casing driller 1
 CBL1.F               220:   Casing logger 1
 BS1 .IN            7.875:   Bit size
 BSD1.F              3261:   Depth drilled with bit1
 DFT .                KCL:   Type fluid in hole
 DFD .                9.7:   Density
 DFV .                 38:   Viscosity
 DFPH.                7.5:   pH
 DFL .                 40:   Fluid loss
 MSS .                PIT:   Source of sample
 RMS .OHMM          0.167:   Rm
 MST .F                78:   Rm Meas. temp.
 RMF .OHMM          0.167:   Rmf
 MFST.F                78:   Rmf Meas. temp.
 MFSS.               MEAS:   Source Rmf.
 RMB .OHMM          0.103:   Rm. at BHT
 BHT .F               126:   BHT.
 TLAB.HRS            0930:   Time logger at bottom
 MRT .F               126:   Maximum recorded temp.
 LUN .               5642:   Logging unit number
 LUL .               CSPR:   Logging unit location
 ENGI.             MARTIN:   Recorded By
 WITN.         PETTINGILL:   Witnessed by
 ORIG.           5" PRINT:   Origin of data
 UWI .     49025104000000:   Unique Well ID
 DICO. A2D TECHNOLOGIES, INC.:   Digitizing Company
~OTHER INFORMATION
~A   DEPT      SPR       MSFL        LLD        LLS         GRD      CALD        CORR        RHOB       NPHI 
# ...
 1238.5000   -31.1620    10.5490     7.2170     8.6180   109.8910    11.6460     0.0090     2.5300     0.2930
 1239.0000   -31.2800    10.8100     7.4060     8.7050   110.6470    11.6540     0.0030     2.5200     0.2810
 1239.5000   -31.3230    10.7680     7.5620     8.7910   111.4000    11.6660     0.0120     2.5310     0.2730
 1240.0000   -31.3200    10.7110     7.7180     8.8780   111.5280    11.6790     0.0140     2.5390     0.2820
 1240.5000   -31.2980    10.9300     7.8750     8.9930   111.5400    11.6910     0.0050     2.5440     0.2900
 1241.0000   -31.2770    11.4470     8.0310     8.9770   111.8040    11.7040     0.0110     2.5460     0.2880
 1241.5000   -31.2560    11.7420     8.0580     8.9470   112.0790    11.7160     0.0170     2.5500     0.2820
 1242.0000   -31.2350    11.0080     7.9540     8.9160   112.2800    11.7180     0.0220     2.5450     0.2750
 1242.5000   -31.2140    10.3250     7.8850     8.8850   111.0930    11.7210     0.0120     2.5470     0.2720
 1243.0000   -31.1930    10.6130     7.8160     8.8550   109.8760    11.7230     0.0050     2.5410     0.2760
 1243.5000   -31.1720    10.5520     7.7470     8.8240   108.8080    11.7250     0.0130     2.5350     0.2810
 1244.0000   -31.1500    10.4200     7.6780     8.7930   109.8750    11.7280     0.0180     2.5420     0.2840
 1244.5000   -31.1290    10.5980     7.6090     8.7630   110.9750    11.7300     0.0030     2.5240     0.2830
 1245.0000   -31.3030    10.8100     7.5390     8.7520   111.5620    11.7320     0.0040     2.5170     0.2810
 1245.5000   -31.5080    10.5760     7.4700     8.6990   112.0830    11.7350     0.0110     2.5340     0.2810
 1246.0000   -31.7150    10.3250     7.4010     8.6370   112.6850    11.7420     0.0240     2.5500     0.2810
 1246.5000   -31.9210    10.4170     7.3440     8.5760   113.1450    11.7710     0.0330     2.5650     0.2880
 1247.0000   -32.1260    10.5160     7.3200     8.5140   113.0590    11.7980     0.0340     2.5710     0.2940
 1247.5000   -32.3320    10.4800     7.2960     8.4530   111.5250    11.8270     0.0350     2.5590     0.3000
 1248.0000   -32.5380    10.4260     7.2840     8.3910   110.0150    11.8350     0.0340     2.5620     0.3000
 1248.5000   -32.7440    10.4200     7.2840     8.3590   108.5150    11.8400     0.0280     2.5530     0.3000
 1249.0000   -32.9500    10.6220     7.2840     8.6910   107.0250    11.8440     0.0150     2.5550     0.2990
 1249.5000   -33.1550    10.8070     7.2840     8.9970   105.5330    11.8480     0.0080     2.5320     0.2900
 1250.0000   -33.3040    11.0110     7.2610     9.3330   105.1650    11.8520     0.0010     2.5190     0.2820
 1250.5000   -33.2990    10.8890     7.2350     9.2160   105.9400    11.8550    -0.0020     2.5100     0.2790
 1251.0000   -33.2670    10.6450     7.2170     9.1090   106.7110    11.8630     0.0070     2.5280     0.2850
 1251.5000   -33.2360    10.4200     7.2170     9.0020   105.7000    11.8720     0.0150     2.5360     0.2910
 1252.0000   -33.2050    10.6150     7.2450     8.8950   104.5400    11.8810     0.0090     2.5220     0.2960
 1252.5000   -33.1750    11.0200     7.3470     8.7880   103.9460    11.8900     0.0050     2.5390     0.2980
 1253.0000   -33.1440    11.3180     7.4480     8.7520   107.2410    11.9040     0.0160     2.5470     0.3000
 1253.5000   -33.1130    11.1150     7.5500     8.7520   110.6800    11.9210     0.0310     2.5410     0.3020
 1254.0000   -33.0830    11.0110     7.6510     8.7520   111.1910    11.9380     0.0360     2.5680     0.3040
 1254.5000   -33.0520    10.9410     7.7530     8.7520   109.1140    11.9560     0.0250     2.5370     0.3060
 1255.0000   -33.0210    10.8740     7.8540     8.7520   106.6550    11.9740     0.0330     2.5520     0.3080
 1255.5000   -32.9900    10.8100     7.9110     8.7890   105.9610    11.9830     0.0400     2.5670     0.3090
 1256.0000   -32.9610    11.1610     7.8870     8.8480   106.0200    11.9910     0.0350     2.5650     0.2990
 1256.5000   -32.9340    11.9590     7.8590     8.9060   106.1260    12.0000     0.0270     2.5500     0.2970
 1257.0000   -32.8650    11.5750     7.8300     8.9640   106.2370    12.0090     0.0080     2.5330     0.2910
 1257.5000   -32.8230    10.7110     7.8010     9.0230   106.3450    12.0180     0.0070     2.5270     0.2850
 1258.0000   -32.9870    10.8710     7.7730     9.0810   107.2300    12.0270     0.0090     2.5350     0.2800
 1258.5000   -33.1600    11.2650     7.7670     9.1400   108.7410    12.0360     0.0050     2.5190     0.2750
 1259.0000   -33.3340    11.7420     7.8300     9.1630   107.5240    12.0450     0.0080     2.5330     0.2750
 1259.5000   -33.5070    11.6390     7.8920     9.1630   105.9050    12.0530     0.0140     2.5390     0.2750
 1260.0000   -33.6800    11.4220     7.9550     9.1630   106.2720    12.0710     0.0170     2.5340     0.2750
 1260.5000   -33.8560    11.8330     8.0170     9.1630   107.7510    12.0930     0.0170     2.5400     0.2730
 1261.0000   -33.8310    12.1810     8.0800     9.1630   109.2690    12.1150     0.0170     2.5470     0.2710
 1261.5000   -33.7280    11.7460     8.1320     9.1630   110.7900    12.1370     0.0170     2.5450     0.2690
 1262.0000   -33.6230    11.1780     8.0680     9.1630   112.2980    12.1600     0.0170     2.5310     0.2720
 1262.5000   -33.5170    10.8100     7.9830     9.1630   113.5980    12.1750     0.0160     2.5140     0.2790
 1263.0000   -33.4120    11.1760     7.9110     9.1640   112.3140    12.1830     0.0160     2.5220     0.2860
 1263.5000   -33.3070    11.5620     7.9920     9.1640   110.8270    12.1920     0.0160     2.5390     0.2830
 1264.0000   -33.2020    11.7420     8.0780     9.1290   109.3250    12.2010     0.0240     2.5400     0.2770
 1264.5000   -33.0960    11.5280     8.1630     9.0680   107.8120    12.2090     0.0280     2.5340     0.2820
 1265.0000   -32.9920    11.8790     8.2490     9.0060   107.7570    12.2140     0.0250     2.5500     0.2880
 1265.5000   -32.8870    12.4070     8.3590     8.9440   107.7630    12.2210     0.0330     2.5540     0.2940
 1266.0000   -32.7720    11.7000     8.2510     8.8820   106.8440    12.2280     0.0460     2.5670     0.2860
 1266.5000   -32.5450    10.7110     8.0990     8.8200   106.0260    12.2350     0.0530     2.5600     0.2790
 1267.0000   -32.5120    10.6130     7.9470     8.7580   105.8900    12.2420     0.0350     2.5470     0.2750
 1267.5000   -32.6770    11.3280     7.8390     8.7520   106.6660    12.2480     0.0200     2.5400     0.2770
 1268.0000   -32.8350    11.8230     7.8660     8.7520   107.4200    12.2500     0.0170     2.5310     0.2840
 1268.5000   -32.9900    11.6730     7.8960     8.8330   108.1710    12.2730     0.0220     2.5250     0.2780
 1269.0000   -33.1450    11.5280     7.9260     8.9020   108.7570    12.2760     0.0280     2.5400     0.2720
 1269.5000   -33.3000    11.9010     7.9560     9.0480   108.0590    12.2800     0.0220     2.5420     0.2660
 1270.0000   -33.4550    11.7510     7.9840     9.1940   106.5370    12.2830     0.0160     2.5370     0.2640
 1270.5000   -33.6100    11.6340     7.9840     9.3400   105.0240    12.2870     0.0260     2.5290     0.2630
 1271.0000   -33.6910    12.5680     8.1350     9.4870   103.5110    12.2900     0.0160     2.5090     0.2650
 1271.5000   -33.5730    13.4750     8.2780     9.6330   102.0050    12.2920     0.0140     2.5190     0.2740
 1272.0000   -33.4540    12.9800     8.4210     9.7790   101.2080    12.2950     0.0160     2.5280     0.2850
 1272.5000   -33.3360    12.2250     8.5640     9.9250   102.0430    12.3000     0.0260     2.5490     0.2960
 1273.0000   -33.2190    12.3990     8.7070    10.0710   103.8070    12.3040     0.0150     2.5280     0.2990
 1273.5000   -33.1020    12.7470     8.8490    10.2170   105.5900    12.3090     0.0200     2.5430     0.2980
 1274.0000   -32.9850    13.0950     8.9920    10.3630   107.0040    12.3190     0.0300     2.5680     0.2890
 1274.5000   -32.8700    13.2300     9.1630    10.4200   103.6740    12.3460     0.0300     2.5490     0.2720
