~VERSION INFORMATION
 VERS.                2.0:   CWLS LOG ASCII STANDARD - VERSION 2.0
 WRAP.                 NO:   ONE LINE PER DEPTH STEP
~WELL INFORMATION
#MNEM.UNIT      DATA TYPE    INFORMATION
#----------   ------------   ------------------------------
 STRT.F          180.0000:   START DEPTH
 STOP.F         3280.0000:   STOP DEPTH
 STEP.F            0.5000:   STEP LENGTH
 NULL.          -999.2500:   NO VALUE
 COMP.    FENIX & SCISSON:   COMPANY
 WELL.  FENIX "AX" #85-10:   WELL
 FLD .              NPR 3:   FIELD
 LOC .      S10 T38N R78W:   LOCATION
 CNTY.            NATRONA:   COUNTY
 STAT.            WYOMING:   STATE
 CTRY. UNITED STATES OF AMERICA:   COUNTRY
 SRVC.       SCHLUMBERGER:   SERVICE COMPANY
 DATE.        03-JUL-1977:   LOGDATE
 API .     49025104000000:   API NUMBER
~CURVE INFORMATION
#MNEM.UNIT       API CODE    CURVE DESCRIPTION
#----------   ------------   ------------------------------
 DEPT.F                  :   
 SPR .MV     11 010 01 00:   SPONTANEOUS POTENTIAL FROM RES.
 MSFL.OHMM   11 270 04 00:   MICRO SPHERICALLY FOCUSED
 LLD .OHMM   11 220 10 00:   LATEROLOG LOG DEEP
 LLS .OHMM   11 220 09 00:   LATEROLOG LOG SHALLOW
 GRD .GAPI   45 310 01 00:   GAMMA RAY FROM DENSITY LOG
 CALD.IN     45 280 60 00:   CALIPER FROM DENSITY LOG
 CORR.G/C3   45 356 01 00:   DENSITY CORRECTION
 RHOB.G/C3   45 350 01 00:   BULK DENSITY
 NPHI.DEC    42 890 03 00:   NEUTRON POROSITY SANDSTONE
~PARAMETER INFORMATION
#MNEM.UNIT          VALUE    DESCRIPTION
#----------   ------------   ------------------------------
 EKB .F         5210.0000:   Kelly bushing
 EGL .F         5200.0000:   Ground level
 EDF .F            0.0000:   Drilling floor
 TD  .F         3265.0000:   Total depth
 DATE.        03-JUL-1977:   Date logged
 CLNT.            A2DTECH:   Client Code
 SL  . 2000' FSL & 100' FEL:   Surface Location
 PD  .                 GL:   Permanent Datum
 EPD .F              5200:   Elevation Permanent Datum
 LMF .                 KB:   Log Measured From
 DMF .                 KB:   Drilling Measured From
 DAPD.F                10:   Feet Above Permanent Datum
 DD  .F              3261:   Depth driller
 DL  .F              3265:   Depth logger
 BLI .F              2364:   Bottom log interval
 TLI .F               220:   Top log interval
 CS1 .IN            8.625:   Casing size
 CBD1.      8.625" @ 220':   Casing driller 1
 CBL1.F               220:   Casing logger 1
 BS1 .IN            7.875:   Bit size
 BSD1.F              3261:   Depth drilled with bit1
 DFT .                KCL:   Type fluid in hole
 DFD .                9.7:   Density
 DFV .                 38:   Viscosity
 DFPH.                7.5:   pH
 DFL .                 40:   Fluid loss
 MSS .                PIT:   Source of sample
 RMS .OHMM          0.167:   Rm
 MST .F                78:   Rm Meas. temp.
 RMF .OHMM          0.167:   Rmf
 MFST.F                78:   Rmf Meas. temp.
 MFSS.               MEAS:   Source Rmf.
 RMB .OHMM          0.103:   Rm. at BHT
 BHT .F               126:   BHT.
 TLAB.HRS            0930:   Time logger at bottom
 MRT .F               126:   Maximum recorded temp.
 LUN .               5642:   Logging unit number
 LUL .               CSPR:   Logging unit location
 ENGI.             MARTIN:   Recorded By
 WITN.         PETTINGILL:   Witnessed by
 ORIG.           5" PRINT:   Origin of data
 UWI .     49025104000000:   Unique Well ID
 DICO. A2D TECHNOLOGIES, INC.:   Digitizing Company
~OTHER INFORMATION
~A   DEPT      SPR       MSFL        LLD        LLS         GRD      CALD        CORR        RHOB       NPHI 
# ...
 3246.0000   -46.5990     6.5230     4.5390     6.0060  -999.2500     8.2160     0.0140     2.5390     0.2540
 3246.5000   -46.6200     6.4640     4.8890     5.2820  -999.2500     8.2010     0.0140     2.5400     0.2630
 3247.0000   -46.6400     8.0130     5.3550     5.4800  -999.2500     8.1710     0.0130     2.5410     0.2730
 3247.5000   -46.6600    10.1820     5.8210     5.8870  -999.2500     8.1390     0.0040     2.5410     0.2820
 3248.0000   -46.6800    10.7110     6.5240     6.2940  -999.2500     8.1070    -0.0060     2.5510     0.2910
 3248.5000   -46.7000     9.1070     6.4640     6.7020  -999.2500     8.0780     0.0070     2.5660     0.3000
 3249.0000   -46.7200     7.8640     6.1210     7.1090  -999.2500     8.0770     0.0130     2.5580     0.3220
 3249.5000   -46.7410     7.4870     5.8040     7.0370  -999.2500     8.0780     0.0080     2.5510     0.3650
 3250.0000   -46.7610     7.7960     5.4870     6.9490  -999.2500     8.0780     0.0150     2.5440     0.4040
 3250.5000   -46.7810     8.0770     5.3300     6.8110  -999.2500     8.0780     0.0180     2.5330     0.4040
 3251.0000   -46.8010     8.3580     5.5000     6.5240  -999.2500     8.0780     0.0010     2.5070     0.4040
 3251.5000   -46.8210     8.4360     5.6840     6.6670  -999.2500     8.0750    -0.0010     2.4950     0.4040
 3252.0000   -46.8410     7.6960     5.6420     6.9570  -999.2500     8.0690     0.0220     2.5140     0.4050
 3252.5000   -46.8620     8.1930     5.5810     6.7820  -999.2500     8.0640     0.0420     2.5500     0.4050
 3253.0000   -46.8820     8.8620     6.0060     6.5840  -999.2500     8.0580     0.0510     2.5800     0.4050
 3253.5000   -46.9020     9.4190     5.6840     6.7340  -999.2500     8.0580     0.0430     2.5990     0.4050
 3254.0000   -46.9220     9.3330     5.6100     6.8300  -999.2500     8.0570     0.0250     2.5950     0.4060
 3254.5000   -46.9420     8.8920     5.5300     6.7910  -999.2500     8.0500     0.0060     2.5630     0.4060
 3255.0000   -46.9630     8.3290     5.5810     6.7580  -999.2500     8.0440     0.0010     2.5440     0.4060
 3255.5000   -46.9830     7.7660     5.4790     6.7250  -999.2500     8.0380     0.0100     2.5380     0.4060
 3256.0000   -47.0030     7.2030     5.5300     6.6690  -999.2500     8.0320     0.0240     2.5630     0.4060
 3256.5000   -47.0230     6.7680     5.5930     6.5000  -999.2500     8.0250     0.0370     2.5470     0.4060
 3257.0000   -47.0430     6.8430     5.6320     6.4050  -999.2500     8.0190     0.0310     2.5450     0.4060
 3257.5000   -47.0630     7.1610     5.4290     6.4050  -999.2500     8.0130     0.0300     2.5410     0.4060
 3258.0000   -47.0840     7.4800     5.4880     6.4050  -999.2500     8.0070     0.0280     2.5340     0.4060
 3258.5000   -47.1040     7.7980     5.6160     6.4050  -999.2500     8.0000     0.0480     2.5480     0.4060
 3259.0000   -47.1240     7.8390     5.5810     6.4050  -999.2500     8.0020     0.0430     2.5420     0.4060
 3259.5000   -47.1340     7.0710     5.2630     6.2170  -999.2500     8.0090     0.0540     2.5500     0.4060
 3260.0000   -47.1340     6.6450     4.9980     6.0030  -999.2500     8.0160     0.0470     2.5390     0.4060
 3260.5000   -47.1340     6.6130     5.1520     5.8970  -999.2500     8.0210     0.0350     2.5100     0.4060
 3261.0000   -47.1340     6.5840     5.5300     5.9250  -999.2500     8.0270     0.0230     2.4910     0.4060
 3261.5000   -47.1340     6.5540     5.4900     5.9640  -999.2500     8.0340     0.0200     2.5050     0.4060
 3262.0000   -47.1340     6.5240     5.4140     6.0060  -999.2500     8.0400     0.0180     2.5050     0.4060
 3262.5000   -47.1340     6.5840     5.2510     6.0060  -999.2500     8.0470     0.0150     2.4840     0.4040
 3263.0000   -47.1340     6.4220     5.0160     5.9090  -999.2500     8.0530     0.0130     2.4490     0.4020
 3263.5000   -47.1360     6.3460     4.7740     5.6370  -999.2500     8.0590     0.0210     2.4230     0.4000
 3264.0000   -47.1350     6.3460     4.7310     5.3660  -999.2500     8.0150     0.0510  -999.2500     0.3510
 3264.5000   -47.0970  -999.2500  -999.2500     5.0910  -999.2500     7.9590     0.1430  -999.2500     0.2390
 3265.0000   -46.7280  -999.2500  -999.2500  -999.2500  -999.2500  -999.2500     0.2440  -999.2500     0.2420
 3265.5000   -46.7360  -999.2500  -999.2500  -999.2500  -999.2500  -999.2500     0.2340  -999.2500     0.2470
 3266.0000   -46.7400  -999.2500  -999.2500     5.0910  -999.2500  -999.2500  -999.2500  -999.2500     0.2510
 3266.5000   -46.7390  -999.2500  -999.2500     5.0910  -999.2500  -999.2500  -999.2500  -999.2500     0.2550
 3267.0000   -46.7390  -999.2500  -999.2500     5.0910  -999.2500  -999.2500  -999.2500  -999.2500     0.2600
 3267.5000   -46.7390  -999.2500  -999.2500     5.0910  -999.2500  -999.2500  -999.2500  -999.2500     0.2620
 3268.0000   -46.7390  -999.2500  -999.2500     5.0910  -999.2500  -999.2500  -999.2500  -999.2500     0.2510
 3268.5000   -46.7390  -999.2500  -999.2500     5.0910  -999.2500  -999.2500  -999.2500  -999.2500     0.2420
 3269.0000   -46.7390  -999.2500  -999.2500     5.0910  -999.2500  -999.2500  -999.2500  -999.2500     0.2380
 3269.5000   -46.7390  -999.2500  -999.2500     5.0910  -999.2500  -999.2500  -999.2500  -999.2500     0.2390
 3270.0000   -46.7390  -999.2500  -999.2500     5.0910  -999.2500  -999.2500  -999.2500  -999.2500     0.2420
 3270.5000  -999.2500  -999.2500  -999.2500  -999.2500  -999.2500  -999.2500  -999.2500  -999.2500     0.2440
 3271.0000  -999.2500  -999.2500  -999.2500  -999.2500  -999.2500  -999.2500  -999.2500  -999.2500     0.2460
 3271.5000  -999.2500  -999.2500  -999.2500  -999.2500  -999.2500  -999.2500  -999.2500  -999.2500     0.2490
 3272.0000  -999.2500  -999.2500  -999.2500  -999.2500  -999.2500  -999.2500  -999.2500  -999.2500     0.2490
 3272.5000  -999.2500  -999.2500  -999.2500  -999.2500  -999.2500  -999.2500  -999.2500  -999.2500     0.2470
 3273.0000  -999.2500  -999.2500  -999.2500  -999.2500  -999.2500  -999.2500  -999.2500  -999.2500     0.2440
 3273.5000  -999.2500  -999.2500  -999.2500  -999.2500  -999.2500  -999.2500  -999.2500  -999.2500     0.2420
 3274.0000  -999.2500  -999.2500  -999.2500  -999.2500  -999.2500  -999.2500  -999.2500  -999.2500     0.2460
 3274.5000  -999.2500  -999.2500  -999.2500  -999.2500  -999.2500  -999.2500  -999.2500  -999.2500     0.2550
 3275.0000  -999.2500  -999.2500  -999.2500  -999.2500  -999.2500  -999.2500  -999.2500  -999.2500     0.2590
 3275.5000  -999.2500  -999.2500  -999.2500  -999.2500  -999.2500  -999.2500  -999.2500  -999.2500     0.2580
 3276.0000  -999.2500  -999.2500  -999.2500  -999.2500  -999.2500  -999.2500  -999.2500  -999.2500     0.2540
 3276.5000  -999.2500  -999.2500  -999.2500  -999.2500  -999.2500  -999.2500  -999.2500  -999.2500     0.2500
 3277.0000  -999.2500  -999.2500  -999.2500  -999.2500  -999.2500  -999.2500  -999.2500  -999.2500     0.2470
 3277.5000  -999.2500  -999.2500  -999.2500  -999.2500  -999.2500  -999.2500  -999.2500  -999.2500     0.2470
 3278.0000  -999.2500  -999.2500  -999.2500  -999.2500  -999.2500  -999.2500  -999.2500  -999.2500     0.2470
 3278.5000  -999.2500  -999.2500  -999.2500  -999.2500  -999.2500  -999.2500  -999.2500  -999.2500     0.2470
 3279.0000  -999.2500  -999.2500  -999.2500  -999.2500  -999.2500  -999.2500  -999.2500  -999.2500     0.2470
 3279.5000  -999.2500  -999.2500  -999.2500  -999.2500  -999.2500  -999.2500  -999.2500  -999.2500     0.2470
 3280.0000  -999.2500  -999.2500  -999.2500  -999.2500  -999.2500  -999.2500  -999.2500  -999.2500     0.2470
