~VERSION INFORMATION
 VERS.                2.0:   CWLS LOG ASCII STANDARD - VERSION 2.0
 WRAP.                 NO:   ONE LINE PER DEPTH STEP
~WELL INFORMATION
#MNEM.UNIT      DATA TYPE    INFORMATION
#----------   ------------   ------------------------------
 STRT.F           80.0000:   START DEPTH
 STOP.F         1100.0000:   STOP DEPTH
 STEP.F            0.5000:   STEP LENGTH
 NULL.          -999.2500:   NO VALUE
 COMP.          U.S. NAVY:   COMPANY
 WELL.     NPR #3 #65-S-2:   WELL
 FLD .             TEAPOT:   FIELD
 LOC .       S2 T38N R78W:   LOCATION
 CNTY.            NATRONA:   COUNTY
 STAT.            WYOMING:   STATE
 CTRY. UNITED STATES OF AMERICA:   COUNTRY
 SRVC.       Schlumberger:   SERVICE COMPANY
 DATE.        17-JUL-1964:   LOGDATE
 API .       490250642600:   API NUMBER
~CURVE INFORMATION
#MNEM.UNIT       API CODE    CURVE DESCRIPTION
#----------   ------------   ------------------------------
 DEPT.F                  :   
 CALS.IN     60 280 50 00:   CALIPER FROM SONIC LOG
 DT  .US/F   60 520 33 00:   INTERVAL TRANSIT TIME
 GR  .GAPI   30 310 01 00:   GAMMA RAY
 ASN .OHMM   05 041 16 00:   AMPLIFIER SHORT NORMAL 16"
 CILD.MMHO   05 110 46 00:   CONDUCTIVITY INDUCTION LOG DEEP
 ILD .OHMM   05 120 46 00:   INDUCTION LOG DEEP
 SPR .MV     05 010 01 00:   SPONTANEOUS POTENTIAL FROM RES.
~PARAMETER INFORMATION
#MNEM.UNIT          VALUE    DESCRIPTION
#----------   ------------   ------------------------------
 PD  .                 GL:   PERMANENT DATUM
 EPD .F              5199:   ELEVATION PERMANENT DATUM
 LMF .                 KB:   LOG MEASURED FROM
 DAPD.F                 5:   FEET ABOVE PERMANENT DATUM
 DMF .                 KB:   DRILLING MEASURED FROM
 EKB .F              5204:   KELLING BUSHING
 EGL .F              5199:   GROUND LEVEL
 DATE.        17-JUL-1964:   RUN DATE
 RUN .                  1:   RUN NUMBER
 DD  .F              1100:   DEPTH DRILLER
 DL  .F              1101:   DEPTH LOGGER
 BLI .F              1100:   BOTTOM LOG INTERVAL
 TLI .F                85:   TOP LOG INTERVAL
 CS  .IN            8.625:   CASING SIZE
 CBD .F                10:   CASING BOTTOM DRILLER
 BS  .IN             6.75:   BIT SIZE
 BSD .F              1100:   BIT SIZE AT DEPTH
 DFT .                GEL:   DRILLING FLUID TYPE
 DFD .                9.5:   DRILLING FLUID DENSITY
 DFV .                 47:   DRILLING FLUID VISCOSITY
 MSS .           FLOWLINE:   MUD SAMPLE SOURCE
 RMS .OHMM           2.60:   RESISTIVITY MUD SAMPLE
 MST .F                80:   MUD SAMPLE TEMPERATURE
 RMF .OHMM           1.65:   RESISTIVITY MUD FILTRATE SAMPLE
 MFST.F                80:   MUD FILTRATE SAMPLE TEMPERATURE
 RMC .OHMM           2.53:   RESISTIVITY MUD CAKE
 MCST.F                80:   MUD CAKE SAMPLE TEMPERATURE
 MFSS.                 FP:   MUD FILTRATE SAMPLE SOURCE
 MCSS.                 FP:   MUD CAKE SAMPLE SOURCE
 TCS .HRS               2:   TIME CURCULATED STOPPED
 LUN .               4507:   LOGGING UNIT NUMBER
 LUL .               CSPR:   LOGGING UNIT LOCATION
 ENGI.             DANNER:   RECORDING ENGINEER
 CLNT.            A2DTECH:   CLIENT CODE
 ORIG.        2" 5" PRINT:   ORIGIN OF DATA
 UWI .       490250642600:   UNIQUE WELL ID
 DICO. A2D Technologies, Inc.:   DIGITIZING COMPANY
~OTHER INFORMATION
~A   DEPT     CALS         DT         GR          ASN      CILD         ILD      SPR   
# ...
  990.0000     6.5664    94.1419    36.4362    13.6716    84.7305    11.9880   -46.3635
  990.5000     6.5671    93.6846    34.7806    13.6570    84.2739    11.9903   -46.3629
  991.0000     6.5829    93.5297    33.7277    13.5208    83.9671    11.9925   -46.3621
  991.5000     6.5837    93.7527    35.5478    13.4933    83.9586    11.9950   -46.6580
  992.0000     6.5844    94.2025    35.7049    13.3701    84.2515    11.9970   -46.8355
  992.5000     6.5699    94.6522    34.5024    13.2898    84.6931    11.9993   -47.5520
  993.0000     6.5708    95.0264    33.1474    13.1358    83.9371    12.0015   -47.5514
  993.5000     6.5716    95.3250    34.9675    12.9946    84.8278    11.9888   -47.4016
  994.0000     6.5723    95.3212    35.7288    12.8975    85.4192    11.9312   -47.0303
  994.5000     6.5731    95.3175    38.0007    12.7693    87.2081    11.7990   -46.7787
  995.0000     6.5738    95.0819    36.6471    12.7338    88.3982    11.6368   -46.2070
  995.5000     6.5746    95.0005    35.8978    12.6187    89.5883    11.4447   -45.8664
  996.0000     6.5753    94.6077    35.7512    12.5224    90.0299    11.4168   -45.6095
  996.5000     6.5761    94.0930    35.3056    12.4510    90.6213    11.3448   -45.2394
  997.0000     6.5768    94.1649    33.6499    12.3178    90.9132    11.3169   -44.9891
  997.5000     6.5776    94.0091    30.9369    12.2575    91.3548    11.2743   -44.6125
  998.0000     6.5935    93.0983    27.7706    12.1672    91.3473    11.2317   -44.3736
  998.5000     6.5942    92.4143    27.0213    12.1236    91.3398    11.1290   -44.1154
  999.0000     6.5950    92.2593    30.3506    12.0851    91.3314    11.1318   -43.6766
  999.5000     6.5957    91.8777    35.3414    12.0156    91.3249    11.1338   -43.5179
 1000.0000     6.5964    91.5716    38.5196    12.0105    92.0659    11.0613   -43.5165
 1000.5000     6.5972    91.8701    42.0313    11.9886    94.0058    10.8206   -43.8121
 1001.0000     6.5979    92.3199    44.8007    11.9667    94.6159    10.7474   -44.0432
 1001.5000     6.5987    92.6941    47.2222    11.9448    96.5104    10.6175   -44.1324
 1002.0000     6.5994    92.9936    48.2052    11.9229    97.2455    10.6188   -44.1010
 1002.5000     6.6002    92.9133    46.2471    11.9011    97.2305    10.5381   -43.8227
 1003.0000     6.6022    92.3805    43.2304    11.8792    97.2156    10.4723   -43.1883
 1003.5000     6.5993    91.9232    42.7806    11.8573    97.2006    10.4738   -42.7029
 1004.0000     6.5423    91.3212    39.1609    11.8354    97.1846    10.4006   -42.2176
 1004.5000     6.5127    90.8647    38.1079    11.8135    97.1707    10.4021   -41.7018
 1005.0000     6.5137    90.3981    37.9602    11.7916    97.1557    10.4036   -41.2469
 1005.5000     6.5144    89.9411    37.9658    11.7698    97.1382    10.4052   -40.9307
 1006.0000     6.5152    90.0992    39.6320    11.7479    97.3803    10.4066   -40.6493
 1006.5000     6.5159    90.5497    45.0745    11.7310    97.8593    10.4081   -40.4978
 1007.0000     6.5166    91.0759    43.2663    11.7321    98.5928    10.4099   -40.4948
 1007.5000     6.5174    90.9217    42.3633    11.5840    98.5779    10.4111   -40.4918
 1008.0000     6.5181    90.6164    45.8432    11.4955    98.5609    10.4126   -40.4550
 1008.5000     6.5189    90.3111    47.6604    11.4369    98.5479    10.3393   -40.3365
 1009.0000     6.5196    90.2325    48.4202    11.4381    98.5329    10.2541   -40.3338
 1009.5000     6.5203    90.2296    47.8204    11.4392    98.5180    10.1928   -40.3309
 1010.0000     6.5211    89.9999    48.5802    11.4403    98.5030    10.1943   -40.1783
 1010.5000     6.5218    90.0725    47.6783    11.4414    98.4866    10.1958   -40.1759
 1011.0000     6.5227    90.5230    43.7553    11.4426    99.2215    10.1226   -40.1728
 1011.5000     6.5235    90.4429    42.5514    11.4437    99.9557    10.1435   -39.8554
 1012.0000     6.5242    89.9809    43.3111    11.4448    99.9371    10.2004   -39.3443
 1012.5000     6.5250    89.6993    38.2930    11.4461    99.9251    10.2018   -38.5242
 1013.0000     6.5257    89.5278    36.9757    11.4470    99.9093    10.2033   -38.3115
 1013.5000     6.5264    89.5248    38.9726    11.4481    99.8952    10.2050   -38.3780
 1014.0000     6.5272    89.5218    43.4812    11.4493    99.8802    10.2332   -38.8574
 1014.5000     6.5279    89.5945    44.5420    11.4504    99.8628    10.2825   -39.2583
 1015.0000     6.5287    89.7427    44.5476    11.4516    99.8503    10.2840   -39.1056
 1015.5000     6.5294    89.8909    45.3074    11.4526    99.8350    10.2106   -38.2824
 1016.0000     6.5301    90.0398    43.0460    11.4537    99.8204    10.2124   -37.4248
 1016.5000     6.5309    89.8093    40.4825    11.4551    99.8054    10.2138   -36.8609
 1017.0000     6.5316    89.4284    39.4296    11.4560    99.0400    10.2152   -36.6562
 1017.5000     6.5324    89.3424    35.8087    11.5318    99.0269    10.2170   -36.5573
 1018.0000     6.5333    89.4981    36.1153    11.5328    99.0120    10.2182   -36.5544
 1018.5000     6.5340    89.8765    37.9325    11.6086    98.9970    10.2198   -36.5514
 1019.0000     6.5045    90.1814    39.2965    11.6099    99.7328    10.1465   -36.5481
 1019.5000     6.5053    90.3206    41.8689    11.6108    99.7142    10.0731   -36.6945
 1020.0000     6.5060    90.3169    43.3840    11.6119    99.7006    10.0749   -36.8407
 1020.5000     6.5069    90.0116    43.6906    11.6131    99.7444     9.9701   -36.9860
 1021.0000     6.5077    89.6307    43.9972    11.6142   100.4192     9.9253   -37.1332
 1021.5000     6.4932    89.6277    47.6270    11.5519   101.1555     9.8057   -37.1295
 1022.0000     6.4941    89.7759    51.4080    11.4672   101.8854     9.7608   -37.3562
 1022.5000     6.4948    90.1509    54.1315    11.4279   102.6198     9.7085   -37.4221
 1023.0000     6.4956    90.6770    54.8912    11.3204   104.2041     9.6353   -37.2693
 1023.5000     6.5114    91.1276    54.2529    11.2976   105.5815     9.6368   -36.9411
 1024.0000     6.5121    91.6537    48.7487    11.1732   106.5869     9.6385   -36.3657
 1024.5000     6.5128    91.6507    46.2386    11.0922   108.5476     9.5650   -35.9744
 1025.0000     6.5136    91.2693    45.0904    11.0137   108.9695     9.5665   -35.5440
 1025.5000     6.5143    90.8885    45.2471    10.8781   110.0168     9.6144   -35.3172
 1026.0000     6.5151    90.2052    44.7984    10.8791   109.9982     9.6442   -35.1654
 1026.5000     6.5007    90.0511    43.2923    10.8802   109.9850     9.6459   -35.1624
 1027.0000     6.5015    90.0481    43.5989    10.8813   109.9701     9.6472   -35.3080
 1027.5000     6.5023    90.0451    44.2076    10.8825   109.9551     9.6487   -35.4074
 1028.0000     6.5032    90.0422    44.6653    10.8837   109.9401     9.6505   -35.7496
 1028.5000     6.5039    90.0392    42.1018    10.9593   109.9239     9.6517   -36.0680
 1029.0000     6.4896    90.1874    42.1063    10.9679   109.5535     9.6533   -36.3402
 1029.5000     6.4451    90.4868    39.6939    11.1110   109.1467     9.5800   -35.8894
 1030.0000     6.4007    90.5594    38.0367    11.2115   109.1289     9.5815   -35.6731
 1030.5000     6.4466    90.3946    38.1922    11.3370   109.1168     9.5831   -35.5857
 1031.0000     6.5980    90.0992    38.3467    11.5296   109.1011     9.5845   -35.7824
 1031.5000     6.7190    90.2474    37.5970    11.6650   108.3383     9.5859   -36.2617
 1032.0000     6.5693    90.3963    40.0184    11.8628   108.3234     9.6625   -36.4709
 1032.5000     6.5399    90.4689    44.7056    12.0753   108.3061     9.6861   -36.7660
 1033.0000     6.5557    90.2385    48.0334    12.2455   107.2680     9.8147   -36.7204
 1033.5000     6.5565    90.0843    45.9231    12.6086   105.2843    10.0463   -36.4616
 1034.0000     6.5572    90.0814    40.6405    12.8771   103.1889    10.2900   -36.4024
 1034.5000     6.5580    90.3052    39.8882    13.1370   100.4567    10.5667   -36.4560
 1035.0000     6.5436    90.9069    39.8943    13.3619    96.2558    11.0762   -36.9349
