~VERSION INFORMATION
 VERS.                2.0:   CWLS LOG ASCII STANDARD - VERSION 2.0
 WRAP.                 NO:   ONE LINE PER DEPTH STEP
~WELL INFORMATION
#MNEM.UNIT      DATA TYPE    INFORMATION
#----------   ------------   ------------------------------
 STRT.F          180.0000:   START DEPTH
 STOP.F         3280.0000:   STOP DEPTH
 STEP.F            0.5000:   STEP LENGTH
 NULL.          -999.2500:   NO VALUE
 COMP.    FENIX & SCISSON:   COMPANY
 WELL.  FENIX "AX" #85-10:   WELL
 FLD .              NPR 3:   FIELD
 LOC .      S10 T38N R78W:   LOCATION
 CNTY.            NATRONA:   COUNTY
 STAT.            WYOMING:   STATE
 CTRY. UNITED STATES OF AMERICA:   COUNTRY
 SRVC.       SCHLUMBERGER:   SERVICE COMPANY
 DATE.        03-JUL-1977:   LOGDATE
 API .     49025104000000:   API NUMBER
~CURVE INFORMATION
#MNEM.UNIT       API CODE    CURVE DESCRIPTION
#----------   ------------   ------------------------------
 DEPT.F                  :   
 SPR .MV     11 010 01 00:   SPONTANEOUS POTENTIAL FROM RES.
 MSFL.OHMM   11 270 04 00:   MICRO SPHERICALLY FOCUSED
 LLD .OHMM   11 220 10 00:   LATEROLOG LOG DEEP
 LLS .OHMM   11 220 09 00:   LATEROLOG LOG SHALLOW
 GRD .GAPI   45 310 01 00:   GAMMA RAY FROM DENSITY LOG
 CALD.IN     45 280 60 00:   CALIPER FROM DENSITY LOG
 CORR.G/C3   45 356 01 00:   DENSITY CORRECTION
 RHOB.G/C3   45 350 01 00:   BULK DENSITY
 NPHI.DEC    42 890 03 00:   NEUTRON POROSITY SANDSTONE
~PARAMETER INFORMATION
#MNEM.UNIT          VALUE    DESCRIPTION
#----------   ------------   ------------------------------
 EKB .F         5210.0000:   Kelly bushing
 EGL .F         5200.0000:   Ground level
 EDF .F            0.0000:   Drilling floor
 TD  .F         3265.0000:   Total depth
 DATE.        03-JUL-1977:   Date logged
 CLNT.            A2DTECH:   Client Code
 SL  . 2000' FSL & 100' FEL:   Surface Location
 PD  .                 GL:   Permanent Datum
 EPD .F              5200:   Elevation Permanent Datum
 LMF .                 KB:   Log Measured From
 DMF .                 KB:   Drilling Measured From
 DAPD.F                10:   Feet Above Permanent Datum
 DD  .F              3261:   Depth driller
 DL  .F              3265:   Depth logger
 BLI .F              2364:   Bottom log interval
 TLI .F               220:   Top log interval
 CS1 .IN            8.625:   Casing size
 CBD1.      8.625" @ 220':   Casing driller 1
 CBL1.F               220:   Casing logger 1
 BS1 .IN            7.875:   Bit size
 BSD1.F              3261:   Depth drilled with bit1
 DFT .                KCL:   Type fluid in hole
 DFD .                9.7:   Density
 DFV .                 38:   Viscosity
 DFPH.                7.5:   pH
 DFL .                 40:   Fluid loss
 MSS .                PIT:   Source of sample
 RMS .OHMM          0.167:   Rm
 MST .F                78:   Rm Meas. temp.
 RMF .OHMM          0.167:   Rmf
 MFST.F                78:   Rmf Meas. temp.
 MFSS.               MEAS:   Source Rmf.
 RMB .OHMM          0.103:   Rm. at BHT
 BHT .F               126:   BHT.
 TLAB.HRS            0930:   Time logger at bottom
 MRT .F               126:   Maximum recorded temp.
 LUN .               5642:   Logging unit number
 LUL .               CSPR:   Logging unit location
 ENGI.             MARTIN:   Recorded By
 WITN.         PETTINGILL:   Witnessed by
 ORIG.           5" PRINT:   Origin of data
 UWI .     49025104000000:   Unique Well ID
 DICO. A2D TECHNOLOGIES, INC.:   Digitizing Company
~OTHER INFORMATION
~A   DEPT      SPR       MSFL        LLD        LLS         GRD      CALD        CORR        RHOB       NPHI 
# ...
  618.0000   -29.0820     9.1970     7.3510     7.6880   113.7090    11.1100     0.0100     2.5060     0.3290
  618.5000   -29.1820     8.9130     7.2040     7.5990   111.6260    11.1150     0.0150     2.4970     0.3260
  619.0000   -29.2810     8.6290     7.0880     7.5100   111.9780    11.1200     0.0200     2.5110     0.3180
  619.5000   -29.3810     8.5930     6.9710     7.4210   112.9140    11.2080     0.0210     2.5170     0.3090
  620.0000   -29.4810     8.5930     6.8540     7.3320   113.8710    11.2650     0.0190     2.5210     0.3060
  620.5000   -29.5810     8.6230     6.7680     7.2400   113.6390    11.2810     0.0140     2.5220     0.3110
  621.0000   -29.6810     8.6590     6.7940     7.1440   113.0660    11.3020     0.0100     2.5130     0.3150
  621.5000   -29.7810     8.6720     6.8140     7.0490   112.4620    11.4520     0.0070     2.5100     0.3190
  622.0000   -29.8810     8.2930     6.8300     6.9570   113.0770    11.2980     0.0060     2.5110     0.3230
  622.5000   -29.9800     7.9880     6.1170     6.7800   114.1240    11.0890     0.0110     2.5150     0.3270
  623.0000   -30.0790     7.6830     6.0930     6.5670   115.2060    11.0770     0.0150     2.5230     0.3310
  623.5000   -30.1380     7.3780     6.0620     6.3550   116.0980    11.0750     0.0240     2.5380     0.3340
  624.0000   -30.1380     7.0730     5.6610     6.2310   115.6650    11.0720     0.0330     2.5290     0.3300
  624.5000   -30.1380     6.8300     5.3300     6.0090   114.7760    11.0690     0.0120     2.5120     0.3220
  625.0000   -30.1380     7.3560     5.6810     5.7900   114.5170    11.0660     0.0170     2.5140     0.3130
  625.5000   -30.1390     8.0100     6.2630     6.0150   114.9070    11.0630     0.0170     2.5180     0.3130
  626.0000   -30.1400     8.6720     6.8450     6.3030   114.5760    11.0600     0.0070     2.5050     0.3130
  626.5000   -30.1330     8.8090     7.0860     6.5920   113.5250    11.0610     0.0120     2.5170     0.3160
  627.0000   -29.9220     8.9840     7.0860     6.8800   112.4760    11.0650     0.0260     2.5240     0.3180
  627.5000   -29.6990     9.1630     7.1260     7.1680   111.5320    11.0700     0.0210     2.5250     0.3130
  628.0000   -29.4770     9.4810     7.3630     7.4190   111.5420    11.0740     0.0310     2.5210     0.3010
  628.5000   -29.2550    10.0420     7.5990     7.7500   113.3160    11.0790     0.0250     2.5420     0.3000
  629.0000   -29.0330    10.5160     7.8350     8.0940   115.3050    11.0880     0.0230     2.5260     0.2970
  629.5000   -28.8070    10.3230     8.0720     8.4380   117.3160    11.1200     0.0130     2.5320     0.2920
  630.0000   -28.7750    10.1190     8.2070     8.7820   119.4260    11.1520     0.0160     2.5320     0.2860
  630.5000   -28.9060     9.9160     8.0670     9.0790   117.9730    11.1830     0.0060     2.5230     0.2890
  631.0000   -29.0390     9.8620     7.9630     8.9900   115.8060    11.2210     0.0130     2.5150     0.2940
  631.5000   -29.1720    10.0650     7.8590     8.8940   113.9700    11.2540     0.0150     2.5230     0.2980
  632.0000   -29.3040    10.2190     7.7670     8.7990   112.4730    11.1500     0.0290     2.5380     0.3040
  632.5000   -29.4360    10.3720     7.7670     8.7520   110.9800    11.0620     0.0300     2.5450     0.3000
  633.0000   -29.5720    10.5250     7.9430     8.7870   109.9720    11.0460     0.0190     2.5220     0.3000
  633.5000   -29.7270    10.6780     8.0760     8.8240   111.2590    10.9950     0.0280     2.5240     0.2950
  634.0000   -29.5440    10.9100     8.2100     8.8620   112.4840    10.9590     0.0120     2.5250     0.2890
  634.5000   -29.5490    10.8620     8.3440     8.9000   113.7000    10.9660     0.0190     2.5330     0.2980
  635.0000   -29.5460    10.7630     8.3590     8.9380   114.8820    10.9720     0.0210     2.5410     0.3050
  635.5000   -29.5450    10.6650     8.3010     8.9760   115.4930    10.9780     0.0170     2.5260     0.3130
  636.0000   -29.5450    10.5670     8.1800     8.9960   113.9350    10.9840     0.0130     2.5190     0.3170
  636.5000   -29.5450    10.4680     8.0580     8.8700   114.3110    10.9910     0.0210     2.5170     0.3080
  637.0000   -29.5410    10.3700     7.9370     8.7520   115.0890    10.9970     0.0280     2.5270     0.3110
  637.5000   -29.5200    10.2710     7.8150     8.6340   114.8730    11.0000     0.0210     2.5320     0.3140
  638.0000   -29.5000    10.1730     7.6260     8.5150   112.4410    10.9960     0.0350     2.5430     0.3170
  638.5000   -29.4800    10.0740     7.6500     8.3970   113.4630    10.9790     0.0460     2.5520     0.3160
  639.0000   -29.4600     9.9760     7.7040     8.2830   115.4760    10.9630     0.0330     2.5410     0.3070
  639.5000   -29.4400     9.8780     7.7670     8.2070   113.5790    10.9470     0.0410     2.5520     0.3080
  640.0000   -29.4200     9.7790     7.6530     8.1330   111.3950    10.9310     0.0350     2.5590     0.3080
  640.5000   -29.4000     9.6820     7.4710     8.0600   109.2440    10.9150     0.0210     2.5380     0.3070
  641.0000   -29.3800     9.6820     7.2890     7.9860   109.9330    10.9010     0.0080     2.5180     0.3060
  641.5000   -29.3610     9.7450     7.2170     7.9130   110.8830    10.9010    -0.0010     2.5120     0.2980
  642.0000   -29.3950     9.8080     7.3510     7.8390   110.1350    10.9020    -0.0040     2.5010     0.3000
  642.5000   -29.6520     9.8710     7.4230     7.8390   109.5960    10.9050     0.0000     2.4930     0.3010
  643.0000   -29.9070     9.9330     7.5450     7.9450   110.5160    10.9070     0.0090     2.5180     0.3020
  643.5000   -30.1620     9.9960     7.6660     8.0340   110.2960    10.9100     0.0090     2.5250     0.3030
  644.0000   -30.4170    10.0590     7.7880     8.1240   109.6940    10.9130     0.0260     2.5370     0.3040
  644.5000   -30.6710    10.1210     7.9090     8.2130   109.1650    10.9160     0.0390     2.5470     0.3060
  645.0000   -30.9260    10.1840     8.0310     8.3020   109.4420    10.9190     0.0310     2.5410     0.3050
  645.5000   -31.1810    10.2470     8.1530     8.3910   110.4160    10.9200     0.0200     2.5250     0.3130
  646.0000   -31.4350    10.3250     8.2070     8.4800   111.5350    10.9300     0.0090     2.5120     0.3170
  646.5000   -31.6900    10.3030     8.1260     8.5700   111.8660    10.9430     0.0110     2.4960     0.3190
  647.0000   -31.9430    10.2730     8.0180     8.5930   112.1700    10.9570     0.0170     2.5020     0.3210
  647.5000   -32.1030    10.2440     7.9090     8.5380   112.1340    10.9700     0.0220     2.5130     0.3200
  648.0000   -32.0500    10.2140     7.8010     8.4900   111.7550    10.9840     0.0260     2.5240     0.3170
  648.5000   -32.0050    10.1840     7.6920     8.4420   111.3760    10.9970     0.0260     2.5320     0.3130
  649.0000   -31.9440    10.1540     7.5840     8.3940   111.0130    11.0100     0.0260     2.5260     0.3120
  649.5000   -31.5110    10.1250     7.4870     8.3450   111.1380    11.0200     0.0250     2.5160     0.3140
  650.0000   -30.9400    10.0950     7.4870     8.2830   112.7150    11.0200     0.0250     2.5220     0.3150
  650.5000   -30.1880    10.0650     7.6490     8.3360   114.2500    11.0200     0.0210     2.5300     0.3100
  651.0000   -29.4730    10.0440     7.7830     8.4430   115.8340    11.0300     0.0110     2.5090     0.3000
  651.5000   -28.7520    10.1590     7.9160     8.5510   115.9370    11.0440     0.0170     2.5180     0.2980
  652.0000   -28.0770    10.3250     8.0490     8.6580   115.0370    11.0580     0.0290     2.5300     0.2990
  652.5000   -28.4840    10.4910     8.1830     8.7650   113.8900    11.0730     0.0330     2.5270     0.3000
  653.0000   -28.9660    10.7110     8.3590     8.8720   113.0110    11.0870     0.0330     2.5360     0.3010
  653.5000   -29.4440    10.6790     8.2830     8.9800   112.1610    11.0960     0.0200     2.5200     0.3030
  654.0000   -29.9190    10.6100     8.2280     9.0790   111.5450    11.0300     0.0130     2.5150     0.3050
