~VERSION INFORMATION
 VERS.                2.0:   CWLS LOG ASCII STANDARD - VERSION 2.0
 WRAP.                 NO:   ONE LINE PER DEPTH STEP
~WELL INFORMATION
#MNEM.UNIT      DATA TYPE    INFORMATION
#----------   ------------   ------------------------------
 STRT.F           80.0000:   START DEPTH
 STOP.F         1100.0000:   STOP DEPTH
 STEP.F            0.5000:   STEP LENGTH
 NULL.          -999.2500:   NO VALUE
 COMP.          U.S. NAVY:   COMPANY
 WELL.     NPR #3 #65-S-2:   WELL
 FLD .             TEAPOT:   FIELD
 LOC .       S2 T38N R78W:   LOCATION
 CNTY.            NATRONA:   COUNTY
 STAT.            WYOMING:   STATE
 CTRY. UNITED STATES OF AMERICA:   COUNTRY
 SRVC.       Schlumberger:   SERVICE COMPANY
 DATE.        17-JUL-1964:   LOGDATE
 API .       490250642600:   API NUMBER
~CURVE INFORMATION
#MNEM.UNIT       API CODE    CURVE DESCRIPTION
#----------   ------------   ------------------------------
 DEPT.F                  :   
 CALS.IN     60 280 50 00:   CALIPER FROM SONIC LOG
 DT  .US/F   60 520 33 00:   INTERVAL TRANSIT TIME
 GR  .GAPI   30 310 01 00:   GAMMA RAY
 ASN .OHMM   05 041 16 00:   AMPLIFIER SHORT NORMAL 16"
 CILD.MMHO   05 110 46 00:   CONDUCTIVITY INDUCTION LOG DEEP
 ILD .OHMM   05 120 46 00:   INDUCTION LOG DEEP
 SPR .MV     05 010 01 00:   SPONTANEOUS POTENTIAL FROM RES.
~PARAMETER INFORMATION
#MNEM.UNIT          VALUE    DESCRIPTION
#----------   ------------   ------------------------------
 PD  .                 GL:   PERMANENT DATUM
 EPD .F              5199:   ELEVATION PERMANENT DATUM
 LMF .                 KB:   LOG MEASURED FROM
 DAPD.F                 5:   FEET ABOVE PERMANENT DATUM
 DMF .                 KB:   DRILLING MEASURED FROM
 EKB .F              5204:   KELLING BUSHING
 EGL .F              5199:   GROUND LEVEL
 DATE.        17-JUL-1964:   RUN DATE
 RUN .                  1:   RUN NUMBER
 DD  .F              1100:   DEPTH DRILLER
 DL  .F              1101:   DEPTH LOGGER
 BLI .F              1100:   BOTTOM LOG INTERVAL
 TLI .F                85:   TOP LOG INTERVAL
 CS  .IN            8.625:   CASING SIZE
 CBD .F                10:   CASING BOTTOM DRILLER
 BS  .IN             6.75:   BIT SIZE
 BSD .F              1100:   BIT SIZE AT DEPTH
 DFT .                GEL:   DRILLING FLUID TYPE
 DFD .                9.5:   DRILLING FLUID DENSITY
 DFV .                 47:   DRILLING FLUID VISCOSITY
 MSS .           FLOWLINE:   MUD SAMPLE SOURCE
 RMS .OHMM           2.60:   RESISTIVITY MUD SAMPLE
 MST .F                80:   MUD SAMPLE TEMPERATURE
 RMF .OHMM           1.65:   RESISTIVITY MUD FILTRATE SAMPLE
 MFST.F                80:   MUD FILTRATE SAMPLE TEMPERATURE
 RMC .OHMM           2.53:   RESISTIVITY MUD CAKE
 MCST.F                80:   MUD CAKE SAMPLE TEMPERATURE
 MFSS.                 FP:   MUD FILTRATE SAMPLE SOURCE
 MCSS.                 FP:   MUD CAKE SAMPLE SOURCE
 TCS .HRS               2:   TIME CURCULATED STOPPED
 LUN .               4507:   LOGGING UNIT NUMBER
 LUL .               CSPR:   LOGGING UNIT LOCATION
 ENGI.             DANNER:   RECORDING ENGINEER
 CLNT.            A2DTECH:   CLIENT CODE
 ORIG.        2" 5" PRINT:   ORIGIN OF DATA
 UWI .       490250642600:   UNIQUE WELL ID
 DICO. A2D Technologies, Inc.:   DIGITIZING COMPANY
~OTHER INFORMATION
~A   DEPT     CALS         DT         GR          ASN      CILD         ILD      SPR   
# ...
  899.0000     6.3099   102.0815    92.5808     7.6713   155.7165     6.4586   -32.6612
  899.5000     6.3101   102.0044    92.5899     7.6417   156.7453     6.5011   -32.9390
  900.0000     6.3196   101.9277    89.5778     7.6224   157.1856     6.5025   -32.9998
  900.5000     6.3255   102.3037    88.0763     7.6007   157.9765     6.5045   -33.3053
  901.0000     6.3256   102.6802    85.2153     7.5791   158.6686     6.5815   -33.3816
  901.5000     6.3258   102.9810    86.5839     7.5574   156.4137     6.5840   -33.2316
  902.0000     6.3259   103.2819    88.7078     7.5358   155.0599     6.5112   -33.2310
  902.5000     6.3261   103.5827    89.3212     7.5239   154.1542     6.5135   -33.0812
  903.0000     6.3262   103.8836    90.3816     7.5193   155.0449     6.2765   -32.9314
  903.5000     6.3264   104.1844    95.3277     7.4946   158.1811     6.1891   -32.7536
  904.0000     6.3265   104.0176    90.9489     7.3944   169.1009     5.9226   -32.4828
  904.5000     6.3267   103.2412    90.9504     7.2078   178.9746     5.8199   -32.3331
  905.0000     6.3268   102.5167    90.9519     6.9881   187.7994     5.7025   -32.3323
  905.5000     6.3270   102.2885    91.4066     6.6503   194.8278     5.4208   -32.3316
  906.0000     6.3271   104.7057    92.4655     6.2872   197.5159     5.1836   -32.3308
  906.5000     6.3273   107.0474    95.0349     6.0342   199.0036     5.1864   -32.3300
  907.0000     6.3274   107.2726    92.7705     5.8066   200.4940     5.1136   -32.3294
  907.5000     6.3276   107.8003    91.4125     5.6165   200.4865     5.0411   -32.3286
  908.0000     6.3277   109.2349    89.2992     5.7078   200.4790     4.9238   -32.1788
  908.5000     6.3279   109.6873    88.8475     6.0713   199.7231     4.8812   -32.1781
  909.0000     6.3280   108.5516    87.3384     6.3117   200.4631     4.8236   -32.1772
  909.5000     6.3282   105.5267    84.0166     6.4087   202.8518     4.8259   -32.1766
  910.0000     6.3283   105.1473    82.9607     6.4090   212.4251     4.8281   -32.0268
  910.5000     6.3285   105.5237    83.4255     6.0502   221.3997     4.8602   -32.0261
  911.0000     6.3286   106.5049    84.0211     5.7574   219.7455     4.8323   -32.1987
  911.5000     6.3288   107.7127    81.9082     5.4696   218.3898     4.8351   -32.3227
  912.0000     6.3289   110.2056    80.7012     5.3355   218.3832     4.8072   -32.6200
  912.5000     6.3291   112.0181    80.5512     5.7687   218.3758     4.7646   -32.7682
  913.0000     6.3292   111.7103    80.7041     5.6118   219.1168     5.0508   -32.9995
  913.5000     6.3294   111.3268    79.1951     5.9851   214.3189     5.4268   -33.2139
  914.0000     6.3295   108.9418    77.6856     6.4412   198.8913     5.9674   -33.2130
  914.5000     6.3297   107.0368    80.2554     6.5886   175.5314     6.3580   -33.0109
  915.0000     6.3298   104.5377    79.0485     6.7105   165.1946     6.5695   -32.9135
  915.5000     6.3300   103.6392    77.6904     6.7727   165.6362     6.6315   -32.6821
  916.0000     6.3301   103.1791    78.9004     6.8183   166.8263     6.2601   -32.5922
  916.5000     6.3303   102.7341    82.5272     6.8457   169.6622     5.6797   -32.3151
  917.0000     6.3304   102.1264    87.0604     6.8460   176.9910     5.2930   -32.2633
  917.5000     6.3306   101.3676    90.5363     6.8448   199.5883     4.7123   -32.1647
  918.0000     6.3307   100.6843    88.6145     6.5513   215.2994     4.7145   -32.0835
  918.5000     6.3309   101.7395    85.0409     6.0897   216.0414     4.7167   -32.0142
  919.0000     6.3310   104.9111    85.4051     5.7129   216.0320     4.7193   -32.0133
  919.5000     6.3312   107.2513    87.8235     5.7131   215.1272     4.7212   -32.0127
  920.0000     6.3313   108.3065    88.2778     5.8617   212.2754     4.7235   -32.0119
  920.5000     6.3315   108.1524    86.7687     6.1984   210.6213     4.8154   -32.2394
  921.0000     6.3316   107.9982    86.4685     6.5864   206.2725     5.1614   -32.3086
  921.5000     6.3306   107.5417    84.5062     6.9979   193.5395     5.9263   -32.3076
  922.0000     6.3169   104.4397    86.7736     7.2306   182.9042     6.3169   -32.4560
  922.5000     6.3170   101.7156    87.6814     7.5286   159.0943     6.6779   -32.6043
  923.0000     6.3172    99.4451    87.0787     7.8048   146.0629     6.9940   -32.6036
  923.5000     6.3173    99.1397    83.6058     7.9596   143.0614     7.2354   -32.6210
  924.0000     6.2874    98.9856    82.0967     8.1039   140.3584     7.4323   -32.7511
  924.5000     6.2724    98.8314    80.7387     8.1971   140.3518     7.5090   -32.8996
  925.0000     6.2575    98.6017    78.9275     8.2736   140.3443     7.5112   -32.8986
  925.5000     6.2426    98.4475    76.5020     8.3138   139.8877     7.5135   -33.0469
  926.0000     6.2428    98.3689    75.7180     8.3347   138.8323     7.5902   -33.0462
  926.5000     6.2429    98.4415    74.4006     8.3442   138.0754     7.5179   -33.0453
  927.0000     6.2431    98.5141    71.6831     8.3685   137.3204     7.4903   -33.0447
  927.5000     6.2432    98.5104    71.2310     8.3928   138.0614     7.3729   -33.0439
  928.0000     6.2434    98.4318    75.4625     8.4048   139.2515     7.2556   -33.1187
  928.5000     6.2586    98.1265    76.2189     8.4414   140.4416     7.2277   -33.1916
  929.0000     6.2587    97.8212    72.6813     8.4508   141.7805     7.2305   -33.1906
  929.5000     6.2438    97.3646    71.0433     8.4654   141.7740     7.2922   -33.1451
  930.0000     6.2289    97.1356    70.1510     8.4239   141.0180     7.5336   -32.8912
  930.5000     6.1989    97.5098    71.7159     8.3167   138.9147     7.7750   -32.8162
  931.0000     6.1991    97.8092    73.6375     8.2573   135.4641     8.0015   -32.7407
  931.5000     6.2166    98.1085    70.8400     8.3289   134.2581     8.1385   -32.7398
  932.0000     6.2747    98.1819    71.2338     8.5266   134.2515     8.1405   -32.7829
  932.5000     6.2749    97.4223    68.6718     8.7234   134.2440     8.0680   -33.0365
  933.0000     6.2901    96.2855    66.7125     9.0048   135.1347     7.9507   -33.1848
  933.5000     6.3354    94.9976    73.6687     9.0946   139.3189     7.6091   -33.1841
  934.0000     6.4109    93.9364    71.7109     9.1098   156.6757     6.5055   -33.0341
  934.5000     6.4261    92.8752    66.8830     8.7968   169.5434     5.6854   -32.6930
  935.0000     6.4262    92.1163    63.1126     8.3711   182.1108     5.1644   -32.2876
  935.5000     6.4113    92.9448    62.2107     7.5585   193.4805     4.8677   -32.0661
  936.0000     6.4115    96.4308    62.9735     6.7614   204.2515     4.8700   -31.9881
  936.5000     6.4116    96.3401    61.9221     6.2606   205.4416     4.9472   -32.0884
  937.0000     6.4118    99.0583    61.7755     6.3505   204.2365     4.9492   -32.1357
  937.5000     6.4119    98.1230    61.6319     6.6057   203.0312     5.0262   -32.2838
  938.0000     6.4271    98.5988    61.0337     7.1084   198.8323     5.0732   -32.3537
  938.5000     6.4273    99.5021    60.7360     7.7626   186.8488     5.4193   -32.6018
  939.0000     6.4274   126.4076    61.7994     8.3433   155.8524     6.3785   -33.0775
  939.5000     6.4426   111.0607    61.6556     9.2475   142.6722     7.0082   -33.5532
  940.0000     6.4428    92.6156    61.5106    10.0678   119.1617     8.4753   -33.9195
  940.5000     6.4429    93.4433    61.3656    10.2380   114.3638     8.9559   -34.0678
  941.0000     6.4431    92.4577    59.8611    10.4082   113.9081     9.0774   -33.9180
  941.5000     6.4432    91.3209    56.0907    10.5693   115.3958     8.7813   -33.9173
  942.0000     6.4434    93.2076    52.4512    10.6221   116.7365     8.7833   -33.8778
  942.5000     6.4436    94.8675    48.4790    10.6224   117.6272     8.7855   -33.7667
  943.0000     6.4437    95.0920    40.2211    10.6227   116.4221     8.7877   -33.7660
  943.5000     6.4438    94.6347    34.5944    10.6977   115.0674     8.8049   -33.7653
  944.0000     6.4440    94.4057    29.0918    10.7725   113.1128     8.9420   -33.7645
