~VERSION INFORMATION
 VERS.                2.0:   CWLS LOG ASCII STANDARD - VERSION 2.0
 WRAP.                 NO:   ONE LINE PER DEPTH STEP
~WELL INFORMATION
#MNEM.UNIT      DATA TYPE    INFORMATION
#----------   ------------   ------------------------------
 STRT.F           80.0000:   START DEPTH
 STOP.F         1100.0000:   STOP DEPTH
 STEP.F            0.5000:   STEP LENGTH
 NULL.          -999.2500:   NO VALUE
 COMP.          U.S. NAVY:   COMPANY
 WELL.     NPR #3 #65-S-2:   WELL
 FLD .             TEAPOT:   FIELD
 LOC .       S2 T38N R78W:   LOCATION
 CNTY.            NATRONA:   COUNTY
 STAT.            WYOMING:   STATE
 CTRY. UNITED STATES OF AMERICA:   COUNTRY
 SRVC.       Schlumberger:   SERVICE COMPANY
 DATE.        17-JUL-1964:   LOGDATE
 API .       490250642600:   API NUMBER
~CURVE INFORMATION
#MNEM.UNIT       API CODE    CURVE DESCRIPTION
#----------   ------------   ------------------------------
 DEPT.F                  :   
 CALS.IN     60 280 50 00:   CALIPER FROM SONIC LOG
 DT  .US/F   60 520 33 00:   INTERVAL TRANSIT TIME
 GR  .GAPI   30 310 01 00:   GAMMA RAY
 ASN .OHMM   05 041 16 00:   AMPLIFIER SHORT NORMAL 16"
 CILD.MMHO   05 110 46 00:   CONDUCTIVITY INDUCTION LOG DEEP
 ILD .OHMM   05 120 46 00:   INDUCTION LOG DEEP
 SPR .MV     05 010 01 00:   SPONTANEOUS POTENTIAL FROM RES.
~PARAMETER INFORMATION
#MNEM.UNIT          VALUE    DESCRIPTION
#----------   ------------   ------------------------------
 PD  .                 GL:   PERMANENT DATUM
 EPD .F              5199:   ELEVATION PERMANENT DATUM
 LMF .                 KB:   LOG MEASURED FROM
 DAPD.F                 5:   FEET ABOVE PERMANENT DATUM
 DMF .                 KB:   DRILLING MEASURED FROM
 EKB .F              5204:   KELLING BUSHING
 EGL .F              5199:   GROUND LEVEL
 DATE.        17-JUL-1964:   RUN DATE
 RUN .                  1:   RUN NUMBER
 DD  .F              1100:   DEPTH DRILLER
 DL  .F              1101:   DEPTH LOGGER
 BLI .F              1100:   BOTTOM LOG INTERVAL
 TLI .F                85:   TOP LOG INTERVAL
 CS  .IN            8.625:   CASING SIZE
 CBD .F                10:   CASING BOTTOM DRILLER
 BS  .IN             6.75:   BIT SIZE
 BSD .F              1100:   BIT SIZE AT DEPTH
 DFT .                GEL:   DRILLING FLUID TYPE
 DFD .                9.5:   DRILLING FLUID DENSITY
 DFV .                 47:   DRILLING FLUID VISCOSITY
 MSS .           FLOWLINE:   MUD SAMPLE SOURCE
 RMS .OHMM           2.60:   RESISTIVITY MUD SAMPLE
 MST .F                80:   MUD SAMPLE TEMPERATURE
 RMF .OHMM           1.65:   RESISTIVITY MUD FILTRATE SAMPLE
 MFST.F                80:   MUD FILTRATE SAMPLE TEMPERATURE
 RMC .OHMM           2.53:   RESISTIVITY MUD CAKE
 MCST.F                80:   MUD CAKE SAMPLE TEMPERATURE
 MFSS.                 FP:   MUD FILTRATE SAMPLE SOURCE
 MCSS.                 FP:   MUD CAKE SAMPLE SOURCE
 TCS .HRS               2:   TIME CURCULATED STOPPED
 LUN .               4507:   LOGGING UNIT NUMBER
 LUL .               CSPR:   LOGGING UNIT LOCATION
 ENGI.             DANNER:   RECORDING ENGINEER
 CLNT.            A2DTECH:   CLIENT CODE
 ORIG.        2" 5" PRINT:   ORIGIN OF DATA
 UWI .       490250642600:   UNIQUE WELL ID
 DICO. A2D Technologies, Inc.:   DIGITIZING COMPANY
~OTHER INFORMATION
~A   DEPT     CALS         DT         GR          ASN      CILD         ILD      SPR   
# ...
  717.0000     6.8293   101.8261    88.7754     8.1493   140.9032     7.3132   -33.3323
  717.5000     6.9051   102.1277    83.6488     8.1493   140.1917     7.3150   -33.3306
  718.0000     6.9783   101.5223    81.8436     8.1644   140.1796     7.3171   -33.3294
  718.5000     6.9845   100.9168    83.6638     8.1887   140.1638     7.2872   -33.4769
  719.0000     6.9786   100.6893    83.9715     8.1940   140.1497     7.2431   -33.6244
  719.5000     6.9487   100.4618    79.9024     8.1791   140.1347     7.1730   -33.9212
  720.0000     6.8886   100.3855    79.4548     8.1403   140.1173     7.1749   -34.0684
  720.5000     6.7984   100.3091    76.8962     8.0524   141.1103     7.1022   -34.2161
  721.0000     6.7232   100.3084    74.7889     7.9701   142.3349     7.0291   -33.9096
  721.5000     6.6932   100.2320    75.4007     7.9403   143.0689     7.0310   -33.4277
  722.0000     6.7085   100.2333    77.6740     8.0173   144.6806     6.9585   -33.3174
  722.5000     6.7538   100.4611    79.3431     8.0597   146.0309     6.8853   -33.6139
  723.0000     6.7991   100.6888    83.2781     8.0503   147.0609     6.8872   -33.6125
  723.5000     6.6487   101.0678    82.9835     8.0149   148.2510     6.8890   -33.6110
  724.0000     6.5133   101.5223    80.1209     7.9765   148.9820     6.8769   -33.4602
  724.5000     6.7243   102.1388    79.5242     7.9342   148.9671     6.8180   -33.4590
  725.0000     6.8901   102.4944    79.2296     7.8806   149.6991     6.8199   -33.4575
  725.5000     6.7848   101.9070    78.7800     7.8588   149.6856     6.8217   -33.5348
  726.0000     6.5591   101.2077    78.1792     7.8358   149.6707     6.8719   -33.6037
  726.5000     6.4688   101.1314    77.0528     7.8955   149.1593     6.9198   -33.6019
  727.0000     6.6045   100.6015    74.2747     7.9912   148.4829     7.0517   -34.0070
  727.5000     6.7854    99.9961    75.0780     8.0896   145.1337     7.2029   -34.1952
  728.0000     6.8458   100.6756    77.5590     8.2008   142.5150     7.3543   -33.9573
  728.5000     6.8459   101.2797    79.0086     8.3130   139.7879     7.4312   -33.8942
  729.0000     6.7708   100.2962    79.8957     8.4179   138.3506     7.5075   -33.8925
  729.5000     6.7257    99.5396    80.3564     8.4628   137.5898     7.5094   -34.1031
  730.0000     6.7410    98.6318    80.8171     8.5114   136.8257     7.5859   -34.1928
  730.5000     6.7562    98.0263    81.5799     8.5672   136.8114     7.5129   -34.3353
  731.0000     6.7412    98.1768    82.1916     8.6029   136.7964     7.5152   -34.3338
  731.5000     6.7113    98.5539    82.9544     8.6269   137.5277     7.4421   -34.1832
  732.0000     6.6663    98.7046    82.9619     8.6269   137.5150     7.4439   -33.8122
  732.5000     6.6514    98.4769    81.4588     8.6269   138.2484     7.3979   -33.5569
  733.0000     6.7419    98.1738    77.2367     8.5970   138.2335     7.3726   -33.2844
  733.5000     6.8474    98.0220    75.1294     8.5740   138.2186     7.3750   -33.1341
  734.0000     6.9380    98.3990    75.7412     8.5497   138.2019     7.3403   -32.9835
  734.5000     7.0134    98.7762    78.0145     8.5075   138.5055     7.3037   -32.9821
  735.0000     7.0587    99.1534    78.6263     8.4582   138.9470     7.2313   -33.0030
  735.5000     7.0589    99.4550    79.3890     8.3862   139.6557     7.2328   -33.1282
  736.0000     7.0135    99.9833    81.0582     8.3134   140.5789     7.1600   -33.2757
  736.5000     6.8924   100.3605    83.7847     8.2494   141.8700     7.0451   -33.4232
  737.0000     6.7714   100.8888    87.2665     8.1045   144.0221     6.9263   -33.5107
  737.5000     6.7282   101.1904    86.3677     7.9714   147.2056     6.7921   -33.5695
  738.0000     6.7767   100.8873    85.9202     7.8742   149.3085     6.7633   -33.5676
  738.5000     6.8660   100.6598    85.4764     7.8358   151.0205     6.6461   -33.7797
  739.0000     6.9395   101.3393    83.2180     7.8138   153.0231     6.6480   -33.7074
  739.5000     6.8616   101.5772    82.9234     7.7910   154.1492     6.6687   -33.4657
  740.0000     6.7591   101.0355    81.5714     7.7761   154.4923     6.7266   -33.4128
  740.5000     6.7140    99.6742    80.6460     7.7612   154.4737     6.7283   -33.4112
  741.0000     6.7292    98.8420    82.4927     7.7313   154.4611     6.7302   -33.4829
  741.5000     6.7294    98.9169    82.5002     7.7220   153.6973     6.7324   -33.5575
  742.0000     6.7446    98.3114    85.0757     7.7015   152.0758     6.7583   -33.5556
  742.5000     6.7448    97.7060    86.8959     7.7910   150.3992     6.8106   -33.7519
  743.0000     6.7449    97.3268    87.3566     7.9112   147.6628     6.8124   -33.9999
  743.5000     6.7451    99.9969    88.2704     7.9787   145.5490     6.9018   -34.3110
  744.0000     6.7452   101.6342    84.6365     8.0597   143.8722     6.9659   -34.6170
  744.5000     6.7454   101.0286    82.0861     8.1076   141.4470     7.1770   -34.7407
  745.0000     6.7455   100.8767    76.8931     8.1503   139.9451     7.3456   -34.7392
  745.5000     6.7457   101.1783    75.6116     8.1890   137.8578     7.5416   -34.7377
  746.0000     6.7458   101.4045    76.2236     8.2265   136.7565     7.5710   -34.7362
  746.5000     6.7460   100.9500    75.9069     8.3284   136.3323     7.5730   -34.5857
  747.0000     6.7461   100.4958    75.9628     8.4211   135.8134     7.5747   -34.4350
  747.5000     6.7463   100.4194    77.3051     8.5483   135.5539     7.5766   -34.4337
  748.0000     6.7464   100.2675    75.3489     8.6269   134.7894     7.5788   -34.5892
  748.5000     6.7466    99.5109    72.6374     8.6998   135.1522     7.5803   -34.7288
  749.0000     6.7166    98.9054    71.7366     8.7175   136.2585     7.5075   -34.7685
  749.5000     6.6414    98.3756    72.9545     8.7208   136.9884     7.4681   -35.0237
  750.0000     6.5362    98.2239    70.9970     8.6368   137.7245     7.4363   -34.9478
  750.5000     6.4766    98.6755    70.0967     8.5373   138.4576     7.4386   -34.5405
  751.0000     6.4471    99.2031    70.5741     8.4301   139.1916     7.3358   -34.1249
  751.5000     6.4627    99.6552    73.6014     8.4362   140.0474     7.2926   -33.7757
  752.0000     6.4633   100.0316    73.7461     8.4478   140.6587     7.2476   -33.5260
  752.5000     6.4488    99.6522    72.6888     8.4112   141.6791     7.1466   -33.4414
  753.0000     6.4344    99.9530    71.1661     8.2585   142.1257     7.0742   -33.2252
  753.5000     6.3597   100.8586    69.9923     8.1642   144.0594     7.0011   -33.3726
  754.0000     6.1193   100.8813    70.6163     8.2312   145.0918     7.0030   -33.5201
  754.5000     5.8312   100.1754    68.9652     8.2986   145.8217     7.0052   -33.5186
  755.0000     5.8193   100.5014    66.8427     8.3284   145.4841     7.1051   -33.5171
  755.5000     6.1513   101.6507    71.1299     8.3402   142.7347     7.2329   -33.5156
  756.0000     6.4831   101.9094    71.8429     8.5522   139.8203     7.4320   -33.5140
  756.5000     6.7260   100.7737    71.5481     8.7490   136.3873     7.6971   -33.5800
  757.0000     6.7554    99.3361    71.0393     8.9437   133.0228     7.9113   -33.6603
  757.5000     6.8164    98.5788    70.2036     9.1940   129.6782     7.9422   -33.5097
  758.0000     6.9676    97.6703    70.8399     9.3654   126.7968     8.0643   -33.5082
  758.5000     7.0435    96.4594    72.3852     9.5120   122.4972     8.1591   -33.5066
  759.0000     7.0591    95.5509    70.9969     9.6722   120.2845     8.2175   -33.5052
  759.5000     7.0296    95.2471    69.4785     9.8571   117.9783     8.3690   -33.8380
  760.0000     6.9398    94.9432    71.9048    10.0115   115.6687     8.4405   -34.0984
  760.5000     6.8500    94.6394    72.8187    10.1733   114.7406     8.6090   -34.2459
  761.0000     6.8657    94.2600    73.2794    10.3351   111.9438     8.9727   -34.0953
  761.5000     6.8663    93.8020    73.8912    10.5224   109.8902     9.1936   -34.0939
  762.0000     6.9422    93.1021    77.3730    10.6965   107.4249     9.4993   -34.0924
