~VERSION INFORMATION
 VERS.                2.0:   CWLS LOG ASCII STANDARD - VERSION 2.0
 WRAP.                 NO:   ONE LINE PER DEPTH STEP
~WELL INFORMATION
#MNEM.UNIT      DATA TYPE    INFORMATION
#----------   ------------   ------------------------------
 STRT.F           80.0000:   START DEPTH
 STOP.F         1100.0000:   STOP DEPTH
 STEP.F            0.5000:   STEP LENGTH
 NULL.          -999.2500:   NO VALUE
 COMP.          U.S. NAVY:   COMPANY
 WELL.     NPR #3 #65-S-2:   WELL
 FLD .             TEAPOT:   FIELD
 LOC .       S2 T38N R78W:   LOCATION
 CNTY.            NATRONA:   COUNTY
 STAT.            WYOMING:   STATE
 CTRY. UNITED STATES OF AMERICA:   COUNTRY
 SRVC.       Schlumberger:   SERVICE COMPANY
 DATE.        17-JUL-1964:   LOGDATE
 API .       490250642600:   API NUMBER
~CURVE INFORMATION
#MNEM.UNIT       API CODE    CURVE DESCRIPTION
#----------   ------------   ------------------------------
 DEPT.F                  :   
 CALS.IN     60 280 50 00:   CALIPER FROM SONIC LOG
 DT  .US/F   60 520 33 00:   INTERVAL TRANSIT TIME
 GR  .GAPI   30 310 01 00:   GAMMA RAY
 ASN .OHMM   05 041 16 00:   AMPLIFIER SHORT NORMAL 16"
 CILD.MMHO   05 110 46 00:   CONDUCTIVITY INDUCTION LOG DEEP
 ILD .OHMM   05 120 46 00:   INDUCTION LOG DEEP
 SPR .MV     05 010 01 00:   SPONTANEOUS POTENTIAL FROM RES.
~PARAMETER INFORMATION
#MNEM.UNIT          VALUE    DESCRIPTION
#----------   ------------   ------------------------------
 PD  .                 GL:   PERMANENT DATUM
 EPD .F              5199:   ELEVATION PERMANENT DATUM
 LMF .                 KB:   LOG MEASURED FROM
 DAPD.F                 5:   FEET ABOVE PERMANENT DATUM
 DMF .                 KB:   DRILLING MEASURED FROM
 EKB .F              5204:   KELLING BUSHING
 EGL .F              5199:   GROUND LEVEL
 DATE.        17-JUL-1964:   RUN DATE
 RUN .                  1:   RUN NUMBER
 DD  .F              1100:   DEPTH DRILLER
 DL  .F              1101:   DEPTH LOGGER
 BLI .F              1100:   BOTTOM LOG INTERVAL
 TLI .F                85:   TOP LOG INTERVAL
 CS  .IN            8.625:   CASING SIZE
 CBD .F                10:   CASING BOTTOM DRILLER
 BS  .IN             6.75:   BIT SIZE
 BSD .F              1100:   BIT SIZE AT DEPTH
 DFT .                GEL:   DRILLING FLUID TYPE
 DFD .                9.5:   DRILLING FLUID DENSITY
 DFV .                 47:   DRILLING FLUID VISCOSITY
 MSS .           FLOWLINE:   MUD SAMPLE SOURCE
 RMS .OHMM           2.60:   RESISTIVITY MUD SAMPLE
 MST .F                80:   MUD SAMPLE TEMPERATURE
 RMF .OHMM           1.65:   RESISTIVITY MUD FILTRATE SAMPLE
 MFST.F                80:   MUD FILTRATE SAMPLE TEMPERATURE
 RMC .OHMM           2.53:   RESISTIVITY MUD CAKE
 MCST.F                80:   MUD CAKE SAMPLE TEMPERATURE
 MFSS.                 FP:   MUD FILTRATE SAMPLE SOURCE
 MCSS.                 FP:   MUD CAKE SAMPLE SOURCE
 TCS .HRS               2:   TIME CURCULATED STOPPED
 LUN .               4507:   LOGGING UNIT NUMBER
 LUL .               CSPR:   LOGGING UNIT LOCATION
 ENGI.             DANNER:   RECORDING ENGINEER
 CLNT.            A2DTECH:   CLIENT CODE
 ORIG.        2" 5" PRINT:   ORIGIN OF DATA
 UWI .       490250642600:   UNIQUE WELL ID
 DICO. A2D Technologies, Inc.:   DIGITIZING COMPANY
~OTHER INFORMATION
~A   DEPT     CALS         DT         GR          ASN      CILD         ILD      SPR   
# ...
 1035.5000     6.5446    91.8865    36.8087    13.7797    91.0039    11.8491   -37.7824
 1036.0000     6.5301    92.1103    34.6162    14.4838    81.1373    12.6248   -38.8313
 1036.5000     6.5157    92.5669    34.4696    14.9623    75.8095    13.7563   -39.4866
 1037.0000     6.5167    93.5405    34.0783    15.5306    71.6543    14.7595   -40.7214
 1037.5000     6.5022    92.8696    33.1198    15.9297    67.7384    15.4709   -42.8460
 1038.0000     6.4878    93.5338    32.8222    16.3090    65.4988    15.8445   -45.2104
 1038.5000     6.4586    93.1529    32.2224    17.0266    63.1449    16.2588   -50.7391
 1039.0000     6.4443    92.3193    31.1684    17.6695    61.7039    16.2601   -51.0343
 1039.5000     6.4451   113.9331    32.9867    18.3832    61.6916    16.2616   -49.8662
 1040.0000     6.4458    90.8764    32.9912    18.6468    61.6760    15.9342   -46.5570
 1040.5000     6.4465    91.8568    32.2404    18.6728    63.5667    15.4514   -45.0261
 1041.0000     6.4473    90.8705    33.6044    18.5247    65.7415    14.9209   -44.6140
 1041.5000     6.4330    91.9257    34.2131    18.2994    69.1146    14.8475   -44.7087
 1042.0000     6.4186    94.3415    32.2538    17.8901    71.1679    14.4514   -44.9875
 1042.5000     6.4196    94.9433    29.8389    17.4088    72.8293    13.9539   -45.6481
 1043.0000     6.4051    94.6379    28.9032    17.1783    73.5629    13.7818   -46.0954
 1043.5000     6.4060    95.0885    25.2091    16.9631    73.5479    13.6578   -45.1916
 1044.0000     6.4067    94.4444    21.6096    16.8000    72.7828    13.6592   -43.8505
 1044.5000     6.4075    93.0410    22.5643    16.7252    72.4413    13.7354   -43.4411
 1045.0000     6.4082    93.5671    28.0522    16.5934    72.0060    13.7371   -43.2489
 1045.5000     6.4089    93.8672    31.9842    16.5944    71.4958    13.7384   -43.6943
 1046.0000     6.4097    94.6194    34.2545    16.5955    70.4790    13.7459   -46.1372
 1046.5000     6.4104    94.7683    35.4675    16.5969    70.4630    14.0882   -48.6048
 1047.0000     6.4112    95.5960    36.6804    16.6948    70.4491    14.3827   -48.4660
 1047.5000     6.4119    96.3489    38.1955    16.7482    70.4341    14.4919   -47.8428
 1048.0000     6.3976    96.4979    40.1637    16.7493    70.4166    14.4544   -47.7014
 1048.5000     6.3833    95.5871    39.1108    16.7504    70.4042    14.3348   -47.5035
 1049.0000     6.3842    94.2236    36.5473    16.7517    70.3887    14.1975   -46.6526
 1049.5000     6.3849    92.9357    35.7954    16.7526    70.7897    14.0957   -45.0347
 1050.0000     6.3854    92.4036    36.1020    16.7537    71.8578    13.9013   -43.3929
 1050.5000     6.3855    91.9451    36.4083    16.7088    72.5878    13.6607   -42.3215
 1051.0000     6.3855    91.6377    39.5835    16.5893    73.9070    13.3453   -42.8575
 1051.5000     6.3855    91.7265    40.9460    16.3841    74.8077    13.0838   -43.8192
 1052.0000     6.3705    92.8774    37.3237    16.2060    76.7467    12.8251   -44.6856
 1052.5000     6.3705    94.4795    33.7013    15.8513    78.1063    12.6981   -45.1801
 1053.0000     6.3705    95.5597    32.0426    15.4920    79.9985    12.4158   -45.2876
 1053.5000     6.3705    95.9346    30.8372    15.2218    81.4049    12.2167   -45.1371
 1054.0000     6.3705    95.9316    29.3296    14.9717    83.8021    11.7459   -44.9668
 1054.5000     6.3705    95.7775    27.2178    14.5921    85.6974    11.7160   -44.6821
 1055.0000     6.3705    95.3965    26.0123    14.3768    86.6793    11.7638   -44.5752
 1055.5000     6.3705    95.6203    26.9217    14.5274    85.9122    11.8253   -44.0804
 1056.0000     6.3705    94.9370    27.8310    15.2447    84.0218    12.2152   -42.6587
 1056.5000     6.3709    92.9688    28.5893    16.3267    81.9640    12.8132   -40.8762
 1057.0000     6.4018    90.7738    29.0455    16.9311    79.8777    13.1752   -38.2590
 1057.5000     6.4629    89.0323    29.9548    17.7406    78.1124    13.1988   -37.5459
 1058.0000     6.5060    85.7791    31.4684    19.0105    76.1074    13.3274   -36.8942
 1058.5000     6.5361    79.8804    34.1904    19.5315    75.6698    13.0987   -36.3124
 1059.0000     6.5512    76.5516    34.7976    19.6096    75.3293    12.7713   -36.3100
 1059.5000     6.5512    74.9613    35.1027    18.2677    76.0609    12.3604   -36.3068
 1060.0000     6.5512    76.2433    35.7100    16.5275    77.3953    12.0180   -36.3040
 1060.5000     6.5361    77.2229    35.4011    15.1355    79.7931    11.6083   -36.8160
 1061.0000     6.5361    80.7724    35.9176    13.6888    82.6573    10.9566   -37.6389
 1061.5000     6.5361    83.8684    38.3325    13.2446    85.6885    10.5142   -37.9923
 1062.0000     6.5361    87.6447    39.1964    12.9748    92.4537    10.2751   -38.2295
 1062.5000     6.5361    90.7407    39.3505    12.8389    97.6172    10.2018   -38.2265
 1063.0000     6.5361    91.4220    39.5051    12.7480    99.2141    10.1284   -38.0745
 1063.5000     6.5361    91.7173    38.2997    12.6049    99.8952    10.1303   -37.7732
 1064.0000     6.5361    90.8828    34.6773    12.5861   100.0997    10.1584   -37.6274
 1064.5000     6.5361    91.0311    33.9242    12.4579   100.6138    10.2078   -37.4401
 1065.0000     6.5361    91.0280    36.3449    12.3470    99.8503    10.2093   -37.0189
 1065.5000     6.5361    90.6863    38.1606    12.3021    99.8353    10.2108   -36.8174
 1066.0000     6.5361    89.7088    42.9974    12.2373    99.8179    10.2124   -36.4172
 1066.5000     6.5361    89.5829    44.8131    12.1638    99.8054    10.2481   -36.2653
 1067.0000     6.5361    90.3350    46.9309    12.0903    99.7901    10.2960   -35.9642
 1067.5000     6.4910    89.7273    49.1998    12.0168    99.0269    10.3665   -35.8119
 1068.0000     6.4608    89.1197    48.1454    12.0179    98.8724    10.3677   -35.7456
 1068.5000     6.4458    88.8143    46.0336    12.0192    98.2466    10.3693   -35.6505
 1069.0000     6.4157    88.5845    45.7337    11.9455    98.2335    10.4454   -35.4064
 1069.5000     6.3102    88.5060    47.8522    11.9466    98.2024    10.4469   -35.3112
 1070.0000     6.4458    88.4274    45.2873    11.8980    97.4551    10.5234   -35.2010
 1070.5000     6.5361    88.5007    44.8363    11.8741    96.6916    10.5247   -35.0492
 1071.0000     6.6114    88.4969    40.7615    11.8754    96.6753    10.5262   -35.0258
 1071.5000     6.5964    88.5695    38.3476    11.8765    96.6617    10.5277   -34.7447
 1072.0000     6.5813    88.4909    38.2296    11.8776    97.3960    10.4542   -34.6866
 1072.5000     6.5813    88.4879  -999.2500    11.8789    97.3774    10.4560   -34.5901
 1073.0000     6.5813    88.3338  -999.2500    11.8799    97.5923    10.4185   -34.4381
 1073.5000     6.5813    88.1796  -999.2500    11.8810    98.0988    10.3840   -34.2861
 1074.0000     6.5663    88.1010  -999.2500    11.8821    98.0838    10.3859   -34.1338
 1074.5000     6.5663    88.0224  -999.2500    11.8832    98.0689    10.3303   -34.1311
 1075.0000     6.5663    88.0194  -999.2500    11.8843    98.0516    10.2392   -33.9791
 1075.5000     6.5512    87.9408  -999.2500    11.8854    98.0389    10.1196   -33.9756
 1076.0000     6.5512    87.9378  -999.2500    11.8095    98.0237    10.0925   -33.9732
 1076.5000     6.5512    87.8592  -999.2500    11.7387    98.0090    10.0196   -33.9701
 1077.0000     6.5361    87.8562  -999.2500    11.7396    97.9940    10.0209   -33.9672
 1077.5000     6.5361    87.8532  -999.2500    11.6661    97.9773    10.0224   -33.9642
 1078.0000     6.5361    87.7746  -999.2500    11.6099    98.2784    10.0242   -33.9609
 1078.5000     6.5361    87.7716  -999.2500    11.5936    99.4464    10.0254   -33.8092
 1079.0000     6.5361    87.7686  -999.2500    11.5949    99.9126    10.0269   -33.8063
 1079.5000     6.5361    87.7656  -999.2500    11.5959   100.9155    10.0284   -33.8033
 1080.0000     6.5361    87.6870  -999.2500    11.5224   100.8970    10.0299   -33.8003
 1080.5000     6.5361    87.8352  -999.2500    11.5235   101.6317    10.0316   -33.7971
