~VERSION INFORMATION
 VERS.                2.0:   CWLS LOG ASCII STANDARD - VERSION 2.0
 WRAP.                 NO:   ONE LINE PER DEPTH STEP
~WELL INFORMATION
#MNEM.UNIT      DATA TYPE    INFORMATION
#----------   ------------   ------------------------------
 STRT.F           80.0000:   START DEPTH
 STOP.F         1100.0000:   STOP DEPTH
 STEP.F            0.5000:   STEP LENGTH
 NULL.          -999.2500:   NO VALUE
 COMP.          U.S. NAVY:   COMPANY
 WELL.     NPR #3 #65-S-2:   WELL
 FLD .             TEAPOT:   FIELD
 LOC .       S2 T38N R78W:   LOCATION
 CNTY.            NATRONA:   COUNTY
 STAT.            WYOMING:   STATE
 CTRY. UNITED STATES OF AMERICA:   COUNTRY
 SRVC.       Schlumberger:   SERVICE COMPANY
 DATE.        17-JUL-1964:   LOGDATE
 API .       490250642600:   API NUMBER
~CURVE INFORMATION
#MNEM.UNIT       API CODE    CURVE DESCRIPTION
#----------   ------------   ------------------------------
 DEPT.F                  :   
 CALS.IN     60 280 50 00:   CALIPER FROM SONIC LOG
 DT  .US/F   60 520 33 00:   INTERVAL TRANSIT TIME
 GR  .GAPI   30 310 01 00:   GAMMA RAY
 ASN .OHMM   05 041 16 00:   AMPLIFIER SHORT NORMAL 16"
 CILD.MMHO   05 110 46 00:   CONDUCTIVITY INDUCTION LOG DEEP
 ILD .OHMM   05 120 46 00:   INDUCTION LOG DEEP
 SPR .MV     05 010 01 00:   SPONTANEOUS POTENTIAL FROM RES.
~PARAMETER INFORMATION
#MNEM.UNIT          VALUE    DESCRIPTION
#----------   ------------   ------------------------------
 PD  .                 GL:   PERMANENT DATUM
 EPD .F              5199:   ELEVATION PERMANENT DATUM
 LMF .                 KB:   LOG MEASURED FROM
 DAPD.F                 5:   FEET ABOVE PERMANENT DATUM
 DMF .                 KB:   DRILLING MEASURED FROM
 EKB .F              5204:   KELLING BUSHING
 EGL .F              5199:   GROUND LEVEL
 DATE.        17-JUL-1964:   RUN DATE
 RUN .                  1:   RUN NUMBER
 DD  .F              1100:   DEPTH DRILLER
 DL  .F              1101:   DEPTH LOGGER
 BLI .F              1100:   BOTTOM LOG INTERVAL
 TLI .F                85:   TOP LOG INTERVAL
 CS  .IN            8.625:   CASING SIZE
 CBD .F                10:   CASING BOTTOM DRILLER
 BS  .IN             6.75:   BIT SIZE
 BSD .F              1100:   BIT SIZE AT DEPTH
 DFT .                GEL:   DRILLING FLUID TYPE
 DFD .                9.5:   DRILLING FLUID DENSITY
 DFV .                 47:   DRILLING FLUID VISCOSITY
 MSS .           FLOWLINE:   MUD SAMPLE SOURCE
 RMS .OHMM           2.60:   RESISTIVITY MUD SAMPLE
 MST .F                80:   MUD SAMPLE TEMPERATURE
 RMF .OHMM           1.65:   RESISTIVITY MUD FILTRATE SAMPLE
 MFST.F                80:   MUD FILTRATE SAMPLE TEMPERATURE
 RMC .OHMM           2.53:   RESISTIVITY MUD CAKE
 MCST.F                80:   MUD CAKE SAMPLE TEMPERATURE
 MFSS.                 FP:   MUD FILTRATE SAMPLE SOURCE
 MCSS.                 FP:   MUD CAKE SAMPLE SOURCE
 TCS .HRS               2:   TIME CURCULATED STOPPED
 LUN .               4507:   LOGGING UNIT NUMBER
 LUL .               CSPR:   LOGGING UNIT LOCATION
 ENGI.             DANNER:   RECORDING ENGINEER
 CLNT.            A2DTECH:   CLIENT CODE
 ORIG.        2" 5" PRINT:   ORIGIN OF DATA
 UWI .       490250642600:   UNIQUE WELL ID
 DICO. A2D Technologies, Inc.:   DIGITIZING COMPANY
~OTHER INFORMATION
~A   DEPT     CALS         DT         GR          ASN      CILD         ILD      SPR   
# ...
  762.5000     7.0030    92.8194    76.9255    10.8955   106.2251     9.7658   -34.0907
  763.0000     6.9735    92.7420    76.1796    11.1194   104.1119     9.9001   -34.2385
  763.5000     6.9439    93.4208    73.9213    11.3495   102.1389    10.0283   -34.2370
  764.0000     6.9146    99.7685    73.3227    11.4677   101.0679    10.0299   -34.3845
  764.5000     6.9151    92.2840    76.9575    11.6418   100.5963    10.0318   -34.4185
  765.0000     6.9308    92.2069    77.5693    11.7910    99.8503    10.0336   -34.6794
  765.5000     6.8561    91.4496    79.8427    11.7910    99.8353    10.0355   -34.6781
  766.0000     6.7964    90.5411    80.4526    11.7910    99.8190    10.0375   -34.6875
  766.5000     6.7517    91.7490    74.1176    11.6729    99.8054    10.0392   -34.8241
  767.0000     6.7373    92.7301    71.7082    11.6418    99.7904    10.0411   -34.7784
  767.5000     6.7681    92.5019    69.4499    11.5672   100.5210     9.9686   -34.6720
  768.0000     6.8289    92.6515    67.7958    11.4925   101.6965     9.8495   -34.2951
  768.5000     6.9061    92.9524    65.0843    11.4925   102.7395     9.7478   -34.0730
  769.0000     6.9205    92.3855    63.4302    11.4179   104.6057     9.6348   -34.0713
  769.5000     6.8759    91.7397    63.2848    11.3309   105.8884     9.5907   -34.0700
  770.0000     6.8917    91.4359    64.5026    11.1940   108.6802     9.5291   -34.2176
  770.5000     6.9224    91.1320    62.8485    11.0261   109.6732     9.4563   -34.5375
  771.0000     6.8928    90.9794    60.4392    10.8955   110.1497     9.3834   -34.6619
  771.5000     6.8332    91.0535    59.3893    10.8955   109.7131     9.2648   -34.6600
  772.0000     6.8186    95.2091    58.7926    10.8955   109.2415     9.2374   -34.4481
  772.5000     6.8645   137.8380    58.9512    10.9391   107.1088     9.3892   -34.3554
  773.0000     6.9103    99.9685    60.0161    11.2189   105.0099     9.5339   -34.3035
  773.5000     6.9259    94.3733    62.5916    11.4925   102.5898     9.7718   -34.4492
  774.0000     6.9265    91.4996    65.3182    11.7662   102.1158     9.9181   -34.5037
  774.5000     6.9271    90.8934    68.3469    11.9403   101.8114     9.9944   -34.5725
  775.0000     6.9252    87.7929    70.4692    12.1269   101.7949     9.9964   -34.6499
  775.5000     6.8230    85.3985    72.4405    12.2388   101.7814     9.9981   -34.6480
  776.0000     6.7332    96.4099    72.7483    12.1393   101.8065     9.9251   -34.8415
  776.5000     6.7489   129.0583    70.1897    11.8656   102.5000     9.8527   -35.2414
  777.0000     6.7645    86.3508    63.7018    11.3433   102.4850     9.7795   -35.3189
  777.5000     6.7651    88.7677    63.4053    11.1007   102.4690     9.7814   -35.3876
  778.0000     6.7657    91.7897    64.3211    10.7463   106.1876     9.5884   -35.3858
  778.5000     6.7663    94.1313    65.2349    10.5100   111.0605     9.4696   -35.3301
  779.0000     6.7669    96.0195    65.6957    10.2736   117.3925     9.2640   -35.2340
  779.5000     6.7675    96.6987    65.8542    10.0000   120.8584     9.0487   -35.1448
  780.0000     6.7681    96.0165    62.9917     9.8856   123.3527     8.8042   -35.0820
  780.5000     6.7687    95.4859    62.0910     9.7497   125.6486     8.4477   -35.2293
  781.0000     6.7693    95.7112    64.0642     9.6194   126.4321     8.1806   -35.2280
  781.5000     6.7700    95.9365    67.3950     9.4851   127.0509     8.0027   -35.3756
  782.0000     6.7706    96.3149    70.7258     9.3731   128.0638     7.9297   -35.2250
  782.5000     6.7712    96.6969    69.9780     9.2836   129.2663     7.8567   -35.0360
  783.0000     6.7718    97.1544    66.5112     9.1940   129.2515     7.8590   -34.7748
  783.5000     6.7724    97.5175    66.8209     9.1219   129.2365     7.8606   -34.4809
  784.0000     6.7880    97.5920    67.5837     9.0746   129.9683     7.8625   -34.1620
  784.5000     6.7886    97.2878    65.7785     9.1007   130.2720     7.8644   -34.0251
  785.0000     6.8193    96.9083    64.5757     9.1493   130.6889     7.8662   -34.0238
  785.5000     6.8500    96.6801    66.2468     9.0448   130.6737     7.8683   -34.0223
  786.0000     6.8807    96.6030    66.8585     8.9851   130.6587     7.8700   -34.0209
  786.5000     6.8801    96.5260    70.1893     8.9254   130.6424     7.8718   -34.0194
  787.0000     6.8819    96.4489    70.4990     8.8955   130.2744     7.8737   -34.1667
  787.5000     6.8674    96.4474    73.0745     8.8968   129.8029     7.8974   -34.2213
  788.0000     6.8682    96.4459    75.9521     8.9303   129.0989     7.9523   -34.4620
  788.5000     6.8085    96.5200    75.5065     8.9627   128.3383     7.9930   -34.6095
  789.0000     6.7639    96.3633    71.1333     8.9851   128.3225     8.0306   -34.9374
  789.5000     6.7344    96.2051    65.5518     9.0274   128.3084     8.0328   -35.2025
  790.0000     6.7198    95.4570    64.3489     9.0149   128.2934     7.9322   -35.2012
  790.5000     6.7205    95.3803    66.1711     8.9677   128.2761     7.8868   -35.0440
  791.0000     6.7211    95.8320    67.3870     8.9204   128.5280     7.7693   -34.8023
  791.5000     6.7066    95.5281    67.5456     8.8358   128.9970     7.6505   -34.3716
  792.0000     6.7223    95.2243    65.2873     8.7065   133.0538     7.4441   -34.0029
  792.5000     6.7229    95.4496    61.3674     8.4776   140.1324     7.2303   -33.6301
  793.0000     6.7536    96.2039    57.2963     8.2910   146.9142     6.9908   -33.3731
  793.5000     6.7844    97.1095    57.6060     8.0448   151.1031     6.6508   -33.1041
  794.0000     6.8152    98.3930    53.5350     7.7911   155.9083     6.4048   -33.1028
  794.5000     6.8459    99.3741    55.5062     7.6306   160.2471     6.3323   -33.1013
  795.0000     6.8916    99.8261    56.4201     7.4776   163.4980     6.2593   -33.2489
  795.5000     6.9374   100.2026    56.7298     7.3843   163.3069     6.2809   -33.2474
  796.0000     6.9531    99.8111    61.4201     7.3731   160.4389     6.5623   -33.3947
  796.5000     6.9687    99.3334    62.1829     7.5324   157.1483     6.7674   -33.3934
  797.0000     6.9844    98.4593    64.1542     7.6791   154.0219     6.9395   -33.6900
  797.5000     6.9699    97.8531    65.2191     7.7313   152.5574     7.0161   -33.7792
  798.0000     6.9404    97.9276    62.3566     7.7363   152.0050     6.9870   -34.0179
  798.5000     6.8945    97.8501    61.9109     7.7612   152.3678     6.8703   -34.1326
  799.0000     6.8336    97.4707    61.3142     7.7761   152.7256     6.8722   -34.2802
  799.5000     6.8066    97.6204    60.5665     7.8234   152.7070     6.8818   -34.1297
  800.0000     6.8525    96.9385    63.8973     7.8407   151.6975     7.1251   -34.1279
  800.5000     6.8376    97.0882    64.6601     7.8126   146.6911     7.3259   -34.1244
  801.0000     6.8681    97.3134    64.6677     7.8047   144.3563     7.3267   -34.1205
  801.5000     6.8985    97.0096    64.6752     8.0015   141.3036     7.4396   -33.9680
  802.0000     6.9290    96.4034    63.7158     8.1126   139.1595     7.4783   -33.9642
  802.5000     6.9443    95.8728    62.2733     8.1948   138.1175     7.4796   -33.9599
  803.0000     6.9295    95.4178    60.1120     8.2716   137.6346     7.4806   -33.9051
  803.5000     6.8847    95.2651    61.7477     8.4190   136.4284     7.4817   -33.6549
  804.0000     6.8398    94.9613    63.5409     8.5375   137.6066     7.4828   -33.6513
  804.5000     6.8552    94.5818    70.7630     8.5983   138.3365     7.3975   -33.6475
  805.0000     6.9308    94.2783    69.7131     8.5388   139.6958     7.3356   -33.7924
  805.5000     6.9913    95.4858    68.8097     8.4748   140.5727     7.2620   -34.5701
  806.0000     6.9615    96.3914    68.2034     8.3871   141.7614     7.2631   -35.1267
  806.5000     6.8714    96.6922    67.9227     8.3007   142.0232     7.3088   -34.7832
  807.0000     6.7362    97.2198    63.7024     8.2244   142.0046     7.3401   -34.1495
  807.5000     6.6612    97.8230    60.9908     8.1515   141.2425     7.3413   -33.9229
