~VERSION INFORMATION
 VERS.                2.0:   CWLS LOG ASCII STANDARD - VERSION 2.0
 WRAP.                 NO:   ONE LINE PER DEPTH STEP
~WELL INFORMATION
#MNEM.UNIT      DATA TYPE    INFORMATION
#----------   ------------   ------------------------------
 STRT.F          180.0000:   START DEPTH
 STOP.F         3280.0000:   STOP DEPTH
 STEP.F            0.5000:   STEP LENGTH
 NULL.          -999.2500:   NO VALUE
 COMP.    FENIX & SCISSON:   COMPANY
 WELL.  FENIX "AX" #85-10:   WELL
 FLD .              NPR 3:   FIELD
 LOC .      S10 T38N R78W:   LOCATION
 CNTY.            NATRONA:   COUNTY
 STAT.            WYOMING:   STATE
 CTRY. UNITED STATES OF AMERICA:   COUNTRY
 SRVC.       SCHLUMBERGER:   SERVICE COMPANY
 DATE.        03-JUL-1977:   LOGDATE
 API .     49025104000000:   API NUMBER
~CURVE INFORMATION
#MNEM.UNIT       API CODE    CURVE DESCRIPTION
#----------   ------------   ------------------------------
 DEPT.F                  :   
 SPR .MV     11 010 01 00:   SPONTANEOUS POTENTIAL FROM RES.
 MSFL.OHMM   11 270 04 00:   MICRO SPHERICALLY FOCUSED
 LLD .OHMM   11 220 10 00:   LATEROLOG LOG DEEP
 LLS .OHMM   11 220 09 00:   LATEROLOG LOG SHALLOW
 GRD .GAPI   45 310 01 00:   GAMMA RAY FROM DENSITY LOG
 CALD.IN     45 280 60 00:   CALIPER FROM DENSITY LOG
 CORR.G/C3   45 356 01 00:   DENSITY CORRECTION
 RHOB.G/C3   45 350 01 00:   BULK DENSITY
 NPHI.DEC    42 890 03 00:   NEUTRON POROSITY SANDSTONE
~PARAMETER INFORMATION
#MNEM.UNIT          VALUE    DESCRIPTION
#----------   ------------   ------------------------------
 EKB .F         5210.0000:   Kelly bushing
 EGL .F         5200.0000:   Ground level
 EDF .F            0.0000:   Drilling floor
 TD  .F         3265.0000:   Total depth
 DATE.        03-JUL-1977:   Date logged
 CLNT.            A2DTECH:   Client Code
 SL  . 2000' FSL & 100' FEL:   Surface Location
 PD  .                 GL:   Permanent Datum
 EPD .F              5200:   Elevation Permanent Datum
 LMF .                 KB:   Log Measured From
 DMF .                 KB:   Drilling Measured From
 DAPD.F                10:   Feet Above Permanent Datum
 DD  .F              3261:   Depth driller
 DL  .F              3265:   Depth logger
 BLI .F              2364:   Bottom log interval
 TLI .F               220:   Top log interval
 CS1 .IN            8.625:   Casing size
 CBD1.      8.625" @ 220':   Casing driller 1
 CBL1.F               220:   Casing logger 1
 BS1 .IN            7.875:   Bit size
 BSD1.F              3261:   Depth drilled with bit1
 DFT .                KCL:   Type fluid in hole
 DFD .                9.7:   Density
 DFV .                 38:   Viscosity
 DFPH.                7.5:   pH
 DFL .                 40:   Fluid loss
 MSS .                PIT:   Source of sample
 RMS .OHMM          0.167:   Rm
 MST .F                78:   Rm Meas. temp.
 RMF .OHMM          0.167:   Rmf
 MFST.F                78:   Rmf Meas. temp.
 MFSS.               MEAS:   Source Rmf.
 RMB .OHMM          0.103:   Rm. at BHT
 BHT .F               126:   BHT.
 TLAB.HRS            0930:   Time logger at bottom
 MRT .F               126:   Maximum recorded temp.
 LUN .               5642:   Logging unit number
 LUL .               CSPR:   Logging unit location
 ENGI.             MARTIN:   Recorded By
 WITN.         PETTINGILL:   Witnessed by
 ORIG.           5" PRINT:   Origin of data
 UWI .     49025104000000:   Unique Well ID
 DICO. A2D TECHNOLOGIES, INC.:   Digitizing Company
~OTHER INFORMATION
~A   DEPT      SPR       MSFL        LLD        LLS         GRD      CALD        CORR        RHOB       NPHI 
# ...
  837.0000   -33.3680    11.8180     8.9830    10.1480   110.0850    11.5770     0.0040     2.5140     0.2800
  837.5000   -33.4410    11.8500     8.8400    10.0370   110.4890    11.5930     0.0140     2.5080     0.2760
  838.0000   -33.5130    11.5880     8.6970     9.9270   108.2680    11.6090     0.0140     2.5260     0.2690
  838.5000   -33.5850    11.3130     8.5540     9.8170   106.1450    11.6080     0.0060     2.5230     0.2630
  839.0000   -33.6580    11.0380     8.4110     9.7070   106.5780    11.5940     0.0050     2.5280     0.2670
  839.5000   -33.7300    10.8100     8.2070     9.5970   109.0540    11.5810     0.0080     2.5230     0.2710
  840.0000   -33.8020    11.0030     8.2110     9.5940   108.7560    11.5930     0.0120     2.5150     0.2760
  840.5000   -33.8760    11.2520     8.2180     9.5060   109.0780    11.6050     0.0320     2.5400     0.2800
  841.0000   -33.8280    11.5010     8.2240     9.5000   109.5160    11.6120     0.0420     2.5640     0.2850
  841.5000   -33.7130    11.7500     8.2310     9.4930   109.9680    11.6170     0.0360     2.5320     0.2870
  842.0000   -33.5980    11.8500     8.2380     9.4860   110.2960    11.6540     0.0310     2.5390     0.2840
  842.5000   -33.4820    11.7310     8.2440     9.4790   107.6900    11.6960     0.0250     2.5510     0.2820
  843.0000   -33.3660    11.6340     8.2510     9.4720   104.8500    11.6320     0.0180     2.5350     0.2800
  843.5000   -33.2500    11.5280     8.2580     9.4650   100.9320    11.5500     0.0180     2.5300     0.2800
  844.0000   -33.1340    11.5780     8.2640     9.4580   102.9280    11.4780     0.0190     2.5350     0.2870
  844.5000   -33.0180    11.6340     8.2710     9.4510   105.9370    11.4930     0.0190     2.5330     0.2890
  845.0000   -32.9080    11.4360     8.2780     9.4440   104.6290    11.5230     0.0180     2.5410     0.2800
  845.5000   -32.9250    11.0530     8.2830     9.4370   103.1590    11.5700     0.0160     2.5320     0.2730
  846.0000   -32.9590    10.6130     8.2830     9.4300   101.5940    11.6170     0.0150     2.5390     0.2710
  846.5000   -32.9920    10.8040     8.2830     9.4190   101.8290    11.6650     0.0200     2.5300     0.2790
  847.0000   -33.0250    11.0940     8.2830     9.4310   104.1400    11.7120     0.0260     2.5420     0.2750
  847.5000   -33.0590    11.3850     8.2830     9.4560   106.3860    11.7350     0.0230     2.5380     0.2790
  848.0000   -33.0940    11.5690     8.2830     9.4810   108.6300    11.7350     0.0180     2.5350     0.2880
  848.5000   -33.1920    11.7380     8.2830     9.5060   110.9220    11.7360     0.0140     2.5290     0.2970
  849.0000   -33.3820    11.9070     8.2830     9.5310   110.9270    11.7370     0.0090     2.5310     0.3010
  849.5000   -33.5720    11.9590     8.2830     9.5560   108.7070    11.7000     0.0060     2.5210     0.2970
  850.0000   -33.7700    11.8250     8.2830     9.5840   106.4620    11.6690     0.0090     2.5120     0.2890
  850.5000   -34.0390    11.7220     8.2830     9.5940   106.5840    11.6310     0.0180     2.5340     0.2800
  851.0000   -33.9370    11.6190     8.2880     9.5060   107.0690    11.5930     0.0270     2.5540     0.2720
  851.5000   -33.7910    11.5280     8.2990     9.5200   107.5460    11.5770     0.0300     2.5660     0.2670
  852.0000   -33.6460    11.4060     8.3090     9.5310   107.9570    11.5770     0.0290     2.5540     0.2720
  852.5000   -33.5040    11.2750     8.3190     9.5420   108.1560    11.5790     0.0230     2.5340     0.2770
  853.0000   -33.3610    11.2150     8.3300     9.5530   107.8410    11.5870     0.0180     2.5370     0.2820
  853.5000   -33.2180    11.3140     8.3400     9.5630   106.1430    11.5950     0.0160     2.5370     0.2760
  854.0000   -33.0750    11.4470     8.3510     9.5740   104.7380    11.6020     0.0150     2.5350     0.2680
  854.5000   -32.9320    11.5800     8.3600     9.5850   105.6450    11.6100     0.0140     2.5490     0.2700
  855.0000   -32.7890    11.7420     8.3160     9.5940   106.5630    11.6160     0.0130     2.5550     0.2700
  855.5000   -32.6470    11.5380     8.2610     9.5720   107.4620    11.6120     0.0120     2.5400     0.2700
  856.0000   -32.5040    11.2770     8.2050     9.4560   108.3780    11.6080     0.0120     2.5420     0.2740
  856.5000   -32.3600    11.0160     8.1490     9.3410   107.6140    11.6040     0.0120     2.5230     0.2770
  857.0000   -32.2180    10.7110     8.0940     9.2250   105.8100    11.6000     0.0140     2.5270     0.2790
  857.5000   -32.1150    10.8000     8.0380     9.1090   104.2690    11.5970     0.0160     2.5320     0.2730
  858.0000   -32.1990    10.9080     7.9840     8.9960   106.3020    11.5730     0.0180     2.5360     0.2680
  858.5000   -32.2780    11.0170     8.0130     8.9960   108.5900    11.5650     0.0160     2.5290     0.2720
  859.0000   -32.3560    11.1260     8.0420     8.9960   109.4740    11.5550     0.0120     2.5260     0.2760
  859.5000   -32.4350    11.2340     8.0700     9.0160   107.5800    11.5460     0.0090     2.5270     0.2810
  860.0000   -32.5130    11.3430     8.0990     9.0460   107.6780    11.5370     0.0050     2.5220     0.2850
  860.5000   -32.5910    11.4220     8.1270     9.0760   107.8870    11.5370     0.0030     2.5190     0.2900
  861.0000   -32.6700    11.2890     8.1550     9.1060   107.6770    11.5460     0.0140     2.5330     0.2880
  861.5000   -32.7480    11.0900     8.1840     9.1360   106.5550    11.5570     0.0260     2.5500     0.2850
  862.0000   -32.8270    10.9100     8.2120     9.1630   105.5950    11.5680     0.0350     2.5640     0.2810
  862.5000   -32.9020    10.9560     8.2410     9.1630   106.0400    11.5790     0.0270     2.5560     0.2800
  863.0000   -32.8590    11.0500     8.2690     9.1490   106.3900    11.5890     0.0180     2.5450     0.2800
  863.5000   -32.7430    11.1430     8.2830     9.1030   105.3500    11.6000     0.0180     2.5480     0.2820
  864.0000   -32.6270    11.2370     8.2480     9.0570   104.4730    11.6120     0.0280     2.5630     0.2830
  864.5000   -32.5120    11.3070     8.2170     9.0110   104.8950    11.6330     0.0410     2.5850     0.2890
  865.0000   -32.3970    11.1430     8.1860     8.9650   104.8750    11.6580     0.0350     2.5780     0.2960
  865.5000   -32.2810    11.0450     8.1540     8.9190   103.8110    11.6810     0.0310     2.5670     0.2910
  866.0000   -32.1660    10.9480     8.1230     8.8730   103.9610    11.7040     0.0390     2.5720     0.2830
  866.5000   -32.0500    10.8500     8.0920     8.8270   105.0840    11.7270     0.0320     2.5480     0.2800
  867.0000   -31.9350    10.7530     8.0610     8.7810   105.3690    11.7510     0.0210     2.5410     0.2850
  867.5000   -31.8200    10.7110     8.0290     8.7440   105.2090    11.7550     0.0190     2.5350     0.2890
  868.0000   -31.7250    10.7380     7.9980     8.7210   106.8210    11.7560     0.0200     2.5310     0.2900
  868.5000   -31.7690    10.8060     7.9670     8.6990   107.1530    11.7550     0.0210     2.5290     0.2900
  869.0000   -31.8140    10.8750     7.9360     8.6760   107.1510    11.7550     0.0230     2.5290     0.2850
  869.5000   -31.8590    10.9430     7.9040     8.6540   108.1570    11.7550     0.0250     2.5370     0.2800
  870.0000   -31.9030    11.0110     7.8730     8.6320   109.7790    11.7550     0.0090     2.5270     0.2770
  870.5000   -31.9470    10.8310     7.8420     8.6090   110.6960    11.7550     0.0090     2.5170     0.2840
  871.0000   -31.9920    10.6460     7.8110     8.5870   109.7870    11.7660     0.0140     2.5280     0.2880
  871.5000   -32.0360    10.4600     7.7790     8.5640   108.8740    11.7780     0.0190     2.5410     0.2870
  872.0000   -32.0810    10.2750     7.7480     8.5420   108.5070    11.7910     0.0230     2.5340     0.2810
  872.5000   -32.1190    10.1370     7.7170     8.5190   109.1880    11.8030     0.0170     2.5480     0.2750
  873.0000   -32.0210    10.2010     7.6860     8.4970   109.8530    11.8160     0.0100     2.5560     0.2690
