~VERSION INFORMATION
 VERS.                2.0:   CWLS LOG ASCII STANDARD - VERSION 2.0
 WRAP.                 NO:   ONE LINE PER DEPTH STEP
~WELL INFORMATION
#MNEM.UNIT      DATA TYPE    INFORMATION
#----------   ------------   ------------------------------
 STRT.F          180.0000:   START DEPTH
 STOP.F         3280.0000:   STOP DEPTH
 STEP.F            0.5000:   STEP LENGTH
 NULL.          -999.2500:   NO VALUE
 COMP.    FENIX & SCISSON:   COMPANY
 WELL.  FENIX "AX" #85-10:   WELL
 FLD .              NPR 3:   FIELD
 LOC .      S10 T38N R78W:   LOCATION
 CNTY.            NATRONA:   COUNTY
 STAT.            WYOMING:   STATE
 CTRY. UNITED STATES OF AMERICA:   COUNTRY
 SRVC.       SCHLUMBERGER:   SERVICE COMPANY
 DATE.        03-JUL-1977:   LOGDATE
 API .     49025104000000:   API NUMBER
~CURVE INFORMATION
#MNEM.UNIT       API CODE    CURVE DESCRIPTION
#----------   ------------   ------------------------------
 DEPT.F                  :   
 SPR .MV     11 010 01 00:   SPONTANEOUS POTENTIAL FROM RES.
 MSFL.OHMM   11 270 04 00:   MICRO SPHERICALLY FOCUSED
 LLD .OHMM   11 220 10 00:   LATEROLOG LOG DEEP
 LLS .OHMM   11 220 09 00:   LATEROLOG LOG SHALLOW
 GRD .GAPI   45 310 01 00:   GAMMA RAY FROM DENSITY LOG
 CALD.IN     45 280 60 00:   CALIPER FROM DENSITY LOG
 CORR.G/C3   45 356 01 00:   DENSITY CORRECTION
 RHOB.G/C3   45 350 01 00:   BULK DENSITY
 NPHI.DEC    42 890 03 00:   NEUTRON POROSITY SANDSTONE
~PARAMETER INFORMATION
#MNEM.UNIT          VALUE    DESCRIPTION
#----------   ------------   ------------------------------
 EKB .F         5210.0000:   Kelly bushing
 EGL .F         5200.0000:   Ground level
 EDF .F            0.0000:   Drilling floor
 TD  .F         3265.0000:   Total depth
 DATE.        03-JUL-1977:   Date logged
 CLNT.            A2DTECH:   Client Code
 SL  . 2000' FSL & 100' FEL:   Surface Location
 PD  .                 GL:   Permanent Datum
 EPD .F              5200:   Elevation Permanent Datum
 LMF .                 KB:   Log Measured From
 DMF .                 KB:   Drilling Measured From
 DAPD.F                10:   Feet Above Permanent Datum
 DD  .F              3261:   Depth driller
 DL  .F              3265:   Depth logger
 BLI .F              2364:   Bottom log interval
 TLI .F               220:   Top log interval
 CS1 .IN            8.625:   Casing size
 CBD1.      8.625" @ 220':   Casing driller 1
 CBL1.F               220:   Casing logger 1
 BS1 .IN            7.875:   Bit size
 BSD1.F              3261:   Depth drilled with bit1
 DFT .                KCL:   Type fluid in hole
 DFD .                9.7:   Density
 DFV .                 38:   Viscosity
 DFPH.                7.5:   pH
 DFL .                 40:   Fluid loss
 MSS .                PIT:   Source of sample
 RMS .OHMM          0.167:   Rm
 MST .F                78:   Rm Meas. temp.
 RMF .OHMM          0.167:   Rmf
 MFST.F                78:   Rmf Meas. temp.
 MFSS.               MEAS:   Source Rmf.
 RMB .OHMM          0.103:   Rm. at BHT
 BHT .F               126:   BHT.
 TLAB.HRS            0930:   Time logger at bottom
 MRT .F               126:   Maximum recorded temp.
 LUN .               5642:   Logging unit number
 LUL .               CSPR:   Logging unit location
 ENGI.             MARTIN:   Recorded By
 WITN.         PETTINGILL:   Witnessed by
 ORIG.           5" PRINT:   Origin of data
 UWI .     49025104000000:   Unique Well ID
 DICO. A2D TECHNOLOGIES, INC.:   Digitizing Company
~OTHER INFORMATION
~A   DEPT      SPR       MSFL        LLD        LLS         GRD      CALD        CORR        RHOB       NPHI 
# ...
 2041.5000   -37.5710    11.9590     8.0580     9.9390   139.5380    10.0060     0.0160     2.4920     0.3120
 2042.0000   -37.4900    12.6490     8.1340     9.9200   136.9120    10.0060     0.0220     2.4990     0.3080
 2042.5000   -37.4080    13.2300     8.2970     9.9000   137.8460    10.0130     0.0160     2.4990     0.3140
 2043.0000   -37.3270    12.3390     8.5140     9.8800   139.8550    10.0200     0.0090     2.4960     0.3200
 2043.5000   -37.2460    11.9590     8.3430     9.8620   141.9010    10.0270     0.0090     2.5010     0.3260
 2044.0000   -37.1650    12.7530     8.0890     9.6810   143.5950    10.0340     0.0050     2.4960     0.3290
 2044.5000   -37.0810    11.9590     7.9710     9.5120   144.1560    10.0410     0.0010     2.4920     0.3270
 2045.0000   -37.0570    12.4070     7.9260     9.3440   143.3360    10.0480     0.0010     2.5020     0.3250
 2045.5000   -37.1700    12.2980     7.8800     9.1750   142.5370    10.0550     0.0050     2.5040     0.3290
 2046.0000   -37.4180    12.1370     7.8390     9.0070   141.6440    10.0620     0.0080     2.5030     0.3330
 2046.5000   -37.6660    11.9770     7.7330     8.8380   138.6190    10.0650     0.0090     2.5120     0.3370
 2047.0000   -37.9140    11.6340     7.6260     8.7520   135.6420    10.0520     0.0090     2.5060     0.3380
 2047.5000   -38.1620    11.6340     7.7160     9.2080   132.6910    10.0390     0.0100     2.5030     0.3300
 2048.0000   -38.4100    12.1320     7.8480     9.5610   129.7460    10.0270     0.0110     2.5080     0.3220
 2048.5000   -38.6560    12.5710     7.9800     9.9530   126.8250    10.0040     0.0130     2.5010     0.3150
 2049.0000   -38.8400    13.2300     8.1110     9.7420   125.4690     9.9970     0.0150     2.4990     0.3070
 2049.5000   -38.8550    11.6050     8.2830     9.3160   128.8810     9.9900     0.0240     2.5010     0.3110
 2050.0000   -38.6350     8.3350     7.3100     8.8900   132.7910     9.9820     0.0290     2.4920     0.3160
 2050.5000   -38.5610     6.7060     6.0060     8.5930   136.7960     9.9750     0.0150     2.4810     0.3000
 2051.0000   -38.4690    11.8320     6.6830     9.1530   135.9860     9.9670     0.0120     2.4830     0.2960
 2051.5000   -38.3800    14.2390     7.9110     9.6620   135.4110     9.9590     0.0090     2.5030     0.2940
 2052.0000   -38.2920    13.5920     8.8770    10.1700   136.3860     9.9520     0.0110     2.4990     0.2960
 2052.5000   -38.2040    13.1090     9.2750    10.6780   138.2640     9.9470     0.0200     2.5070     0.2990
 2053.0000   -38.1160    14.2090     9.6730    11.1860   140.1480     9.9500     0.0250     2.5010     0.3020
 2053.5000   -38.0280    15.1910    10.0560    11.5280   142.1260     9.9530     0.0280     2.4920     0.3050
 2054.0000   -37.9390    16.0440    10.3730    11.7620   145.2270     9.9560     0.0190     2.4910     0.3080
 2054.5000   -37.8500    16.2940    10.6900    12.0140   148.4940     9.9590     0.0100     2.4900     0.3110
 2055.0000   -37.8730    16.5630    11.0060    12.2660   151.7330     9.9620     0.0190     2.4990     0.3150
 2055.5000   -37.9700    16.8310    11.2150    12.5180   154.7330     9.9650     0.0270     2.4930     0.3200
 2056.0000   -38.0640    16.9960    11.4040    12.7700   155.6480     9.9680     0.0010     2.4800     0.3270
 2056.5000   -38.1560    17.2910    11.6040    13.0220   156.6410     9.9710     0.0050     2.4710     0.3340
 2057.0000   -38.2500    17.5860    11.8050    13.2740   157.6400     9.9740     0.0120     2.4770     0.3380
 2057.5000   -38.3440    17.8810    12.0060    13.5260   158.6460     9.9770     0.0050     2.4730     0.3350
 2058.0000   -38.4340    18.2450    12.2060    13.7780   159.6480     9.9800    -0.0010     2.4550     0.3280
 2058.5000   -38.3490    17.9900    12.2930    14.0300   161.4630     9.9830    -0.0030     2.4530     0.3220
 2059.0000   -38.2550    17.4590    11.9770    14.2390   164.4220     9.9860     0.0000     2.4700     0.3290
 2059.5000   -38.1610    16.9280    11.7060    14.0960   168.1900     9.9840     0.0070     2.4780     0.3340
 2060.0000   -38.0670    16.4350    11.4360    13.9480   177.9040     9.9810     0.0140     2.4740     0.3390
 2060.5000   -37.9730    16.0440    11.2150    13.8010   188.4170     9.9780     0.0180     2.4710     0.3320
 2061.0000   -37.8790    16.5390    11.4220    13.6530   194.9800     9.9750     0.0220     2.4860     0.3340
 2061.5000   -37.7850    17.4260    11.1950    13.4750   182.5430     9.9720     0.0210     2.5040     0.3390
 2062.0000   -37.6910    16.0440    11.0110    13.6390   170.4000     9.9690     0.0240     2.5000     0.3440
 2062.5000   -37.5970    16.7500    11.2670    13.8450   158.4750     9.9660     0.0280     2.4810     0.3480
 2063.0000   -37.5040    17.9310    11.5890    14.0520   150.3100     9.9660     0.0140     2.4560     0.3450
 2063.5000   -37.4100    19.1020    11.9110    14.2580   145.1500     9.9730    -0.0070     2.4320     0.3390
 2064.0000   -37.3160    18.1670    12.2930    14.5030   140.0670     9.9800     0.0010     2.4450     0.3270
 2064.5000   -37.2230    17.0100    11.9930    14.3030   138.2940     9.9870     0.0050     2.4520     0.3140
 2065.0000   -37.1270    16.7980    11.5030    13.9780   139.0340     9.9950     0.0030     2.4500     0.3160
 2065.5000   -37.0340    17.7440    11.3180    13.7250   140.2860    10.0020     0.0080     2.4500     0.3180
 2066.0000   -37.3210    18.8960    11.9040    13.9190   139.7790    10.0060     0.0170     2.4510     0.3170
 2066.5000   -37.4790    20.0480    12.4770    14.3730   138.7780    10.0140     0.0110     2.4550     0.3160
 2067.0000   -37.6430    21.2000    13.0500    14.8280   139.2010    10.0220    -0.0010     2.4520     0.3060
 2067.5000   -37.8040    22.5360    13.6000    15.2820   139.6070    10.0300     0.0080     2.4550     0.2990
 2068.0000   -37.9650    20.8030    13.3320    15.7360   140.0250    10.0380     0.0220     2.4510     0.2890
 2068.5000   -38.1260    18.4220    13.0080    15.8980   140.4720    10.0460     0.0070     2.4510     0.2950
 2069.0000   -38.2870    17.4460    12.6840    15.0860   140.1270    10.0540     0.0130     2.4620     0.3000
 2069.5000   -38.4360    17.2280    12.0680    14.4500   136.9180    10.0620     0.0190     2.4630     0.3010
 2070.0000   -38.4400    14.6950    11.3210    13.8140   133.4120    10.0630     0.0110     2.4550     0.3010
 2070.5000   -38.4390    10.7110    10.5750    13.3480   131.3680    10.0590     0.0040     2.4410     0.3010
 2071.0000   -38.4350    13.3260    10.2310    12.8040   131.4850    10.0540     0.0070     2.4290     0.3020
 2071.5000   -38.3480    16.1920    10.2310    12.4070   135.1350    10.0500     0.0140     2.4370     0.3020
 2072.0000   -38.2620    12.3420    10.2310    12.2930   138.9310    10.0450     0.0170     2.4460     0.3030
 2072.5000   -38.1760     9.1630    10.2310    12.1980   141.7840    10.0390     0.0060     2.4420     0.3010
 2073.0000   -38.0910    13.3810    10.2310    11.9040   142.8720    10.0330     0.0110     2.4460     0.3030
 2073.5000   -38.0050    16.7980    10.4200    11.5610   143.5760    10.0260     0.0140     2.4480     0.3050
 2074.0000   -37.9200    10.2160    10.5950    11.2170   143.9750    10.0260     0.0060     2.4410     0.3070
 2074.5000   -37.8340     9.4190    10.0440    11.1120   145.3090    10.0290     0.0110     2.4450     0.3090
 2075.0000   -37.7490    14.2610    10.1370    11.3180   146.1180    10.0350     0.0130     2.4510     0.3120
 2075.5000   -37.6620    18.0000    11.0110    12.3090   144.8700    10.0410     0.0030     2.4400     0.3140
 2076.0000   -37.5700    19.6360    11.9810    13.2100   141.7040    10.0460     0.0010     2.4310     0.3150
 2076.5000   -37.4960    19.0600    13.2300    14.1120   138.5600    10.0520     0.0060     2.4450     0.3170
 2077.0000   -37.1350    18.6240    12.8120    14.3700   135.4460    10.0580     0.0100     2.4580     0.3200
 2077.5000   -37.6110    17.7140    12.2260    13.8780   132.9440    10.0640     0.0110     2.4640     0.3230
