~VERSION INFORMATION
 VERS.                2.0:   CWLS LOG ASCII STANDARD - VERSION 2.0
 WRAP.                 NO:   ONE LINE PER DEPTH STEP
~WELL INFORMATION
#MNEM.UNIT      DATA TYPE    INFORMATION
#----------   ------------   ------------------------------
 STRT.F          180.0000:   START DEPTH
 STOP.F         3280.0000:   STOP DEPTH
 STEP.F            0.5000:   STEP LENGTH
 NULL.          -999.2500:   NO VALUE
 COMP.    FENIX & SCISSON:   COMPANY
 WELL.  FENIX "AX" #85-10:   WELL
 FLD .              NPR 3:   FIELD
 LOC .      S10 T38N R78W:   LOCATION
 CNTY.            NATRONA:   COUNTY
 STAT.            WYOMING:   STATE
 CTRY. UNITED STATES OF AMERICA:   COUNTRY
 SRVC.       SCHLUMBERGER:   SERVICE COMPANY
 DATE.        03-JUL-1977:   LOGDATE
 API .     49025104000000:   API NUMBER
~CURVE INFORMATION
#MNEM.UNIT       API CODE    CURVE DESCRIPTION
#----------   ------------   ------------------------------
 DEPT.F                  :   
 SPR .MV     11 010 01 00:   SPONTANEOUS POTENTIAL FROM RES.
 MSFL.OHMM   11 270 04 00:   MICRO SPHERICALLY FOCUSED
 LLD .OHMM   11 220 10 00:   LATEROLOG LOG DEEP
 LLS .OHMM   11 220 09 00:   LATEROLOG LOG SHALLOW
 GRD .GAPI   45 310 01 00:   GAMMA RAY FROM DENSITY LOG
 CALD.IN     45 280 60 00:   CALIPER FROM DENSITY LOG
 CORR.G/C3   45 356 01 00:   DENSITY CORRECTION
 RHOB.G/C3   45 350 01 00:   BULK DENSITY
 NPHI.DEC    42 890 03 00:   NEUTRON POROSITY SANDSTONE
~PARAMETER INFORMATION
#MNEM.UNIT          VALUE    DESCRIPTION
#----------   ------------   ------------------------------
 EKB .F         5210.0000:   Kelly bushing
 EGL .F         5200.0000:   Ground level
 EDF .F            0.0000:   Drilling floor
 TD  .F         3265.0000:   Total depth
 DATE.        03-JUL-1977:   Date logged
 CLNT.            A2DTECH:   Client Code
 SL  . 2000' FSL & 100' FEL:   Surface Location
 PD  .                 GL:   Permanent Datum
 EPD .F              5200:   Elevation Permanent Datum
 LMF .                 KB:   Log Measured From
 DMF .                 KB:   Drilling Measured From
 DAPD.F                10:   Feet Above Permanent Datum
 DD  .F              3261:   Depth driller
 DL  .F              3265:   Depth logger
 BLI .F              2364:   Bottom log interval
 TLI .F               220:   Top log interval
 CS1 .IN            8.625:   Casing size
 CBD1.      8.625" @ 220':   Casing driller 1
 CBL1.F               220:   Casing logger 1
 BS1 .IN            7.875:   Bit size
 BSD1.F              3261:   Depth drilled with bit1
 DFT .                KCL:   Type fluid in hole
 DFD .                9.7:   Density
 DFV .                 38:   Viscosity
 DFPH.                7.5:   pH
 DFL .                 40:   Fluid loss
 MSS .                PIT:   Source of sample
 RMS .OHMM          0.167:   Rm
 MST .F                78:   Rm Meas. temp.
 RMF .OHMM          0.167:   Rmf
 MFST.F                78:   Rmf Meas. temp.
 MFSS.               MEAS:   Source Rmf.
 RMB .OHMM          0.103:   Rm. at BHT
 BHT .F               126:   BHT.
 TLAB.HRS            0930:   Time logger at bottom
 MRT .F               126:   Maximum recorded temp.
 LUN .               5642:   Logging unit number
 LUL .               CSPR:   Logging unit location
 ENGI.             MARTIN:   Recorded By
 WITN.         PETTINGILL:   Witnessed by
 ORIG.           5" PRINT:   Origin of data
 UWI .     49025104000000:   Unique Well ID
 DICO. A2D TECHNOLOGIES, INC.:   Digitizing Company
~OTHER INFORMATION
~A   DEPT      SPR       MSFL        LLD        LLS         GRD      CALD        CORR        RHOB       NPHI 
# ...
 2625.5000    -6.4840     1.8310    17.9600    11.6250    83.2060     9.0320     0.1490     2.4600     0.2040
 2626.0000    -5.1330     1.7710    16.6410    10.8920    86.4000     9.0320     0.1410     2.4590     0.2000
 2626.5000    -3.7810     1.8870    15.8980    10.0440    90.2000     9.0360     0.1300     2.4640     0.1960
 2627.0000    -2.4390     2.0000    16.7900    10.4660    91.1030     9.0450     0.1240  -999.2500     0.1930
 2627.5000    -1.0980     2.1280    17.9440    10.9740    86.7180     9.0540     0.1260  -999.2500     0.1910
 2628.0000     0.0000     2.1030    19.4570    11.7420    83.2600     9.0620     0.1350     2.4840     0.1950
 2628.5000     0.0000     2.0520    18.8900    11.6340    81.5400     9.0740     0.1360     2.4710     0.1980
 2629.0000     0.0000     1.9950    17.7360    11.1960    87.2580     9.1200     0.1250     2.4740     0.1950
 2629.5000     0.0000     2.0650    16.9530    10.5380    91.8350     9.1560     0.1040     2.4370     0.1890
 2630.0000     0.0000     2.1620    17.5050    10.2310    91.3500     9.1900     0.0910     2.4550     0.1860
 2630.5000     0.0000     2.1870    18.5430    10.6120    89.8040     9.2250     0.0800     2.4480     0.1940
 2631.0000     0.0000     2.1150    19.5800    11.0110    88.0660     9.2510     0.0640     2.4410     0.2000
 2631.5000     0.0000     2.0510    19.8170    10.6470    86.2430     9.2360     0.0730     2.4340     0.2060
 2632.0000     0.0000     1.9880    17.6390    10.1370    84.4370     9.2190     0.0930     2.4550     0.2010
 2632.5000     0.0000     1.9250    17.1090    10.1370    82.6300     9.1950     0.1040     2.4440     0.1950
 2633.0000    -0.0480     1.8620    17.1090     9.9530    81.0070     9.1840     0.1030     2.4560     0.1890
 2633.5000    -0.1200     1.7990    16.9530     9.7720    79.5720     9.1790     0.0900     2.4460     0.1890
 2634.0000    -0.1920     1.7390    15.9010     9.4600    78.1290     9.1740     0.0820     2.4290     0.1910
 2634.5000    -0.2640     1.7970    14.8870     8.9610    78.5960     9.1800     0.0940     2.4520     0.1880
 2635.0000    -0.3350     1.8660    13.3520     8.2070    81.7390     9.2110     0.1010     2.4670     0.1860
 2635.5000    -0.4100     1.9390    13.8590     8.3590    84.7840     9.2430     0.0890     2.4440     0.1830
 2636.0000    -0.5010     1.9310    14.8990     9.0650    87.8500     9.2620     0.0860     2.4370     0.1810
 2636.5000    -0.3190     1.9190    15.6080     9.5940    89.6490     9.2900     0.0890     2.4590     0.1890
 2637.0000    -0.4410     1.9060    15.3220     9.4980    91.2750     9.2490     0.1000     2.4670     0.1970
 2637.5000    -0.5530     1.8880    15.0520     9.3160    94.2900     9.2820     0.1030     2.4520     0.2050
 2638.0000    -0.6680     1.8880    14.7720     9.1630    95.5970     9.2880     0.0870     2.4470     0.2120
 2638.5000    -0.7850     1.9290    14.9960     9.1630    94.8050     9.2690     0.0970     2.4570     0.2130
 2639.0000    -0.9330     1.9910    15.4980     9.4560    93.9510     9.2490     0.0840     2.4460     0.2140
 2639.5000    -1.3360     2.0530    15.8980     9.8120    93.0930     9.2350     0.0920     2.4510     0.2060
 2640.0000    -1.7430     2.1140    15.5350    10.2310    92.2340     9.2650     0.0790     2.4340     0.1990
 2640.5000    -2.1500     2.1760    15.1800     9.8920    92.8800     9.2950     0.1050     2.4740     0.1920
 2641.0000    -2.5560     2.2380    14.7720     9.4190    95.0680     9.3220     0.1120     2.4780     0.1900
 2641.5000    -2.9620     2.3330    15.1510    10.2680    96.8340     9.3850     0.1200     2.4720     0.1980
 2642.0000    -3.3680     2.2600    15.5980    11.2150    95.4360     9.3990     0.1270     2.4740     0.2060
 2642.5000    -3.7750     2.0890    16.0450    10.6130    94.1730     9.2680     0.1080     2.4550     0.2040
 2643.0000    -4.1810     2.1960    16.4910    11.3890    92.9320     9.3380     0.1050     2.4550     0.1990
 2643.5000    -4.5880     2.3370    16.7980    11.9930    90.1010     9.3500     0.1140     2.4630     0.1950
 2644.0000    -4.9920     2.3760    17.0380    12.6370    85.3820     9.3460     0.0960     2.4570     0.1950
 2644.5000    -5.2180     3.0160    17.7720    12.6370    80.6860     9.3260     0.0910     2.4420     0.1870
 2645.0000    -5.4200     5.5080    18.2100    12.4730    75.9780     9.3230     0.0860     2.4530     0.1760
 2645.5000    -5.6220     8.6050    17.9130    12.0110    71.2780     9.4000     0.0810     2.4710     0.1650
 2646.0000    -5.8220    42.6700    20.6050    11.6340    70.5980     9.4840     0.0550     2.5040     0.1320
 2646.5000    -5.7340   216.0960    23.5990    16.7470    74.2740     9.5040     0.0340     2.5390     0.0950
 2647.0000    -5.4580   284.1660    86.8420    31.7750    79.3230     9.4850     0.0310     2.5710     0.0890
 2647.5000    -5.1860   192.2480   190.2340    69.0900    84.3580     9.4660     0.0530     2.5840     0.0950
 2648.0000    -4.9150   105.5160   227.9600    60.1780    89.3940     9.4050     0.0980     2.5680     0.1200
 2648.5000    -4.6430    16.5770    42.3790    39.8250    93.5610     9.3440     0.1200     2.5450     0.1440
 2649.0000    -4.3690     3.2060    30.2630    22.9710    94.9500     9.2930     0.1340     2.4550     0.1670
 2649.5000    -4.0940     2.3640    22.1530    15.6630    95.7610     9.3550     0.1120     2.4150     0.1930
 2650.0000    -3.8920     2.2690    15.9590    11.6120    98.3630     9.4150     0.0950     2.4060     0.2140
 2650.5000    -4.0460     2.3830    13.4750    10.9080    99.0460     9.4760     0.0900     2.4010     0.2160
 2651.0000    -4.4640     2.4860    14.1090    10.4200    98.8770     9.5290     0.1130     2.4190     0.2170
 2651.5000    -4.9180     2.6490    13.7590    11.2150    99.7070     9.5300     0.1250     2.4350     0.2100
 2652.0000    -5.2440     2.9470    13.2670    10.2310   101.0580     9.6090     0.1030     2.4280     0.2020
 2652.5000    -5.2490     3.2450    12.6370    10.4780   100.0170     9.7630     0.0880     2.4210     0.1910
 2653.0000    -5.2730     3.6250    13.1170    10.9560    98.9550     9.8430     0.0740     2.4240     0.1940
 2653.5000    -5.2980     3.4160    14.1530    11.4340    97.9180     9.9220     0.0710     2.4110     0.2000
 2654.0000    -5.3220     3.1290    15.4660    11.8500    97.4670     9.8490     0.0890     2.4170     0.2040
 2654.5000    -5.3460     2.8420    15.1440    11.7420    98.3740     9.7260     0.1080     2.4190     0.2040
 2655.0000    -5.3700     2.6530    14.7060    11.3300    99.2360     9.7540     0.1240     2.4470     0.2030
 2655.5000    -5.3940     2.8940    14.2680    10.8910   100.0780     9.7780     0.1350     2.4610     0.2040
 2656.0000    -5.4190     3.2200    13.8300    10.5160   100.5350     9.8010     0.1230     2.4490     0.2110
 2656.5000    -5.4650     3.5460    13.3920    10.4250    98.7900     9.8670     0.1040     2.4370     0.2080
 2657.0000    -5.5700     3.8560    13.1090    10.3250    97.0840     9.8040     0.0950     2.4340     0.2160
 2657.5000    -5.6710     4.1520    13.2300    10.3250    96.3380     9.8530     0.0960     2.4470     0.2130
 2658.0000    -5.7720     4.4490    13.4660    10.8530    98.1860     9.7720     0.1090     2.4510     0.2060
 2658.5000    -5.8740     5.4230    14.1170    11.3090   100.0060     9.7050     0.1130     2.4670     0.1990
 2659.0000    -5.9760     7.0230    14.7680    11.9590   101.6910     9.7030     0.0910     2.4800     0.1910
 2659.5000    -6.0780     8.6220    15.4190    11.8500   104.7860     9.8520     0.0810     2.4900     0.1860
 2660.0000    -6.1760    10.2220    16.0690    12.2410   107.4570    10.0260     0.0870     2.5170     0.1890
 2660.5000    -6.1380    11.7200    16.3420    12.5740   107.5110    10.1740     0.0560     2.4950     0.1930
 2661.0000    -5.8440    12.9890    16.0740    13.0730   106.5190    10.3000     0.0340     2.4820     0.1960
 2661.5000    -5.5800    12.4260    15.6180    12.8830   106.3340    10.3230     0.0280     2.4860     0.2000
