~VERSION INFORMATION
 VERS.                2.0:   CWLS LOG ASCII STANDARD - VERSION 2.0
 WRAP.                 NO:   ONE LINE PER DEPTH STEP
~WELL INFORMATION
#MNEM.UNIT      DATA TYPE    INFORMATION
#----------   ------------   ------------------------------
 STRT.F           80.0000:   START DEPTH
 STOP.F         1100.0000:   STOP DEPTH
 STEP.F            0.5000:   STEP LENGTH
 NULL.          -999.2500:   NO VALUE
 COMP.          U.S. NAVY:   COMPANY
 WELL.     NPR #3 #65-S-2:   WELL
 FLD .             TEAPOT:   FIELD
 LOC .       S2 T38N R78W:   LOCATION
 CNTY.            NATRONA:   COUNTY
 STAT.            WYOMING:   STATE
 CTRY. UNITED STATES OF AMERICA:   COUNTRY
 SRVC.       Schlumberger:   SERVICE COMPANY
 DATE.        17-JUL-1964:   LOGDATE
 API .       490250642600:   API NUMBER
~CURVE INFORMATION
#MNEM.UNIT       API CODE    CURVE DESCRIPTION
#----------   ------------   ------------------------------
 DEPT.F                  :   
 CALS.IN     60 280 50 00:   CALIPER FROM SONIC LOG
 DT  .US/F   60 520 33 00:   INTERVAL TRANSIT TIME
 GR  .GAPI   30 310 01 00:   GAMMA RAY
 ASN .OHMM   05 041 16 00:   AMPLIFIER SHORT NORMAL 16"
 CILD.MMHO   05 110 46 00:   CONDUCTIVITY INDUCTION LOG DEEP
 ILD .OHMM   05 120 46 00:   INDUCTION LOG DEEP
 SPR .MV     05 010 01 00:   SPONTANEOUS POTENTIAL FROM RES.
~PARAMETER INFORMATION
#MNEM.UNIT          VALUE    DESCRIPTION
#----------   ------------   ------------------------------
 PD  .                 GL:   PERMANENT DATUM
 EPD .F              5199:   ELEVATION PERMANENT DATUM
 LMF .                 KB:   LOG MEASURED FROM
 DAPD.F                 5:   FEET ABOVE PERMANENT DATUM
 DMF .                 KB:   DRILLING MEASURED FROM
 EKB .F              5204:   KELLING BUSHING
 EGL .F              5199:   GROUND LEVEL
 DATE.        17-JUL-1964:   RUN DATE
 RUN .                  1:   RUN NUMBER
 DD  .F              1100:   DEPTH DRILLER
 DL  .F              1101:   DEPTH LOGGER
 BLI .F              1100:   BOTTOM LOG INTERVAL
 TLI .F                85:   TOP LOG INTERVAL
 CS  .IN            8.625:   CASING SIZE
 CBD .F                10:   CASING BOTTOM DRILLER
 BS  .IN             6.75:   BIT SIZE
 BSD .F              1100:   BIT SIZE AT DEPTH
 DFT .                GEL:   DRILLING FLUID TYPE
 DFD .                9.5:   DRILLING FLUID DENSITY
 DFV .                 47:   DRILLING FLUID VISCOSITY
 MSS .           FLOWLINE:   MUD SAMPLE SOURCE
 RMS .OHMM           2.60:   RESISTIVITY MUD SAMPLE
 MST .F                80:   MUD SAMPLE TEMPERATURE
 RMF .OHMM           1.65:   RESISTIVITY MUD FILTRATE SAMPLE
 MFST.F                80:   MUD FILTRATE SAMPLE TEMPERATURE
 RMC .OHMM           2.53:   RESISTIVITY MUD CAKE
 MCST.F                80:   MUD CAKE SAMPLE TEMPERATURE
 MFSS.                 FP:   MUD FILTRATE SAMPLE SOURCE
 MCSS.                 FP:   MUD CAKE SAMPLE SOURCE
 TCS .HRS               2:   TIME CURCULATED STOPPED
 LUN .               4507:   LOGGING UNIT NUMBER
 LUL .               CSPR:   LOGGING UNIT LOCATION
 ENGI.             DANNER:   RECORDING ENGINEER
 CLNT.            A2DTECH:   CLIENT CODE
 ORIG.        2" 5" PRINT:   ORIGIN OF DATA
 UWI .       490250642600:   UNIQUE WELL ID
 DICO. A2D Technologies, Inc.:   DIGITIZING COMPANY
~OTHER INFORMATION
~A   DEPT     CALS         DT         GR          ASN      CILD         ILD      SPR   
# ...
  444.0000  -999.2500  -999.2500  -999.2500     6.2689   185.9281     5.3630   -34.8256
  444.5000  -999.2500  -999.2500  -999.2500     6.3016   186.8388     5.3649   -34.2941
  445.0000  -999.2500  -999.2500  -999.2500     6.4791   187.9491     5.3662   -33.9419
  445.5000  -999.2500  -999.2500  -999.2500     6.5527   189.4386     5.4489   -33.9379
  446.0000  -999.2500  -999.2500  -999.2500     6.5844   189.4312     5.5190   -33.9344
  446.5000  -999.2500  -999.2500  -999.2500     6.3602   189.4223     5.6697   -33.9307
  447.0000  -999.2500  -999.2500  -999.2500     6.2737   189.4162     5.7459   -33.9264
  447.5000  -999.2500  -999.2500  -999.2500     6.1213   189.4084     5.8221   -33.9232
  448.0000  -999.2500  -999.2500  -999.2500     6.0287   189.4012     5.8236   -33.9195
  448.5000  -999.2500  -999.2500  -999.2500     5.9572   189.3937     5.9000   -34.0104
  449.0000  -999.2500  -999.2500  -999.2500     5.9426   189.3852     5.8376   -34.2107
  449.5000  -999.2500  -999.2500  -999.2500     5.9543   188.3408     5.5187   -34.3552
  450.0000  -999.2500  -999.2500  -999.2500     6.0030   187.8743     5.2566   -34.3517
  450.5000  -999.2500  -999.2500  -999.2500     6.1208   188.6153     5.2329   -34.3480
  451.0000  -999.2500  -999.2500  -999.2500     6.1533   189.3573     5.2348   -34.3437
  451.5000  -999.2500  -999.2500  -999.2500     6.1686   192.3421     5.2362   -34.3405
  452.0000  -999.2500  -999.2500  -999.2500     6.1469   195.8682     5.2267   -34.1877
  452.5000  -999.2500  -999.2500  -999.2500     6.1218   200.7111     5.0899   -34.0934
  453.0000  -999.2500  -999.2500  -999.2500     6.0797   208.0374     4.8839   -33.8823
  453.5000  -999.2500  -999.2500  -999.2500     5.5842   210.7161     4.6442   -33.7292
  454.0000  -999.2500  -999.2500  -999.2500     5.3168   214.7600     4.6457   -33.6552
  454.5000  -999.2500  -999.2500  -999.2500     5.2407   219.3039     4.6472   -33.5730
  455.0000  -999.2500  -999.2500  -999.2500     5.1926   223.9271     4.6489   -33.5686
  455.5000  -999.2500  -999.2500  -999.2500     5.1680   225.9644     4.6866   -33.5656
  456.0000  -999.2500  -999.2500  -999.2500     5.1683   226.7066     4.8012   -33.5618
  456.5000  -999.2500  -999.2500  -999.2500     5.1840   226.6990     4.8029   -33.6760
  457.0000  -999.2500  -999.2500  -999.2500     5.2517   226.2525     4.8789   -33.8529
  457.5000  -999.2500  -999.2500  -999.2500     5.3263   224.8877     4.9552   -34.1464
  458.0000  -999.2500  -999.2500  -999.2500     5.3791   222.1848     4.9567   -34.2096
  458.5000  -999.2500  -999.2500  -999.2500     5.4088   220.2021     4.9581   -34.4376
  459.0000  -999.2500  -999.2500  -999.2500     5.4410   218.3832     4.9598   -34.5820
  459.5000  -999.2500  -999.2500  -999.2500     5.4698   216.5643     5.0359   -34.5790
  460.0000     6.7364  -999.2500  -999.2500     5.4701   214.4711     5.1121   -34.4261
  460.5000     6.7422  -999.2500  -999.2500     5.4404   212.4171     5.1139   -34.4225
  461.0000     6.7480  -999.2500  -999.2500     5.4023   211.2924     5.1151   -34.2697
  461.5000     6.7214  -999.2500  -999.2500     5.3811   209.9976     5.1914   -34.2656
  462.0000     6.7371  -999.2500  -999.2500     5.4114   207.1544     5.1928   -34.4739
  462.5000     6.7527  -999.2500  -999.2500     5.4853   205.1522     5.2691   -34.7181
  463.0000     6.7532  -999.2500  -999.2500     5.6390   202.6495     5.2708   -35.0000
  463.5000     6.7538  -999.2500  -999.2500     5.7409   197.9717     5.2720   -35.1460
  464.0000     6.7693  -999.2500  -999.2500     5.7758   191.3774     5.2735   -34.9923
  464.5000     6.7699  -999.2500  -999.2500     5.8171   183.9137     5.2267   -34.6908
  465.0000     6.4842  -999.2500  -999.2500     5.9072   180.3144     5.2015   -34.3666
  465.5000     5.5810  -999.2500  -999.2500     6.0492   177.9017     5.1287   -34.0867
  466.0000     6.8618  -999.2500  -999.2500     6.1174   176.2176     5.1300   -33.9344
  466.5000     6.9376  -999.2500  -999.2500     6.1326   174.9027     5.1315   -34.0798
  467.0000     6.9080  -999.2500  -999.2500     6.1030   174.8945     5.1333   -34.1709
  467.5000     6.8633  -999.2500  -999.2500     6.0559   175.6362     5.1345   -34.3709
  468.0000     6.7886  -999.2500  -999.2500     5.9778   177.3651     5.0613   -34.3663
  468.5000     6.7288  -999.2500  -999.2500     5.9542   186.0989     4.9880   -34.3629
  469.0000     6.6985  -999.2500  -999.2500     5.9545   193.9770     4.9557   -34.3408
  469.5000     6.6696  -999.2500  -999.2500     5.9698   200.3065     4.6922   -34.0568
  470.0000     6.6702  -999.2500  -999.2500     5.5409   206.4371     4.4743   -33.7009
  470.5000     6.7160  -999.2500  -999.2500     5.2650   215.8305     4.3084   -33.4538
  471.0000     6.7767  -999.2500  -999.2500     4.9827   234.7144     4.0989   -33.4501
  471.5000     6.8375  -999.2500  -999.2500     4.6878   250.9653     4.1001   -33.5959
  472.0000     6.8380  -999.2500  -999.2500     4.3455   280.3592     4.0270   -33.5913
  472.5000     6.8235  -999.2500  -999.2500     4.0105   327.0584     3.1664   -33.5879
  473.0000     6.7336  -999.2500  -999.2500     3.6505   362.6588     2.5959   -33.5698
  473.5000     6.6438  -999.2500  -999.2500     3.3075   391.1145     2.4621   -33.4308
  474.0000     6.6141  -999.2500  -999.2500     3.2419   402.0658     2.4634   -33.1297
  474.5000     6.6298  -999.2500  -999.2500     3.4356   405.3221     2.4684   -32.9768
  475.0000     6.6755  -999.2500  -999.2500     3.5479   396.5818     2.5909   -32.9732
  475.5000     6.7061  -999.2500  -999.2500     3.4793   382.2834     2.8097   -32.9695
  476.0000     6.7066  -999.2500  -999.2500     3.3539   351.4067     3.2168   -33.1144
  476.5000     6.6921  -999.2500  -999.2500     3.4441   331.8093     3.6746   -33.1778
  477.0000     6.6926  -999.2500  -999.2500     3.8201   306.3619     4.1604   -33.2668
  477.5000     6.7402  -999.2500  -999.2500     4.0883   278.7787     4.6415   -33.4016
  478.0000     6.9105  -999.2500  -999.2500     4.3691   255.6194     4.9826   -33.3979
  478.5000     7.1159  -999.2500  -999.2500     4.8262   233.8546     5.3174   -33.2450
  479.0000     6.1074  -999.2500  -999.2500     5.2420   200.8737     5.4868   -33.0094
  479.5000     6.7253  -999.2500  -999.2500     5.4528   184.0194     5.6557   -32.7906
  480.0000     6.7108  -999.2500  -999.2500     5.6617   179.9392     5.8447   -32.7864
  480.5000     6.7265  -999.2500  -999.2500     5.8256   175.7010     5.9208   -32.7832
  481.0000     6.8475  -999.2500  -999.2500     6.0056   172.3602     5.9970   -32.7794
  481.5000     6.9535  -999.2500  -999.2500     6.1117   167.5223     5.9988   -32.7757
  482.0000     6.9690  -999.2500  -999.2500     6.1699   162.3052     6.1006   -32.9637
  482.5000     6.9544  -999.2500  -999.2500     6.3880   155.9500     6.3005   -33.0663
  483.0000     6.9550  -999.2500  -999.2500     6.5318   154.4760     6.4953   -33.1416
  483.5000     6.9555  -999.2500  -999.2500     6.6014   152.9416     6.5277   -33.2082
  484.0000     6.9560  -999.2500  -999.2500     6.6222   152.9328     6.5293   -33.2037
  484.5000     6.9566  -999.2500  -999.2500     6.6307   153.6453     6.4225   -33.2004
  485.0000     6.9721  -999.2500  -999.2500     6.6153   157.4099     6.2331   -33.1967
  485.5000     6.9727  -999.2500  -999.2500     6.5033   162.0334     6.0855   -33.1930
  486.0000     6.9732  -999.2500  -999.2500     6.3778   166.8563     5.9890   -33.1893
  486.5000     6.9586  -999.2500  -999.2500     6.1863   173.1052     5.8640   -33.1853
  487.0000     6.9268  -999.2500  -999.2500     5.9194   180.3147     5.7499   -33.1818
  487.5000     6.8243  -999.2500  -999.2500     5.7260   191.8039     5.6178   -33.3274
  488.0000     6.7795  -999.2500  -999.2500     5.4719   199.7904     5.3455   -33.3228
  488.5000     6.8554  -999.2500  -999.2500     5.2269   208.1163     5.1365   -33.3746
  489.0000     6.9614  -999.2500  -999.2500     5.1416   224.7148     4.7424   -33.4650
