~VERSION INFORMATION
 VERS.                2.0:   CWLS LOG ASCII STANDARD - VERSION 2.0
 WRAP.                 NO:   ONE LINE PER DEPTH STEP
~WELL INFORMATION
#MNEM.UNIT      DATA TYPE    INFORMATION
#----------   ------------   ------------------------------
 STRT.F           80.0000:   START DEPTH
 STOP.F         1100.0000:   STOP DEPTH
 STEP.F            0.5000:   STEP LENGTH
 NULL.          -999.2500:   NO VALUE
 COMP.          U.S. NAVY:   COMPANY
 WELL.     NPR #3 #65-S-2:   WELL
 FLD .             TEAPOT:   FIELD
 LOC .       S2 T38N R78W:   LOCATION
 CNTY.            NATRONA:   COUNTY
 STAT.            WYOMING:   STATE
 CTRY. UNITED STATES OF AMERICA:   COUNTRY
 SRVC.       Schlumberger:   SERVICE COMPANY
 DATE.        17-JUL-1964:   LOGDATE
 API .       490250642600:   API NUMBER
~CURVE INFORMATION
#MNEM.UNIT       API CODE    CURVE DESCRIPTION
#----------   ------------   ------------------------------
 DEPT.F                  :   
 CALS.IN     60 280 50 00:   CALIPER FROM SONIC LOG
 DT  .US/F   60 520 33 00:   INTERVAL TRANSIT TIME
 GR  .GAPI   30 310 01 00:   GAMMA RAY
 ASN .OHMM   05 041 16 00:   AMPLIFIER SHORT NORMAL 16"
 CILD.MMHO   05 110 46 00:   CONDUCTIVITY INDUCTION LOG DEEP
 ILD .OHMM   05 120 46 00:   INDUCTION LOG DEEP
 SPR .MV     05 010 01 00:   SPONTANEOUS POTENTIAL FROM RES.
~PARAMETER INFORMATION
#MNEM.UNIT          VALUE    DESCRIPTION
#----------   ------------   ------------------------------
 PD  .                 GL:   PERMANENT DATUM
 EPD .F              5199:   ELEVATION PERMANENT DATUM
 LMF .                 KB:   LOG MEASURED FROM
 DAPD.F                 5:   FEET ABOVE PERMANENT DATUM
 DMF .                 KB:   DRILLING MEASURED FROM
 EKB .F              5204:   KELLING BUSHING
 EGL .F              5199:   GROUND LEVEL
 DATE.        17-JUL-1964:   RUN DATE
 RUN .                  1:   RUN NUMBER
 DD  .F              1100:   DEPTH DRILLER
 DL  .F              1101:   DEPTH LOGGER
 BLI .F              1100:   BOTTOM LOG INTERVAL
 TLI .F                85:   TOP LOG INTERVAL
 CS  .IN            8.625:   CASING SIZE
 CBD .F                10:   CASING BOTTOM DRILLER
 BS  .IN             6.75:   BIT SIZE
 BSD .F              1100:   BIT SIZE AT DEPTH
 DFT .                GEL:   DRILLING FLUID TYPE
 DFD .                9.5:   DRILLING FLUID DENSITY
 DFV .                 47:   DRILLING FLUID VISCOSITY
 MSS .           FLOWLINE:   MUD SAMPLE SOURCE
 RMS .OHMM           2.60:   RESISTIVITY MUD SAMPLE
 MST .F                80:   MUD SAMPLE TEMPERATURE
 RMF .OHMM           1.65:   RESISTIVITY MUD FILTRATE SAMPLE
 MFST.F                80:   MUD FILTRATE SAMPLE TEMPERATURE
 RMC .OHMM           2.53:   RESISTIVITY MUD CAKE
 MCST.F                80:   MUD CAKE SAMPLE TEMPERATURE
 MFSS.                 FP:   MUD FILTRATE SAMPLE SOURCE
 MCSS.                 FP:   MUD CAKE SAMPLE SOURCE
 TCS .HRS               2:   TIME CURCULATED STOPPED
 LUN .               4507:   LOGGING UNIT NUMBER
 LUL .               CSPR:   LOGGING UNIT LOCATION
 ENGI.             DANNER:   RECORDING ENGINEER
 CLNT.            A2DTECH:   CLIENT CODE
 ORIG.        2" 5" PRINT:   ORIGIN OF DATA
 UWI .       490250642600:   UNIQUE WELL ID
 DICO. A2D Technologies, Inc.:   DIGITIZING COMPANY
~OTHER INFORMATION
~A   DEPT     CALS         DT         GR          ASN      CILD         ILD      SPR   
# ...
  353.0000  -999.2500  -999.2500  -999.2500     8.1640   140.9057     7.8565   -37.1699
  353.5000  -999.2500  -999.2500  -999.2500     8.2736   137.2567     7.8582   -37.3167
  354.0000  -999.2500  -999.2500  -999.2500     8.2740   134.6698     7.9342   -37.4635
  354.5000  -999.2500  -999.2500  -999.2500     8.2743   134.3425     8.0105   -37.4935
  355.0000  -999.2500  -999.2500  -999.2500     8.3047   133.9074     8.0123   -37.7568
  355.5000  -999.2500  -999.2500  -999.2500     8.3940   134.6482     8.0135   -37.7548
  356.0000  -999.2500  -999.2500  -999.2500     8.5246   134.6407     8.0150   -37.7526
  356.5000  -999.2500  -999.2500  -999.2500     8.6651   134.6328     8.0164   -37.6009
  357.0000  -999.2500  -999.2500  -999.2500     8.6752   134.6257     8.0062   -37.4501
  357.5000  -999.2500  -999.2500  -999.2500     8.6059   134.6183     7.9447   -37.4477
  358.0000  -999.2500  -999.2500  -999.2500     8.4338   134.6098     7.8714   -37.2171
  358.5000  -999.2500  -999.2500  -999.2500     8.3821   134.6033     7.8729   -37.1453
  359.0000  -999.2500  -999.2500  -999.2500     8.3825   134.5958     7.8744   -37.1427
  359.5000  -999.2500  -999.2500  -999.2500     8.3829   134.5883     7.8759   -37.1980
  360.0000  -999.2500  -999.2500  -999.2500     8.3832   134.7804     7.8776   -37.4367
  360.5000  -999.2500  -999.2500  -999.2500     8.3687   135.3219     7.8789   -37.4344
  361.0000  -999.2500  -999.2500  -999.2500     8.3644   136.4446     7.8804   -37.4670
  361.5000  -999.2500  -999.2500  -999.2500     8.3395   136.9024     7.8822   -37.5790
  362.0000  -999.2500  -999.2500  -999.2500     8.2935   137.5449     7.8087   -37.7258
  362.5000  -999.2500  -999.2500  -999.2500     8.3103   138.8474     7.7355   -37.7111
  363.0000  -999.2500  -999.2500  -999.2500     8.3107   140.5239     7.6938   -37.5719
  363.5000  -999.2500  -999.2500  -999.2500     8.1448   143.6876     7.5598   -37.4210
  364.0000  -999.2500  -999.2500  -999.2500     7.9221   146.1077     7.3664   -37.4187
  364.5000  -999.2500  -999.2500  -999.2500     7.9718   148.7344     7.1860   -37.4165
  365.0000  -999.2500  -999.2500  -999.2500     7.9598   150.9481     6.9880   -37.4143
  365.5000  -999.2500  -999.2500  -999.2500     7.7736   152.5412     6.7976   -37.4118
  366.0000  -999.2500  -999.2500  -999.2500     7.5937   154.6993     6.6993   -37.4098
  366.5000  -999.2500  -999.2500  -999.2500     7.4355   154.9539     6.7011   -37.4076
  367.0000  -999.2500  -999.2500  -999.2500     7.2957   155.4341     6.7773   -37.4054
  367.5000  -999.2500  -999.2500  -999.2500     7.3165   156.1751     6.7788   -37.1051
  368.0000  -999.2500  -999.2500  -999.2500     7.3264   157.6656     6.8552   -36.8046
  368.5000  -999.2500  -999.2500  -999.2500     7.3326   157.6564     6.8282   -36.5815
  369.0000  -999.2500  -999.2500  -999.2500     7.1722   158.7400     6.7833   -36.5022
  369.5000  -999.2500  -999.2500  -999.2500     6.8185   160.7536     6.7388   -36.4996
  370.0000  -999.2500  -999.2500  -999.2500     7.0235   163.6214     6.6941   -36.6468
  370.5000  -999.2500  -999.2500  -999.2500     7.3210   165.0860     6.5637   -36.6445
  371.0000  -999.2500  -999.2500  -999.2500     7.4185   169.5955     6.3453   -36.6423
  371.5000  -999.2500  -999.2500  -999.2500     7.3399   174.2740     6.1049   -36.6401
  372.0000  -999.2500  -999.2500  -999.2500     6.8204   179.7306     5.8209   -36.6376
  372.5000  -999.2500  -999.2500  -999.2500     6.6820   183.0455     5.6484   -36.4866
  373.0000  -999.2500  -999.2500  -999.2500     6.5592   184.8578     5.5994   -36.4794
  373.5000  -999.2500  -999.2500  -999.2500     6.1928   185.2772     5.5262   -36.3331
  374.0000  -999.2500  -999.2500  -999.2500     5.9258   184.7654     5.6024   -36.1818
  374.5000  -999.2500  -999.2500  -999.2500     5.9672   182.5748     5.6788   -36.1794
  375.0000  -999.2500  -999.2500  -999.2500     6.3685   180.0146     5.6801   -36.3264
  375.5000  -999.2500  -999.2500  -999.2500     6.5600   179.2016     5.6842   -36.3415
  376.0000  -999.2500  -999.2500  -999.2500     6.6437   177.5150     5.7578   -36.4709
  376.5000  -999.2500  -999.2500  -999.2500     6.6740   175.5005     5.8341   -36.4687
  377.0000  -999.2500  -999.2500  -999.2500     6.6572   173.6951     5.8357   -36.4664
  377.5000  -999.2500  -999.2500  -999.2500     6.5850   172.4925     5.8371   -36.5263
  378.0000  -999.2500  -999.2500  -999.2500     6.4839   172.4850     5.8386   -36.4322
  378.5000  -999.2500  -999.2500  -999.2500     6.4510   172.4776     5.8403   -36.1614
  379.0000  -999.2500  -999.2500  -999.2500     6.4513   172.4696     5.8416   -36.0949
  379.5000  -999.2500  -999.2500  -999.2500     6.4964   174.7256     5.8431   -35.8592
  380.0000  -999.2500  -999.2500  -999.2500     6.5869   177.3453     5.7250   -35.8569
  380.5000  -999.2500  -999.2500  -999.2500     6.6544   181.4285     5.6964   -35.8125
  381.0000  -999.2500  -999.2500  -999.2500     6.6774   183.7650     5.6235   -35.6364
  381.5000  -999.2500  -999.2500  -999.2500     6.6479   187.4027     5.5161   -35.5522
  382.0000  -999.2500  -999.2500  -999.2500     6.5923   189.8204     5.3966   -35.5698
  382.5000  -999.2500  -999.2500  -999.2500     6.4689   192.2405     5.2544   -35.6967
  383.0000  -999.2500  -999.2500  -999.2500     6.3030   194.1161     5.2556   -35.6945
  383.5000  -999.2500  -999.2500  -999.2500     6.0372   195.2208     5.2572   -35.8413
  384.0000  -999.2500  -999.2500  -999.2500     5.7366   196.3478     5.3333   -35.7496
  384.5000  -999.2500  -999.2500  -999.2500     5.7070   196.3386     5.4096   -35.6878
  385.0000  -999.2500  -999.2500  -999.2500     5.7652   196.0704     5.4113   -35.6853
  385.5000  -999.2500  -999.2500  -999.2500     6.1569   194.0792     5.5173   -35.6833
  386.0000  -999.2500  -999.2500  -999.2500     6.2320   190.9381     5.5635   -35.6910
  386.5000  -999.2500  -999.2500  -999.2500     6.2175   188.9576     5.5650   -36.1255
  387.0000  -999.2500  -999.2500  -999.2500     6.1797   187.1294     5.5857   -36.4222
  387.5000  -999.2500  -999.2500  -999.2500     6.1732   185.8159     5.6429   -36.4194
  388.0000  -999.2500  -999.2500  -999.2500     6.1737   185.8084     5.6811   -36.1888
  388.5000  -999.2500  -999.2500  -999.2500     6.1801   187.2965     5.7205   -35.9456
  389.0000  -999.2500  -999.2500  -999.2500     6.2043   188.2810     5.7222   -35.8164
  389.5000  -999.2500  -999.2500  -999.2500     6.2047   188.7800     5.7235   -35.9287
  390.0000  -999.2500  -999.2500  -999.2500     6.2051   188.3483     5.7250   -36.2593
  390.5000  -999.2500  -999.2500  -999.2500     6.2205   185.6300     5.7265   -36.4061
  391.0000  -999.2500  -999.2500  -999.2500     6.2509   183.5171     5.8027   -36.4039
  391.5000  -999.2500  -999.2500  -999.2500     6.2960   181.3673     5.8044   -36.2524
  392.0000  -999.2500  -999.2500  -999.2500     6.3114   179.7206     5.8057   -36.1013
  392.5000  -999.2500  -999.2500  -999.2500     6.3008   178.4993     5.8072   -35.9376
  393.0000  -999.2500  -999.2500  -999.2500     6.2373   178.2485     5.8090   -35.7984
  393.5000  -999.2500  -999.2500  -999.2500     6.3616   178.2406     5.8102   -35.7966
  394.0000  -999.2500  -999.2500  -999.2500     6.5374   177.0808     5.8117   -35.9433
  394.5000  -999.2500  -999.2500  -999.2500     6.4031   176.7290     5.8132   -36.1721
  395.0000  -999.2500  -999.2500  -999.2500     6.3865   176.7206     5.8259   -36.4108
  395.5000  -999.2500  -999.2500  -999.2500     6.4351   176.7141     5.8911   -36.6815
  396.0000  -999.2500  -999.2500  -999.2500     6.4492   176.7066     5.8924   -36.7392
  396.5000  -999.2500  -999.2500  -999.2500     6.4495   176.6991     5.8939   -36.8264
  397.0000  -999.2500  -999.2500  -999.2500     6.4648   176.6916     5.8954   -36.8241
  397.5000  -999.2500  -999.2500  -999.2500     6.4802   176.6836     5.9716   -36.8219
  398.0000  -999.2500  -999.2500  -999.2500     6.4983   176.6766     5.9732   -36.6705
