~VERSION INFORMATION
 VERS.                2.0:   CWLS LOG ASCII STANDARD - VERSION 2.0
 WRAP.                 NO:   ONE LINE PER DEPTH STEP
~WELL INFORMATION
#MNEM.UNIT      DATA TYPE    INFORMATION
#----------   ------------   ------------------------------
 STRT.F           80.0000:   START DEPTH
 STOP.F         1100.0000:   STOP DEPTH
 STEP.F            0.5000:   STEP LENGTH
 NULL.          -999.2500:   NO VALUE
 COMP.          U.S. NAVY:   COMPANY
 WELL.     NPR #3 #65-S-2:   WELL
 FLD .             TEAPOT:   FIELD
 LOC .       S2 T38N R78W:   LOCATION
 CNTY.            NATRONA:   COUNTY
 STAT.            WYOMING:   STATE
 CTRY. UNITED STATES OF AMERICA:   COUNTRY
 SRVC.       Schlumberger:   SERVICE COMPANY
 DATE.        17-JUL-1964:   LOGDATE
 API .       490250642600:   API NUMBER
~CURVE INFORMATION
#MNEM.UNIT       API CODE    CURVE DESCRIPTION
#----------   ------------   ------------------------------
 DEPT.F                  :   
 CALS.IN     60 280 50 00:   CALIPER FROM SONIC LOG
 DT  .US/F   60 520 33 00:   INTERVAL TRANSIT TIME
 GR  .GAPI   30 310 01 00:   GAMMA RAY
 ASN .OHMM   05 041 16 00:   AMPLIFIER SHORT NORMAL 16"
 CILD.MMHO   05 110 46 00:   CONDUCTIVITY INDUCTION LOG DEEP
 ILD .OHMM   05 120 46 00:   INDUCTION LOG DEEP
 SPR .MV     05 010 01 00:   SPONTANEOUS POTENTIAL FROM RES.
~PARAMETER INFORMATION
#MNEM.UNIT          VALUE    DESCRIPTION
#----------   ------------   ------------------------------
 PD  .                 GL:   PERMANENT DATUM
 EPD .F              5199:   ELEVATION PERMANENT DATUM
 LMF .                 KB:   LOG MEASURED FROM
 DAPD.F                 5:   FEET ABOVE PERMANENT DATUM
 DMF .                 KB:   DRILLING MEASURED FROM
 EKB .F              5204:   KELLING BUSHING
 EGL .F              5199:   GROUND LEVEL
 DATE.        17-JUL-1964:   RUN DATE
 RUN .                  1:   RUN NUMBER
 DD  .F              1100:   DEPTH DRILLER
 DL  .F              1101:   DEPTH LOGGER
 BLI .F              1100:   BOTTOM LOG INTERVAL
 TLI .F                85:   TOP LOG INTERVAL
 CS  .IN            8.625:   CASING SIZE
 CBD .F                10:   CASING BOTTOM DRILLER
 BS  .IN             6.75:   BIT SIZE
 BSD .F              1100:   BIT SIZE AT DEPTH
 DFT .                GEL:   DRILLING FLUID TYPE
 DFD .                9.5:   DRILLING FLUID DENSITY
 DFV .                 47:   DRILLING FLUID VISCOSITY
 MSS .           FLOWLINE:   MUD SAMPLE SOURCE
 RMS .OHMM           2.60:   RESISTIVITY MUD SAMPLE
 MST .F                80:   MUD SAMPLE TEMPERATURE
 RMF .OHMM           1.65:   RESISTIVITY MUD FILTRATE SAMPLE
 MFST.F                80:   MUD FILTRATE SAMPLE TEMPERATURE
 RMC .OHMM           2.53:   RESISTIVITY MUD CAKE
 MCST.F                80:   MUD CAKE SAMPLE TEMPERATURE
 MFSS.                 FP:   MUD FILTRATE SAMPLE SOURCE
 MCSS.                 FP:   MUD CAKE SAMPLE SOURCE
 TCS .HRS               2:   TIME CURCULATED STOPPED
 LUN .               4507:   LOGGING UNIT NUMBER
 LUL .               CSPR:   LOGGING UNIT LOCATION
 ENGI.             DANNER:   RECORDING ENGINEER
 CLNT.            A2DTECH:   CLIENT CODE
 ORIG.        2" 5" PRINT:   ORIGIN OF DATA
 UWI .       490250642600:   UNIQUE WELL ID
 DICO. A2D Technologies, Inc.:   DIGITIZING COMPANY
~OTHER INFORMATION
~A   DEPT     CALS         DT         GR          ASN      CILD         ILD      SPR   
# ...
  262.0000  -999.2500  -999.2500  -999.2500     6.2946   183.2086     6.3886   -39.7759
  262.5000  -999.2500  -999.2500  -999.2500     6.2905   186.6579     6.3154   -39.5678
  263.0000  -999.2500  -999.2500  -999.2500     6.2653   190.5663     6.2738   -39.1729
  263.5000  -999.2500  -999.2500  -999.2500     6.1424   192.8081     6.2291   -38.7789
  264.0000  -999.2500  -999.2500  -999.2500     5.9062   194.8799     6.0958   -38.5693
  264.5000  -999.2500  -999.2500  -999.2500     5.7572   195.5551     5.9477   -38.4162
  265.0000  -999.2500  -999.2500  -999.2500     5.6861   196.3699     5.8744   -38.4848
  265.5000  -999.2500  -999.2500  -999.2500     5.6680   196.3653     5.9259   -38.5584
  266.0000  -999.2500  -999.2500  -999.2500     5.7054   194.9552     6.2511   -38.7028
  266.5000  -999.2500  -999.2500  -999.2500     5.8511   191.8673     6.3274   -38.8487
  267.0000  -999.2500  -999.2500  -999.2500     6.1030   189.5883     6.4036   -38.9940
  267.5000  -999.2500  -999.2500  -999.2500     6.2736   185.6724     6.3945   -39.1393
  268.0000  -999.2500  -999.2500  -999.2500     6.3309   182.8737     6.3318   -39.1356
  268.5000  -999.2500  -999.2500  -999.2500     6.3371   182.8705     6.2586   -38.9825
  269.0000  -999.2500  -999.2500  -999.2500     6.2540   182.8667     6.1854   -38.9111
  269.5000  -999.2500  -999.2500  -999.2500     6.2093   182.8630     6.0202   -38.8264
  270.0000  -999.2500  -999.2500  -999.2500     6.2096   182.8593     5.8892   -38.8220
  270.5000  -999.2500  -999.2500  -999.2500     6.2126   182.8551     5.8163   -38.8189
  271.0000  -999.2500  -999.2500  -999.2500     6.2252   183.9197     5.7825   -38.8151
  271.5000  -999.2500  -999.2500  -999.2500     6.1915   184.3452     5.6696   -38.9605
  272.0000  -999.2500  -999.2500  -999.2500     6.1198   184.8303     5.6714   -38.9568
  272.5000  -999.2500  -999.2500  -999.2500     6.1110   185.0867     5.7960   -38.9526
  273.0000  -999.2500  -999.2500  -999.2500     6.1598   183.5850     5.9731   -38.9493
  273.5000  -999.2500  -999.2500  -999.2500     6.1518   180.5975     6.2080   -38.9456
  274.0000  -999.2500  -999.2500  -999.2500     6.0837   178.2585     6.3767   -38.9419
  274.5000  -999.2500  -999.2500  -999.2500     5.9708   176.8369     6.5757   -38.9382
  275.0000  -999.2500  -999.2500  -999.2500     6.0180   175.0874     6.6081   -39.0833
  275.5000  -999.2500  -999.2500  -999.2500     6.2365   173.0874     6.6532   -39.0797
  276.0000  -999.2500  -999.2500  -999.2500     6.3479   170.0000     6.6547   -39.2254
  276.5000  -999.2500  -999.2500  -999.2500     6.7141   167.5811     6.6359   -39.3698
  277.0000  -999.2500  -999.2500  -999.2500     6.8193   165.5908     6.5830   -39.1575
  277.5000  -999.2500  -999.2500  -999.2500     6.8428   164.2403     6.5465   -39.0574
  278.0000  -999.2500  -999.2500  -999.2500     6.8362   163.3284     6.4364   -38.6667
  278.5000  -999.2500  -999.2500  -999.2500     6.7950   162.5861     6.2887   -38.3813
  279.0000  -999.2500  -999.2500  -999.2500     6.7240   164.0493     6.1881   -38.1592
  279.5000  -999.2500  -999.2500  -999.2500     6.6896   170.8118     5.9925   -38.0067
  280.0000  -999.2500  -999.2500  -999.2500     6.5749   177.3952     5.8744   -38.0030
  280.5000  -999.2500  -999.2500  -999.2500     6.4058   184.7565     5.6964   -38.1477
  281.0000  -999.2500  -999.2500  -999.2500     6.1204   192.2288     5.6235   -38.1446
  281.5000  -999.2500  -999.2500  -999.2500     5.6776   196.8011     5.5161   -38.2899
  282.0000  -999.2500  -999.2500  -999.2500     5.5936   201.3735     5.4020   -38.3785
  282.5000  -999.2500  -999.2500  -999.2500     5.5281   205.9458     5.4039   -38.7301
  283.0000  -999.2500  -999.2500  -999.2500     5.5427   207.6022     5.5030   -38.8745
  283.5000  -999.2500  -999.2500  -999.2500     5.6235   203.6164     5.6309   -39.0201
  284.0000  -999.2500  -999.2500  -999.2500     5.7839   198.3833     5.7887   -39.0164
  284.5000  -999.2500  -999.2500  -999.2500     5.9337   194.2678     5.9451   -38.8630
  285.0000  -999.2500  -999.2500  -999.2500     6.0459   188.2856     6.0839   -38.7109
  285.5000  -999.2500  -999.2500  -999.2500     6.1441   181.9945     6.1900   -38.4090
  286.0000  -999.2500  -999.2500  -999.2500     6.2104   178.6377     6.3109   -38.3169
  286.5000  -999.2500  -999.2500  -999.2500     6.3243   173.5941     6.3124   -38.2206
  287.0000  -999.2500  -999.2500  -999.2500     6.4674   170.0068     6.4078   -38.0995
  287.5000  -999.2500  -999.2500  -999.2500     6.5768   165.6373     6.4650   -38.0961
  288.0000  -999.2500  -999.2500  -999.2500     6.6845   162.5148     6.4664   -38.0924
  288.5000  -999.2500  -999.2500  -999.2500     6.7430   161.7627     6.4679   -38.0880
  289.0000  -999.2500  -999.2500  -999.2500     6.7898   161.7590     6.4696   -38.2347
  289.5000  -999.2500  -999.2500  -999.2500     6.7902   161.7547     6.4448   -38.2301
  290.0000  -999.2500  -999.2500  -999.2500     6.8054   162.0509     6.3229   -38.3756
  290.5000  -999.2500  -999.2500  -999.2500     6.7907   163.2748     6.3244   -38.5489
  291.0000  -999.2500  -999.2500  -999.2500     6.7750   166.8938     6.1762   -38.6662
  291.5000  -999.2500  -999.2500  -999.2500     6.7222   170.6923     6.0286   -38.6624
  292.0000  -999.2500  -999.2500  -999.2500     6.5821   175.9577     5.9641   -38.6508
  292.5000  -999.2500  -999.2500  -999.2500     6.4931   181.7929     5.8732   -38.4054
  293.0000  -999.2500  -999.2500  -999.2500     6.3723   188.9747     5.6595   -38.3090
  293.5000  -999.2500  -999.2500  -999.2500     6.2703   195.4072     5.4892   -38.0512
  294.0000  -999.2500  -999.2500  -999.2500     6.1792   198.5678     5.2886   -38.0477
  294.5000  -999.2500  -999.2500  -999.2500     5.9997   202.1368     5.2502   -37.8949
  295.0000  -999.2500  -999.2500  -999.2500     5.6200   204.4287     5.1419   -37.8907
  295.5000  -999.2500  -999.2500  -999.2500     5.5661   205.3431     5.1437   -37.8875
  296.0000  -999.2500  -999.2500  -999.2500     5.5665   205.1192     5.1739   -37.8838
  296.5000  -999.2500  -999.2500  -999.2500     5.5868   201.0043     5.2960   -37.8800
  297.0000  -999.2500  -999.2500  -999.2500     5.6569   196.8787     5.3906   -37.8763
  297.5000  -999.2500  -999.2500  -999.2500     5.7859   190.4377     5.4846   -37.8723
  298.0000  -999.2500  -999.2500  -999.2500     5.9530   183.5079     5.7490   -37.8689
  298.5000  -999.2500  -999.2500  -999.2500     6.1668   178.1545     6.0103   -37.8651
  299.0000  -999.2500  -999.2500  -999.2500     6.3811   175.6662     6.0508   -37.8608
  299.5000  -999.2500  -999.2500  -999.2500     6.5894   172.0797     6.1273   -37.8013
  300.0000  -999.2500  -999.2500  -999.2500     6.6767   169.6561     6.1883   -37.7054
  300.5000  -999.2500  -999.2500  -999.2500     6.6920   167.6585     6.1298   -37.7027
  301.0000  -999.2500  -999.2500  -999.2500     6.6774   170.6433     6.1316   -37.7004
  301.5000  -999.2500  -999.2500  -999.2500     6.6313   171.7827     6.1330   -37.6980
  302.0000  -999.2500  -999.2500  -999.2500     6.5368   172.1264     6.1345   -37.6960
  302.5000  -999.2500  -999.2500  -999.2500     6.4690   172.8657     6.0615   -37.6937
  303.0000  -999.2500  -999.2500  -999.2500     6.4635   172.8593     6.0346   -37.6911
  303.5000  -999.2500  -999.2500  -999.2500     6.4698   172.8518     5.9895   -37.6893
  304.0000  -999.2500  -999.2500  -999.2500     6.5132   172.3653     6.0369   -37.6869
  304.5000  -999.2500  -999.2500  -999.2500     6.5564   171.6966     6.0673   -37.7668
  305.0000  -999.2500  -999.2500  -999.2500     6.6205   169.0863     6.1436   -38.0055
  305.5000  -999.2500  -999.2500  -999.2500     6.6431   166.8263     6.2897   -38.2762
  306.0000  -999.2500  -999.2500  -999.2500     6.6843   164.2963     6.5331   -38.2146
  306.5000  -999.2500  -999.2500  -999.2500     6.7415   160.0812     6.7462   -38.1230
  307.0000  -999.2500  -999.2500  -999.2500     6.7925   157.7470     6.8704   -38.1207
