~VERSION INFORMATION
 VERS.                2.0:   CWLS LOG ASCII STANDARD - VERSION 2.0
 WRAP.                 NO:   ONE LINE PER DEPTH STEP
~WELL INFORMATION
#MNEM.UNIT      DATA TYPE    INFORMATION
#----------   ------------   ------------------------------
 STRT.F           80.0000:   START DEPTH
 STOP.F         1100.0000:   STOP DEPTH
 STEP.F            0.5000:   STEP LENGTH
 NULL.          -999.2500:   NO VALUE
 COMP.          U.S. NAVY:   COMPANY
 WELL.     NPR #3 #65-S-2:   WELL
 FLD .             TEAPOT:   FIELD
 LOC .       S2 T38N R78W:   LOCATION
 CNTY.            NATRONA:   COUNTY
 STAT.            WYOMING:   STATE
 CTRY. UNITED STATES OF AMERICA:   COUNTRY
 SRVC.       Schlumberger:   SERVICE COMPANY
 DATE.        17-JUL-1964:   LOGDATE
 API .       490250642600:   API NUMBER
~CURVE INFORMATION
#MNEM.UNIT       API CODE    CURVE DESCRIPTION
#----------   ------------   ------------------------------
 DEPT.F                  :   
 CALS.IN     60 280 50 00:   CALIPER FROM SONIC LOG
 DT  .US/F   60 520 33 00:   INTERVAL TRANSIT TIME
 GR  .GAPI   30 310 01 00:   GAMMA RAY
 ASN .OHMM   05 041 16 00:   AMPLIFIER SHORT NORMAL 16"
 CILD.MMHO   05 110 46 00:   CONDUCTIVITY INDUCTION LOG DEEP
 ILD .OHMM   05 120 46 00:   INDUCTION LOG DEEP
 SPR .MV     05 010 01 00:   SPONTANEOUS POTENTIAL FROM RES.
~PARAMETER INFORMATION
#MNEM.UNIT          VALUE    DESCRIPTION
#----------   ------------   ------------------------------
 PD  .                 GL:   PERMANENT DATUM
 EPD .F              5199:   ELEVATION PERMANENT DATUM
 LMF .                 KB:   LOG MEASURED FROM
 DAPD.F                 5:   FEET ABOVE PERMANENT DATUM
 DMF .                 KB:   DRILLING MEASURED FROM
 EKB .F              5204:   KELLING BUSHING
 EGL .F              5199:   GROUND LEVEL
 DATE.        17-JUL-1964:   RUN DATE
 RUN .                  1:   RUN NUMBER
 DD  .F              1100:   DEPTH DRILLER
 DL  .F              1101:   DEPTH LOGGER
 BLI .F              1100:   BOTTOM LOG INTERVAL
 TLI .F                85:   TOP LOG INTERVAL
 CS  .IN            8.625:   CASING SIZE
 CBD .F                10:   CASING BOTTOM DRILLER
 BS  .IN             6.75:   BIT SIZE
 BSD .F              1100:   BIT SIZE AT DEPTH
 DFT .                GEL:   DRILLING FLUID TYPE
 DFD .                9.5:   DRILLING FLUID DENSITY
 DFV .                 47:   DRILLING FLUID VISCOSITY
 MSS .           FLOWLINE:   MUD SAMPLE SOURCE
 RMS .OHMM           2.60:   RESISTIVITY MUD SAMPLE
 MST .F                80:   MUD SAMPLE TEMPERATURE
 RMF .OHMM           1.65:   RESISTIVITY MUD FILTRATE SAMPLE
 MFST.F                80:   MUD FILTRATE SAMPLE TEMPERATURE
 RMC .OHMM           2.53:   RESISTIVITY MUD CAKE
 MCST.F                80:   MUD CAKE SAMPLE TEMPERATURE
 MFSS.                 FP:   MUD FILTRATE SAMPLE SOURCE
 MCSS.                 FP:   MUD CAKE SAMPLE SOURCE
 TCS .HRS               2:   TIME CURCULATED STOPPED
 LUN .               4507:   LOGGING UNIT NUMBER
 LUL .               CSPR:   LOGGING UNIT LOCATION
 ENGI.             DANNER:   RECORDING ENGINEER
 CLNT.            A2DTECH:   CLIENT CODE
 ORIG.        2" 5" PRINT:   ORIGIN OF DATA
 UWI .       490250642600:   UNIQUE WELL ID
 DICO. A2D Technologies, Inc.:   DIGITIZING COMPANY
~OTHER INFORMATION
~A   DEPT     CALS         DT         GR          ASN      CILD         ILD      SPR   
# ...
  853.5000     6.6728    98.8935    80.5773     8.1827   136.5531     7.5938   -32.3882
  854.0000     6.6729    98.8163    77.6999     8.0382   136.1081     7.5949   -32.3843
  854.5000     6.6731    98.8148    80.5954     7.8969   137.3216     7.5960   -32.1543
  855.0000     6.6732    99.3802    81.2088     7.8035   138.8845     7.4478   -32.0591
  855.5000     6.6734    99.6433    78.3478     7.6882   142.7981     7.3459   -31.7766
  856.0000     6.6584    99.0367    77.6016     7.5499   146.4270     7.1510   -31.7735
  856.5000     6.6435    98.9600    78.3660     7.3437   151.9760     7.0328   -31.7697
  857.0000     6.6437    99.7140    80.1877     6.9275   158.4701     6.8079   -31.7660
  857.5000     6.6288   100.3172    84.8796     6.6310   164.9133     6.2576   -31.7623
  858.0000     6.6289   101.1471    83.3781     6.2844   177.9033     5.6507   -31.6091
  858.5000     6.6291   102.4306    78.7044     5.8432   207.3182     4.5935   -31.3932
  859.0000     6.6292   103.2605    71.9160     5.2733   247.0340     3.5354   -31.1550
  859.5000     6.6294   103.8637    69.0527     4.7193   312.5872     2.7090   -30.9565
  860.0000     6.6295   106.0542    71.0278     4.3632   330.0399     1.9283   -30.8097
  860.5000     6.6297   107.4132    72.0943     3.9017   393.3977     1.8546   -30.5474
  861.0000     6.6298   110.9643    72.5543     3.3615   448.5839     1.7810   -30.5440
  861.5000     6.6300   115.2712    76.1910     3.2143   493.8678     1.8571   -30.5402
  862.0000     6.6452   121.7701    81.6382     3.0036   502.6326     1.9557   -30.5359
  862.5000     6.6453   126.9084    83.6110     2.9807   502.9940     2.0834   -30.5328
  863.0000     6.6455   131.2153    82.5627     2.9913   495.1196     2.3914   -30.5289
  863.5000     6.6607   131.8189    82.4185     3.0339   464.2975     2.8738   -30.6923
  864.0000     6.6608   128.5668    83.7894     3.2251   416.7939     3.5069   -31.1952
  864.5000     6.6761   125.2396    82.7411     3.5719   370.8216     4.0415   -31.8587
  865.0000     6.6762   119.4180    81.5417     3.9669   346.7918     4.8543   -32.4217
  865.5000     6.6764   113.8987    76.7169     4.3585   278.0843     5.2836   -32.7479
  866.0000     6.6785   106.8405    74.7623     4.7809   209.8484     5.5571   -32.9846
  866.5000     6.6917   104.9010    74.4670     5.0715   192.1770     5.8294   -33.0371
  867.0000     6.6919   104.8552    78.5569     5.4137   177.6333     5.9798   -33.0325
  867.5000     6.6920   103.0080    82.6446     5.8112   175.7797     6.0557   -32.8800
  868.0000     6.6922   104.9718    82.0494     5.8710   174.6108     6.1036   -32.7154
  868.5000     6.6923   105.8773    80.8478     5.8712   174.0906     6.1327   -32.5738
  869.0000     6.6925   106.4053    82.6719     5.8713   174.5835     6.1339   -32.4218
  869.5000     6.6926   105.3452    85.5510     5.9448   175.3134     6.0325   -32.4178
  870.0000     6.7078   104.8146    88.5813     6.0508   180.5389     5.6726   -32.4938
  870.5000     6.7080   104.5108    91.0073     6.0715   190.2360     5.1611   -32.5600
  871.0000     6.7081   104.1314    93.1312     6.0809   205.2069     4.6645   -32.5553
  871.5000     6.7083   103.6764    95.4061     6.0810   226.7883     3.8973   -32.5522
  872.0000     6.6934   103.5237    95.7151     5.9944   250.8377     3.7110   -32.5484
  872.5000     6.6634   104.9583    92.2521     5.7381   258.7138     3.6004   -32.5447
  873.0000     6.5862   106.9221    91.0505     5.1615   261.8488     3.6018   -32.3602
  873.5000     6.5111   110.9266    94.8383     4.7085   268.7552     3.6028   -32.2388
  874.0000     6.4681   112.0589    92.7303     4.6938   274.8055     3.7534   -32.0209
  874.5000     6.4532   113.1156    93.3459     4.5517   276.2126     3.8377   -31.9257
  875.0000     6.4382   114.0212    92.4486     4.6642   274.8877     4.0795   -31.7809
  875.5000     6.4384   113.8956    92.3044     5.0133   269.6522     4.4295   -31.7355
  876.0000     6.4386   110.0153    91.4094     5.2896   254.4592     4.7414   -31.6242
  876.5000     6.4538   108.1724    88.2463     5.4109   231.1167     5.0295   -31.6207
  877.0000     6.4690   108.3463    87.1980     5.5605   209.3586     5.4362   -31.7663
  877.5000     6.4691   108.2688    86.9027     5.7993   194.1612     5.8277   -31.7617
  878.0000     6.4693   107.4359    89.0266     6.0904   182.5946     6.2288   -31.7586
  878.5000     6.4543   106.3006    85.2615     6.3949   179.5345     6.4540   -31.7547
  879.0000     6.4545   105.5433    81.9474     6.5311   175.6665     6.6116   -31.7511
  879.5000     6.4697   104.8615    80.4459     6.8012   166.4323     6.8043   -31.7474
  880.0000     6.4699   103.9530    79.1541     7.1017   156.2879     6.9258   -31.7432
  880.5000     6.4700   102.7421    77.1108     7.3687   149.1244     7.0565   -31.7399
  881.0000     6.4702   102.0603    77.8046     7.4421   148.0229     7.0212   -31.8853
  881.5000     6.4704   101.5297    79.1691     7.4572   148.0090     6.9020   -31.8815
  882.0000     6.4856   101.4527    80.2317     7.4573   148.7434     6.7610   -31.8778
  882.5000     6.4857   101.4210    81.4250     7.4575   150.2218     6.6636   -32.0228
  883.0000     6.5009   101.3741    82.5439     7.4513   152.1806     6.4642   -32.1684
  883.5000     6.5161   101.4482    85.4148     7.4256   156.9304     6.2757   -32.3276
  884.0000     6.5163   101.9002    88.5458     7.2904   162.2553     6.1455   -32.4590
  884.5000     6.5164   102.4288    86.7039     7.0598   166.0954     5.9445   -32.6520
  885.0000     6.5166   102.7337    87.3716     6.8612   168.1114     5.8433   -32.7496
  885.5000     6.5016   102.9539    87.8036     6.7570   170.1322     5.7224   -32.8274
  886.0000     6.5169   103.0411    87.3534     6.6125   174.0715     5.4863   -33.0406
  886.5000     6.5170   103.6309    87.5318     6.4587   185.9767     5.2173   -33.1850
  887.0000     6.5172   104.1585    89.3473     6.2980   202.3607     4.5300   -33.3309
  887.5000     6.5173   104.7617    91.1631     5.9963   221.1807     4.1698   -33.4762
  888.0000     6.5014   105.8184    91.9275     5.5439   240.9288     4.0070   -33.3234
  888.5000     6.4554   107.2530    92.8430     5.2082   254.8543     3.8878   -32.9540
  889.0000     6.3973   109.2167    90.7373     4.9221   256.6042     3.9365   -32.7195
  889.5000     6.3673   112.7678    87.2720     4.7779   254.1317     4.0872   -32.4180
  890.0000     6.3675   113.6737    88.1875     4.8114   248.8008     4.3423   -32.4143
  890.5000     6.3676   112.5380    90.0092     5.0859   242.3123     4.7101   -32.4098
  891.0000     6.3829   111.0248    90.4715     5.2291   236.5724     5.4359   -32.4069
  891.5000     6.3830   109.5872    91.5380     5.9079   227.8563     5.8992   -32.4029
  892.0000     6.3831   105.5041    91.3960     6.2949   215.0111     6.3349   -32.3994
  892.5000     6.3984   103.2350    90.6294     6.5545   191.8401     6.5240   -32.3957
  893.0000     6.3985   102.7044    92.0185     6.8487   167.2506     6.6360   -32.3914
  893.5000     6.3685   102.8541    91.1212     6.9886   158.6714     6.7121   -32.3882
  894.0000     6.3235   103.0814    90.0729     7.1325   155.1170     6.7130   -32.3844
  894.5000     6.2935   103.1535    91.2905     7.2562   154.3563     6.7142   -32.3808
  895.0000     6.2937   103.0763    89.4869     7.3555   153.5920     6.7152   -32.3771
  895.5000     6.2938   102.9992    86.9257     7.4763   152.0434     6.7164   -32.3729
  896.0000     6.2940   102.4684    84.9733     7.5634   151.2176     6.6429   -32.3696
  896.5000     6.3092   102.1645    86.6441     7.6262   150.5515     6.6439   -32.3660
  897.0000     6.3094   102.0119    87.2574     7.6409   150.5389     6.5698   -32.5112
  897.5000     6.3095   101.9351    90.8918     7.6560   151.2721     6.4966   -32.6571
  898.0000     6.3097   102.0092    90.5988     7.6711   152.4301     6.4808   -32.6525
  898.5000     6.3098   102.0833    90.4546     7.6712   153.6190     6.4241   -32.6490
