~VERSION INFORMATION
 VERS.                2.0:   CWLS LOG ASCII STANDARD - VERSION 2.0
 WRAP.                 NO:   ONE LINE PER DEPTH STEP
~WELL INFORMATION
#MNEM.UNIT      DATA TYPE    INFORMATION
#----------   ------------   ------------------------------
 STRT.F          180.0000:   START DEPTH
 STOP.F         3280.0000:   STOP DEPTH
 STEP.F            0.5000:   STEP LENGTH
 NULL.          -999.2500:   NO VALUE
 COMP.    FENIX & SCISSON:   COMPANY
 WELL.  FENIX "AX" #85-10:   WELL
 FLD .              NPR 3:   FIELD
 LOC .      S10 T38N R78W:   LOCATION
 CNTY.            NATRONA:   COUNTY
 STAT.            WYOMING:   STATE
 CTRY. UNITED STATES OF AMERICA:   COUNTRY
 SRVC.       SCHLUMBERGER:   SERVICE COMPANY
 DATE.        03-JUL-1977:   LOGDATE
 API .     49025104000000:   API NUMBER
~CURVE INFORMATION
#MNEM.UNIT       API CODE    CURVE DESCRIPTION
#----------   ------------   ------------------------------
 DEPT.F                  :   
 SPR .MV     11 010 01 00:   SPONTANEOUS POTENTIAL FROM RES.
 MSFL.OHMM   11 270 04 00:   MICRO SPHERICALLY FOCUSED
 LLD .OHMM   11 220 10 00:   LATEROLOG LOG DEEP
 LLS .OHMM   11 220 09 00:   LATEROLOG LOG SHALLOW
 GRD .GAPI   45 310 01 00:   GAMMA RAY FROM DENSITY LOG
 CALD.IN     45 280 60 00:   CALIPER FROM DENSITY LOG
 CORR.G/C3   45 356 01 00:   DENSITY CORRECTION
 RHOB.G/C3   45 350 01 00:   BULK DENSITY
 NPHI.DEC    42 890 03 00:   NEUTRON POROSITY SANDSTONE
~PARAMETER INFORMATION
#MNEM.UNIT          VALUE    DESCRIPTION
#----------   ------------   ------------------------------
 EKB .F         5210.0000:   Kelly bushing
 EGL .F         5200.0000:   Ground level
 EDF .F            0.0000:   Drilling floor
 TD  .F         3265.0000:   Total depth
 DATE.        03-JUL-1977:   Date logged
 CLNT.            A2DTECH:   Client Code
 SL  . 2000' FSL & 100' FEL:   Surface Location
 PD  .                 GL:   Permanent Datum
 EPD .F              5200:   Elevation Permanent Datum
 LMF .                 KB:   Log Measured From
 DMF .                 KB:   Drilling Measured From
 DAPD.F                10:   Feet Above Permanent Datum
 DD  .F              3261:   Depth driller
 DL  .F              3265:   Depth logger
 BLI .F              2364:   Bottom log interval
 TLI .F               220:   Top log interval
 CS1 .IN            8.625:   Casing size
 CBD1.      8.625" @ 220':   Casing driller 1
 CBL1.F               220:   Casing logger 1
 BS1 .IN            7.875:   Bit size
 BSD1.F              3261:   Depth drilled with bit1
 DFT .                KCL:   Type fluid in hole
 DFD .                9.7:   Density
 DFV .                 38:   Viscosity
 DFPH.                7.5:   pH
 DFL .                 40:   Fluid loss
 MSS .                PIT:   Source of sample
 RMS .OHMM          0.167:   Rm
 MST .F                78:   Rm Meas. temp.
 RMF .OHMM          0.167:   Rmf
 MFST.F                78:   Rmf Meas. temp.
 MFSS.               MEAS:   Source Rmf.
 RMB .OHMM          0.103:   Rm. at BHT
 BHT .F               126:   BHT.
 TLAB.HRS            0930:   Time logger at bottom
 MRT .F               126:   Maximum recorded temp.
 LUN .               5642:   Logging unit number
 LUL .               CSPR:   Logging unit location
 ENGI.             MARTIN:   Recorded By
 WITN.         PETTINGILL:   Witnessed by
 ORIG.           5" PRINT:   Origin of data
 UWI .     49025104000000:   Unique Well ID
 DICO. A2D TECHNOLOGIES, INC.:   Digitizing Company
~OTHER INFORMATION
~A   DEPT      SPR       MSFL        LLD        LLS         GRD      CALD        CORR        RHOB       NPHI 
# ...
 2443.0000   -39.1180     9.7720     6.0950     6.8670   134.7120    10.5830     0.0100     2.5510     0.2640
 2443.5000   -39.1650     9.6620     6.3460     7.0210   135.0800    10.5820     0.0070     2.5460     0.2570
 2444.0000   -39.2230     9.4180     6.0870     7.0860   134.7310    10.5830     0.0040     2.5530     0.2590
 2444.5000   -39.3910     9.3330     5.9450     7.0860   132.5180    10.5830     0.0020     2.5470     0.2640
 2445.0000   -39.4910     9.3840     5.9200     7.0210   130.4240    10.5830     0.0110     2.5790     0.2680
 2445.5000   -39.5450     9.5830     5.8970     6.9780   130.2400    10.5830     0.0200     2.5740     0.2730
 2446.0000   -39.6000     9.7810     6.0230     6.9570   133.0330    10.5830     0.0170     2.5660     0.2770
 2446.5000   -39.6570     9.9800     6.1050     7.1540   135.7190    10.5820     0.0130     2.5630     0.2740
 2447.0000   -39.7140    10.0440     6.1880     7.4500   138.4090    10.5810     0.0240     2.5670     0.2710
 2447.5000   -39.7710     9.6380     6.2310     7.7450   141.1550    10.5760     0.0180     2.5730     0.2680
 2448.0000   -39.8230     9.1750     6.1950     7.8390   143.9160    10.5710     0.0140     2.5650     0.2650
 2448.5000   -39.8160     8.7520     6.1610     7.2560   141.7870    10.5660     0.0130     2.5610     0.2550
 2449.0000   -39.6550    10.0600     6.0620     6.7680   139.0840    10.5610     0.0130     2.5680     0.2430
 2449.5000   -39.4990    11.2630     6.2920     7.4050   138.4350    10.5560     0.0120     2.5560     0.2310
 2450.0000   -39.3440    12.4650     6.8830     8.0500   137.1360    10.5510     0.0130     2.5770     0.2250
 2450.5000   -39.1890    13.6680     7.4750     8.6950   138.0890    10.5460     0.0250     2.6000     0.2200
 2451.0000   -39.0340    15.4660     8.3590     9.3390   140.1250    10.5420     0.0430     2.6190     0.2170
 2451.5000   -38.8790    14.2620     8.2830    10.0440   142.2380    10.5390     0.0400     2.6130     0.2280
 2452.0000   -38.7240    11.8770     7.9630     9.7250   143.7050    10.5370     0.0270     2.5810     0.2390
 2452.5000   -38.5690    10.1410     7.4830     9.0940   143.3340    10.5340     0.0190     2.5560     0.2500
 2453.0000   -38.4120     9.8500     7.0020     8.4630   140.7820    10.5310     0.0220     2.5520     0.2620
 2453.5000   -38.2610     9.5600     6.5080     7.8320   137.9400    10.5290     0.0130     2.5470     0.2730
 2454.0000   -38.4740     9.4190     5.7370     7.2010   135.4170    10.5260     0.0030     2.5560     0.2790
 2454.5000   -38.7360     9.6430     6.1170     6.5840   135.9030    10.5230     0.0280     2.5740     0.2700
 2455.0000   -39.0000     9.9560     6.0620     6.5240   136.0510    10.5230     0.0210     2.5650     0.2630
 2455.5000   -39.2630    10.4200     5.8970     6.9210   133.7770    10.5230     0.0130     2.5750     0.2550
 2456.0000   -39.5270    11.0060     6.2670     7.2760   134.1120    10.5230     0.0350     2.5970     0.2500
 2456.5000   -39.7880    11.6420     6.7790     7.6310   140.7250    10.5230     0.0470     2.6050     0.2480
 2457.0000   -39.8140    12.0690     7.0210     7.9860   145.7570    10.5230     0.0410     2.5910     0.2470
 2457.5000   -39.7820    11.0880     6.8020     8.4360   150.6740    10.5230     0.0400     2.5990     0.2500
 2458.0000   -39.7500    10.0310     6.5020     7.9670   155.5630    10.5180     0.0380     2.5860     0.2550
 2458.5000   -39.7180     8.9740     6.2010     7.3260   158.6120    10.5110     0.0350     2.5800     0.2690
 2459.0000   -39.6860     7.9170     5.5890     6.6840   158.0890    10.5040     0.0300     2.5520     0.2850
 2459.5000   -39.6550     6.8600     4.7060     6.0420   149.0650    10.5020     0.0220     2.5480     0.2970
 2460.0000   -39.6200     6.5240     4.1220     5.2330   138.8240    10.4710     0.0140     2.5510     0.2980
 2460.5000   -39.4840     9.0310     4.8650     5.3300   131.5300    10.4640     0.0060     2.5360     0.2610
 2461.0000   -39.3500    11.2300     5.6560     6.5100   124.7570    10.4570     0.0170     2.5730     0.2320
 2461.5000   -39.2170    13.0000     6.3960     7.7620   125.7830    10.4490     0.0310     2.5780     0.2250
 2462.0000   -39.0830    12.2530     7.6960     9.0790   127.4530    10.4410     0.0370     2.5930     0.2210
 2462.5000   -38.9500    11.3180     7.4750     8.7330   128.6890    10.4330     0.0420     2.6050     0.2220
 2463.0000   -38.8170    11.5830     7.2730     8.3680   127.0490    10.4200     0.0340     2.5870     0.2290
 2463.5000   -38.6830    11.7420     7.0710     8.1320   124.8290    10.3960     0.0250     2.5690     0.2360
 2464.0000   -38.6980    11.4220     7.0210     8.0580   122.6110    10.3780     0.0100     2.5680     0.2420
 2464.5000   -38.8350    11.5940     7.1180     8.1250   121.9500    10.3600     0.0160     2.5780     0.2480
 2465.0000   -38.9710    11.7730     7.2190     8.1960   123.8010    10.3430     0.0100     2.5750     0.2480
 2465.5000   -39.1080    11.9590     7.2840     8.2660   124.2000    10.3250     0.0020     2.5510     0.2480
 2466.0000   -39.2450    11.1150     6.9960     8.2830   123.2580    10.3300     0.0090     2.5580     0.2520
 2466.5000   -39.3820    10.2370     6.7060     8.1200   122.3420    10.3390     0.0230     2.5690     0.2610
 2467.0000   -39.5180     9.5060     6.4160     7.6750   122.1670    10.3480     0.0150     2.5650     0.2560
 2467.5000   -39.6280     9.9360     6.0620     7.2170   123.2950    10.3570     0.0120     2.5610     0.2480
 2468.0000   -39.6250    10.6930     6.1490     7.3100   124.3840    10.3640     0.0270     2.5910     0.2410
 2468.5000   -39.6220    11.3180     6.2880     7.5610   125.4740    10.3510     0.0280     2.5890     0.2430
 2469.0000   -39.5360    10.6310     6.2410     7.7670   126.3070    10.3210     0.0340     2.5970     0.2470
 2469.5000   -39.4490     9.5940     6.1800     7.6960   124.2120    10.3060     0.0470     2.5930     0.2490
 2470.0000   -39.3630    10.4720     6.1170     7.6960   122.6910    10.2890     0.0500     2.5820     0.2400
 2470.5000   -39.2760    11.6000     6.3490     7.6960   121.5190    10.2860     0.0290     2.5770     0.2310
 2471.0000   -39.1900    12.5210     6.8080     7.6260   121.4600    10.3190     0.0250     2.5830     0.2270
 2471.5000   -39.1030    11.8500     7.2680     7.8830   121.4690    10.3520     0.0240     2.5670     0.2260
 2472.0000   -39.0170    11.9570     7.7270     8.8910   121.4730    10.3840     0.0240     2.5670     0.2320
 2472.5000   -38.9300    12.1810     8.1870     9.5060   121.4720    10.4160     0.0220     2.5540     0.2400
 2473.0000   -38.8440    11.8050     8.2830     9.3180   121.4410    10.4480     0.0160     2.5510     0.2500
 2473.5000   -38.7570    11.4220     8.2830     9.0790   122.7980    10.4810     0.0390     2.5630     0.2470
 2474.0000   -38.6710    11.6150     7.2840     9.1630   124.6730    10.5080     0.0330     2.5710     0.2410
 2474.5000   -38.7190    12.0690     7.2310     9.0790   126.5810    10.5420     0.0270     2.5510     0.2350
 2475.0000   -38.9280    11.7260     7.1000     8.7410   128.5270    10.5760     0.0590     2.5700     0.2350
 2475.5000   -39.1350    11.1520     7.0210     8.4020   127.3590    10.6100     0.0870     2.5690     0.2400
 2476.0000   -39.3430    10.8100     7.2150     8.0580   124.9890    10.6450     0.1290     2.5820     0.2440
 2476.5000   -39.5500    11.3790     7.2960     8.0580   121.5970    10.6630     0.0960     2.5290     0.2410
 2477.0000   -39.7580    12.0870     7.3760     8.4990   122.5180    10.6810     0.1090     2.5590     0.2390
 2477.5000   -39.9660    12.7940     7.4560     8.8640   123.7500    10.6820     0.1510     2.5780     0.2380
 2478.0000   -40.1750    13.3520     7.4870     9.1630   122.1810    10.6700     0.1370     2.5910     0.2430
 2478.5000   -40.2590    10.8100     7.2460     8.7840   121.1410    10.6590     0.1030     2.5610     0.2470
 2479.0000   -40.3130    10.2630     7.0080     8.1640   122.8360    10.6480     0.0500     2.5140     0.2480
