~VERSION INFORMATION
 VERS.                2.0:   CWLS LOG ASCII STANDARD - VERSION 2.0
 WRAP.                 NO:   ONE LINE PER DEPTH STEP
~WELL INFORMATION
#MNEM.UNIT      DATA TYPE    INFORMATION
#----------   ------------   ------------------------------
 STRT.F          180.0000:   START DEPTH
 STOP.F         3280.0000:   STOP DEPTH
 STEP.F            0.5000:   STEP LENGTH
 NULL.          -999.2500:   NO VALUE
 COMP.    FENIX & SCISSON:   COMPANY
 WELL.  FENIX "AX" #85-10:   WELL
 FLD .              NPR 3:   FIELD
 LOC .      S10 T38N R78W:   LOCATION
 CNTY.            NATRONA:   COUNTY
 STAT.            WYOMING:   STATE
 CTRY. UNITED STATES OF AMERICA:   COUNTRY
 SRVC.       SCHLUMBERGER:   SERVICE COMPANY
 DATE.        03-JUL-1977:   LOGDATE
 API .     49025104000000:   API NUMBER
~CURVE INFORMATION
#MNEM.UNIT       API CODE    CURVE DESCRIPTION
#----------   ------------   ------------------------------
 DEPT.F                  :   
 SPR .MV     11 010 01 00:   SPONTANEOUS POTENTIAL FROM RES.
 MSFL.OHMM   11 270 04 00:   MICRO SPHERICALLY FOCUSED
 LLD .OHMM   11 220 10 00:   LATEROLOG LOG DEEP
 LLS .OHMM   11 220 09 00:   LATEROLOG LOG SHALLOW
 GRD .GAPI   45 310 01 00:   GAMMA RAY FROM DENSITY LOG
 CALD.IN     45 280 60 00:   CALIPER FROM DENSITY LOG
 CORR.G/C3   45 356 01 00:   DENSITY CORRECTION
 RHOB.G/C3   45 350 01 00:   BULK DENSITY
 NPHI.DEC    42 890 03 00:   NEUTRON POROSITY SANDSTONE
~PARAMETER INFORMATION
#MNEM.UNIT          VALUE    DESCRIPTION
#----------   ------------   ------------------------------
 EKB .F         5210.0000:   Kelly bushing
 EGL .F         5200.0000:   Ground level
 EDF .F            0.0000:   Drilling floor
 TD  .F         3265.0000:   Total depth
 DATE.        03-JUL-1977:   Date logged
 CLNT.            A2DTECH:   Client Code
 SL  . 2000' FSL & 100' FEL:   Surface Location
 PD  .                 GL:   Permanent Datum
 EPD .F              5200:   Elevation Permanent Datum
 LMF .                 KB:   Log Measured From
 DMF .                 KB:   Drilling Measured From
 DAPD.F                10:   Feet Above Permanent Datum
 DD  .F              3261:   Depth driller
 DL  .F              3265:   Depth logger
 BLI .F              2364:   Bottom log interval
 TLI .F               220:   Top log interval
 CS1 .IN            8.625:   Casing size
 CBD1.      8.625" @ 220':   Casing driller 1
 CBL1.F               220:   Casing logger 1
 BS1 .IN            7.875:   Bit size
 BSD1.F              3261:   Depth drilled with bit1
 DFT .                KCL:   Type fluid in hole
 DFD .                9.7:   Density
 DFV .                 38:   Viscosity
 DFPH.                7.5:   pH
 DFL .                 40:   Fluid loss
 MSS .                PIT:   Source of sample
 RMS .OHMM          0.167:   Rm
 MST .F                78:   Rm Meas. temp.
 RMF .OHMM          0.167:   Rmf
 MFST.F                78:   Rmf Meas. temp.
 MFSS.               MEAS:   Source Rmf.
 RMB .OHMM          0.103:   Rm. at BHT
 BHT .F               126:   BHT.
 TLAB.HRS            0930:   Time logger at bottom
 MRT .F               126:   Maximum recorded temp.
 LUN .               5642:   Logging unit number
 LUL .               CSPR:   Logging unit location
 ENGI.             MARTIN:   Recorded By
 WITN.         PETTINGILL:   Witnessed by
 ORIG.           5" PRINT:   Origin of data
 UWI .     49025104000000:   Unique Well ID
 DICO. A2D TECHNOLOGIES, INC.:   Digitizing Company
~OTHER INFORMATION
~A   DEPT      SPR       MSFL        LLD        LLS         GRD      CALD        CORR        RHOB       NPHI 
# ...
 2844.5000   -32.2010    12.7290     9.1750    10.9180   119.1620    10.1450     0.0180     2.5800     0.2060
 2845.0000   -32.0940    12.3110     8.9770    10.4620   120.3340    10.1410     0.0160     2.5780     0.2130
 2845.5000   -31.9870    11.8320     8.7470    10.0060   118.3490    10.1180     0.0330     2.5860     0.2200
 2846.0000   -31.8810    11.3530     8.3990     9.8620   116.4280    10.0960     0.0380     2.6000     0.2240
 2846.5000   -31.7750    11.0110     8.3130    10.0070   114.5100    10.0740     0.0330     2.6020     0.2140
 2847.0000   -31.7390    11.8640     8.2830    10.2200   112.6040    10.0620     0.0320     2.6060     0.2050
 2847.5000   -31.8160    12.6370     8.9070    10.4330   114.0090    10.0480     0.0330     2.6230     0.1960
 2848.0000   -31.8900    15.7400     9.4810    10.6460   120.4580    10.0560     0.0330     2.6370     0.1870
 2848.5000   -31.9650    18.5870     9.7720    11.3190   129.0630    10.0630     0.0330     2.6450     0.1870
 2849.0000   -32.0400    19.6360     9.8130    12.8710   137.6870    10.0930     0.0130     2.6140     0.1970
 2849.5000   -32.1150    18.4140     9.8620    12.1310   144.4400    10.1140     0.0110     2.5920     0.2140
 2850.0000   -32.1900    14.9710     8.1320    10.6440   147.0870    10.1350     0.0200     2.5740     0.2310
 2850.5000   -32.2640    11.8340     6.2600     9.1560   148.8010    10.1570     0.0330     2.5590     0.2480
 2851.0000   -32.3390     8.3590     5.7370     7.6680   147.9080    10.1770     0.0460     2.5990     0.2660
 2851.5000   -32.4140     8.6400     5.4460     6.3100   146.9420    10.2050     0.0460     2.5930     0.2820
 2852.0000   -32.4910     8.9140     5.1260     5.9860   145.9830    10.2080     0.0400     2.5900     0.2910
 2852.5000   -32.5220     8.3850     4.9080     5.6630   145.2180    10.2120     0.0300     2.5730     0.2960
 2853.0000   -32.5480     7.6480     4.9930     5.3390   145.6000    10.2150     0.0200     2.5830     0.2970
 2853.5000   -32.5720     7.1510     5.0450     5.1850   147.8960    10.2180     0.0120     2.5740     0.2900
 2854.0000   -32.5970     7.7390     4.5600     5.2600   149.6330    10.2200     0.0040     2.5620     0.2830
 2854.5000   -32.6220     8.3000     4.7020     5.4860   150.4520    10.2230     0.0090     2.5540     0.2760
 2855.0000   -32.6460     8.7310     4.9080     5.7130   151.3160    10.2250     0.0160     2.5590     0.2690
 2855.5000   -32.6710     8.9140     4.8670     5.9510   149.0540    10.2170     0.0220     2.5690     0.2660
 2856.0000   -32.6990     8.7040     4.8180     5.8000   144.6630    10.2070     0.0290     2.5800     0.2650
 2856.5000   -32.7800     8.5320     4.9810     5.6320   141.7220    10.1970     0.0270     2.5740     0.2680
 2857.0000   -33.0250     8.2830     5.1740     5.8200   141.1760    10.1870     0.0210     2.5740     0.2640
 2857.5000   -33.2590     8.5780     5.4050     6.0640   141.5210    10.1770     0.0190     2.5830     0.2600
 2858.0000   -33.4930     9.4000     5.6360     6.3090   141.8820    10.1670     0.0170     2.5720     0.2690
 2858.5000   -33.7280     9.5940     5.7370     6.4640   142.5200    10.1650     0.0140     2.5600     0.2800
 2859.0000   -33.9620     9.0820     5.5000     6.4050   144.1110    10.1600     0.0120     2.5540     0.2870
 2859.5000   -34.1970     8.6430     5.2980     6.2650   144.4720    10.1550     0.0160     2.5590     0.2930
 2860.0000   -34.4310     8.2070     5.0910     6.1220   143.3320    10.1500     0.0200     2.5630     0.2890
 2860.5000   -34.6660     8.2810     5.1850     5.9780   141.5230    10.1450     0.0180     2.5450     0.2830
 2861.0000   -34.9000     8.4750     5.2820     5.8340   139.9280    10.1450     0.0120     2.5430     0.2770
 2861.5000   -35.1340     8.5930     5.2220     5.6910   140.2480    10.1450     0.0060     2.5410     0.2730
 2862.0000   -35.3290     8.4640     5.1780     5.6320   140.9480    10.1230     0.0050     2.5300     0.2770
 2862.5000   -35.4590     8.3340     5.1380     5.6500   141.6450    10.1050     0.0040     2.5400     0.2830
 2863.0000   -35.5890     8.2830     5.0990     5.7370   141.9170    10.0820     0.0040     2.5470     0.2890
 2863.5000   -35.7200     8.4380     5.0910     5.8240   140.9970    10.0590     0.0060     2.5470     0.2950
 2864.0000   -35.8500     8.5140     5.2320     5.9110   140.1230    10.0370     0.0100     2.5480     0.2990
 2864.5000   -35.9810     8.4730     5.4640     5.9980   139.6160    10.0280     0.0130     2.5540     0.2940
 2865.0000   -36.1110     8.4320     5.7370     6.0850   141.4800    10.0060     0.0100     2.5530     0.2870
 2865.5000   -36.2400     8.3910     5.5650     6.1740   143.3390    10.0060     0.0080     2.5400     0.2820
 2866.0000   -36.1630     8.3590     5.3790     6.0680   144.8180    10.0060     0.0050     2.5380     0.2840
 2866.5000   -35.8680     8.6090     5.5310     5.9390   143.6480    10.0060     0.0020     2.5350     0.2890
 2867.0000   -35.3730     9.1890     5.6780     5.8110   142.9620    10.0060     0.0010     2.5300     0.2940
 2867.5000   -34.7900     9.7700     5.7900     5.7900   144.3530    10.0060     0.0040     2.5250     0.2990
 2868.0000   -34.1970    10.3250     5.6900     5.9250   145.8180    10.0060     0.0140     2.5350     0.2990
 2868.5000   -33.6060     9.2900     5.6090     6.0860   145.0400    10.0060     0.0260     2.5460     0.3000
 2869.0000   -33.0150     7.1830     5.4600     6.1740   142.2630    10.0060     0.0370     2.5540     0.3010
 2869.5000   -32.4250     5.0760     5.2750     6.3140   140.6470    10.0060     0.0460     2.5510     0.3010
 2870.0000   -31.8370     4.7740     5.1380     6.4480   139.7490    10.0100     0.0530     2.5490     0.3020
 2870.5000   -31.2510     5.8890     5.3500     6.5810   139.8940    10.0160     0.0580     2.5710     0.3030
 2871.0000   -31.1110     7.1840     5.5190     6.7060   143.4860    10.0220     0.0570     2.5810     0.3040
 2871.5000   -31.4950     8.4800     5.6870     6.7720   147.1270    10.0260     0.0440     2.5650     0.3040
 2872.0000   -31.8760     9.4190     5.8430     6.8300   148.0500    10.0260     0.0220     2.5380     0.3090
 2872.5000   -32.2600     8.3590     5.3790     6.7680   146.4110    10.0290    -0.0030     2.5430     0.3140
 2873.0000   -32.6440     8.4710     5.2770     6.7060   144.7670    10.0320     0.0070     2.5510     0.3110
 2873.5000   -33.0270     8.6350     5.2170     6.5790   143.1520    10.0350     0.0260     2.5580     0.3060
 2874.0000   -33.3090     8.7520     5.1570     6.4640   142.9490    10.0370     0.0240     2.5490     0.3150
 2874.5000   -33.2870     8.3240     5.1220     6.3460   143.9240    10.0400     0.0200     2.5390     0.3300
 2875.0000   -32.9860     7.9930     5.0670     6.2310   145.9400    10.0440     0.0180     2.5390     0.3260
 2875.5000   -32.6940     7.6960     5.0130     6.0940   148.0560    10.0420     0.0160     2.5390     0.3220
 2876.0000   -32.4040     7.0780     4.9530     5.9420   150.4390    10.0130     0.0260     2.5410     0.3200
 2876.5000   -32.1170     6.2030     4.8630     5.7910   153.3320     9.9860     0.0300     2.5310     0.3300
 2877.0000   -31.9140     5.9510     4.7870     5.6390   156.4490     9.9610     0.0350     2.5310     0.3290
 2877.5000   -32.0270     7.8390     4.6810     5.4870   156.7570     9.9350     0.0190     2.5220     0.3290
 2878.0000   -32.2350     7.6620     4.5750     5.3350   152.1470     9.9090     0.0200     2.5190     0.3290
 2878.5000   -32.4430     7.4170     4.4690     5.2330   148.5260     9.8820     0.0490     2.5410     0.3320
 2879.0000   -32.6520     7.3510     4.3550     5.2330   147.2180     9.8650     0.0670     2.5340     0.3290
 2879.5000   -32.8610     8.0580     4.4680     5.2840   146.6020     9.8600     0.0610     2.5250     0.3230
 2880.0000   -33.0700     8.2070     4.5900     5.3780   144.3290     9.8560     0.0440     2.5430     0.3210
 2880.5000   -33.2800     8.0260     4.7110     5.4730   141.5510     9.8520    -0.0010     2.5150     0.3190
