~VERSION INFORMATION
 VERS.                2.0:   CWLS LOG ASCII STANDARD - VERSION 2.0
 WRAP.                 NO:   ONE LINE PER DEPTH STEP
~WELL INFORMATION
#MNEM.UNIT      DATA TYPE    INFORMATION
#----------   ------------   ------------------------------
 STRT.F           80.0000:   START DEPTH
 STOP.F         1100.0000:   STOP DEPTH
 STEP.F            0.5000:   STEP LENGTH
 NULL.          -999.2500:   NO VALUE
 COMP.          U.S. NAVY:   COMPANY
 WELL.     NPR #3 #65-S-2:   WELL
 FLD .             TEAPOT:   FIELD
 LOC .       S2 T38N R78W:   LOCATION
 CNTY.            NATRONA:   COUNTY
 STAT.            WYOMING:   STATE
 CTRY. UNITED STATES OF AMERICA:   COUNTRY
 SRVC.       Schlumberger:   SERVICE COMPANY
 DATE.        17-JUL-1964:   LOGDATE
 API .       490250642600:   API NUMBER
~CURVE INFORMATION
#MNEM.UNIT       API CODE    CURVE DESCRIPTION
#----------   ------------   ------------------------------
 DEPT.F                  :   
 CALS.IN     60 280 50 00:   CALIPER FROM SONIC LOG
 DT  .US/F   60 520 33 00:   INTERVAL TRANSIT TIME
 GR  .GAPI   30 310 01 00:   GAMMA RAY
 ASN .OHMM   05 041 16 00:   AMPLIFIER SHORT NORMAL 16"
 CILD.MMHO   05 110 46 00:   CONDUCTIVITY INDUCTION LOG DEEP
 ILD .OHMM   05 120 46 00:   INDUCTION LOG DEEP
 SPR .MV     05 010 01 00:   SPONTANEOUS POTENTIAL FROM RES.
~PARAMETER INFORMATION
#MNEM.UNIT          VALUE    DESCRIPTION
#----------   ------------   ------------------------------
 PD  .                 GL:   PERMANENT DATUM
 EPD .F              5199:   ELEVATION PERMANENT DATUM
 LMF .                 KB:   LOG MEASURED FROM
 DAPD.F                 5:   FEET ABOVE PERMANENT DATUM
 DMF .                 KB:   DRILLING MEASURED FROM
 EKB .F              5204:   KELLING BUSHING
 EGL .F              5199:   GROUND LEVEL
 DATE.        17-JUL-1964:   RUN DATE
 RUN .                  1:   RUN NUMBER
 DD  .F              1100:   DEPTH DRILLER
 DL  .F              1101:   DEPTH LOGGER
 BLI .F              1100:   BOTTOM LOG INTERVAL
 TLI .F                85:   TOP LOG INTERVAL
 CS  .IN            8.625:   CASING SIZE
 CBD .F                10:   CASING BOTTOM DRILLER
 BS  .IN             6.75:   BIT SIZE
 BSD .F              1100:   BIT SIZE AT DEPTH
 DFT .                GEL:   DRILLING FLUID TYPE
 DFD .                9.5:   DRILLING FLUID DENSITY
 DFV .                 47:   DRILLING FLUID VISCOSITY
 MSS .           FLOWLINE:   MUD SAMPLE SOURCE
 RMS .OHMM           2.60:   RESISTIVITY MUD SAMPLE
 MST .F                80:   MUD SAMPLE TEMPERATURE
 RMF .OHMM           1.65:   RESISTIVITY MUD FILTRATE SAMPLE
 MFST.F                80:   MUD FILTRATE SAMPLE TEMPERATURE
 RMC .OHMM           2.53:   RESISTIVITY MUD CAKE
 MCST.F                80:   MUD CAKE SAMPLE TEMPERATURE
 MFSS.                 FP:   MUD FILTRATE SAMPLE SOURCE
 MCSS.                 FP:   MUD CAKE SAMPLE SOURCE
 TCS .HRS               2:   TIME CURCULATED STOPPED
 LUN .               4507:   LOGGING UNIT NUMBER
 LUL .               CSPR:   LOGGING UNIT LOCATION
 ENGI.             DANNER:   RECORDING ENGINEER
 CLNT.            A2DTECH:   CLIENT CODE
 ORIG.        2" 5" PRINT:   ORIGIN OF DATA
 UWI .       490250642600:   UNIQUE WELL ID
 DICO. A2D Technologies, Inc.:   DIGITIZING COMPANY
~OTHER INFORMATION
~A   DEPT     CALS         DT         GR          ASN      CILD         ILD      SPR   
# ...
  535.0000     6.1815   116.0317    55.8011     4.5023   247.7159     3.8677   -31.5350
  535.5000     6.1670   115.6522    58.8253     4.5056   254.6294     3.8697   -31.7481
  536.0000     6.1825   116.2554    60.0360     4.2255   255.1801     3.7578   -31.5291
  536.5000     6.1831   117.0854    56.5655     4.1141   243.9387     3.7237   -31.5255
  537.0000     6.1836   116.4036    56.1154     4.3271   236.1453     3.7260   -31.3741
  537.5000     6.1847   116.3265    53.5504     4.5041   225.9538     3.8303   -31.5200
  538.0000     6.2012   117.0053    50.3812     4.5963   212.9697     3.9537   -31.3681
  538.5000     6.2327   115.7347    46.4568     4.6591   198.5721     4.2421   -31.2161
  539.0000     6.3213   109.7457    44.0429     4.7149   178.7634     4.5149   -31.2127
  539.5000     6.4273   105.2847    42.9885     4.8783   166.6151     4.7816   -31.2673
  540.0000     6.3525    97.4979    42.5376     5.3743   152.5449     5.3263   -31.5052
  540.5000     6.0066    91.1472    42.2385     6.4535   133.8706     6.4054   -32.8337
  541.0000     5.6608    85.1744    45.3019     8.2073   125.3273     7.3284   -34.1371
  541.5000     5.7215    83.8883    49.4471     9.1260   114.3365     7.9947   -34.7747
  542.0000     6.0082    88.4216    51.0333     9.9117   106.9916     9.5741   -34.7720
  542.5000     6.0539    89.3271    50.6873    10.6606   102.9006    10.6066   -34.7690
  543.0000     6.0695    91.1397    49.9576    11.6390    98.5832    10.9230   -34.7655
  543.5000     6.0700    93.2546    51.5302    12.1246    96.6029    10.9999   -34.7630
  544.0000     6.0553    93.1020    52.5499    12.7824    92.5744    11.3493   -35.0580
  544.5000     6.0409    91.8155    51.5453    13.5064    89.4198    12.1386   -35.2861
  545.0000     6.0414    89.6976    49.1843    14.5172    86.1900    12.6719   -35.5241
  545.5000     6.0721    87.3530    48.1601    15.3472    82.0606    12.9703   -35.7939
  546.0000     6.1936    84.3004    48.0120    15.6782    79.9550    13.1765   -36.0596
  546.5000     6.2388    81.8801    48.1661    15.8282    77.5362    13.3655   -36.3870
  547.0000     6.1723    81.6040    47.7070    15.9035    76.3149    13.5630   -36.7193
  547.5000     5.9237    83.4918    47.1073    16.0660    74.5322    13.7802   -37.4590
  548.0000     5.8489    85.3799    48.9732    16.6377    73.7715    13.8087   -38.4618
  548.5000     5.8193    86.2099    51.1951    17.1771    73.0127    13.9331   -38.9732
  549.0000     5.8046    89.1562    54.6738    17.5417    72.9266    13.9350   -39.8868
  549.5000     5.9107    94.4458    56.6421    17.6269    71.4913    14.1185   -41.2841
  550.0000     6.1070    95.1245    58.9124    17.3029    71.4820    14.3873   -42.3249
  550.5000     6.2431    95.6521    59.8318    17.0613    70.7220    14.6060   -43.9612
  551.0000     6.4243    96.3309    58.4169    16.8795    69.9626    14.7698   -44.1073
  551.5000     6.6206    97.1609    57.5407    16.8799    69.0656    14.9910   -44.1043
  552.0000     6.6964    97.7641    56.8166    16.8802    68.4417    15.0154   -43.9519
  552.5000     6.7271    97.9141    55.9136    16.8807    67.3715    15.0692   -43.6761
  553.0000     6.7426    97.4587    57.7319    16.8810    66.8740    15.2675   -42.4461
  553.5000     6.7432    97.3061    60.1532    16.8814    65.4154    15.4707   -41.9612
  554.0000     6.7587    97.5314    62.5746    16.8817    64.4560    15.5982   -41.6652
  554.5000     6.7593    97.9115    63.3344    16.8821    63.1466    15.7043   -41.5527
  555.0000     6.7598    98.5235    63.7920    16.8825    62.3877    15.7511   -41.6990
  555.5000     6.7603    98.9737    65.3071    16.8155    62.2892    15.7530   -41.8452
  556.0000     6.7609    99.2635    69.0880    16.5788    61.6149    15.6612   -41.8415
  556.5000     6.7765    99.7911    72.2646    16.3597    61.8675    15.4579   -41.8390
  557.0000     6.7921   100.7722    75.4413    16.0456    63.8396    15.2384   -41.8360
  557.5000     6.7625   101.5266    79.0712    15.5371    72.8727    14.2191   -41.8331
  558.0000     6.6576   102.2810    82.2478    14.7690    81.7813    12.4742   -41.8301
  558.5000     6.5376   103.1109    83.6118    13.4981    90.0025    11.8209   -41.6778
  559.0000     6.4177   103.9409    83.1602    12.1700   101.3703    10.6839   -41.2678
  559.5000     6.4030   104.6197    82.5634    11.3719   115.8430     8.6937   -39.6302
  560.0000     6.5543   105.0717    83.9881     9.2465   131.1377     7.7876   -36.1550
  560.5000     6.5397   105.1461    85.4435     8.6830   144.7992     6.8665   -34.7685
  561.0000     6.4951   105.2958    86.3543     8.2288   159.1835     6.6557   -34.3605
  561.5000     6.5106   105.4451    86.6609     7.7117   171.9099     6.0638   -34.2086
  562.0000     6.5112   105.7460    84.8527     7.3668   174.7054     5.7623   -34.3549
  562.5000     6.4514   106.4248    81.9871     7.1127   177.4870     5.7642   -34.3513
  563.0000     6.3465   107.1060    79.7257     6.8556   179.2489     5.7661   -34.2394
  563.5000     6.4084   107.8807    78.0685     6.7204   180.4602     5.7681   -33.8986
  564.0000     6.5755   108.6979    78.2240     6.6197   180.4491     5.8804   -33.2698
  564.5000     6.7097   108.9131    78.5306     6.6950   180.1135     5.9212   -32.9662
  565.0000     6.8005   108.3066    75.9671     6.7852   177.4315     5.9981   -32.8462
  565.5000     6.8613   107.4737    73.1015     6.8639   175.2508     6.0744   -32.6274
  566.0000     6.9371   106.9431    71.4443     6.8908   172.8692     6.0763   -32.7015
  566.5000     6.9979   106.5637    72.0530     6.8761   171.4087     6.0781   -32.8376
  567.0000     7.0135   106.6378    73.2659     6.8615   171.3997     6.0800   -32.7899
  567.5000     7.0140   107.3165    74.6299     6.8444   171.3879     6.0821   -32.3843
  568.0000     7.0145   108.3732    74.3202     6.7964   172.1257     6.0837   -32.2325
  568.5000     7.0150   109.2032    74.1857     6.7130   172.1145     6.0856   -32.2295
  569.0000     7.0155   110.4111    72.5175     6.6060   172.1017     6.0874   -32.2261
  569.5000     7.0161   110.1828    70.7203     6.4712   172.0921     6.0893   -32.4297
  570.0000     7.0015   108.6696    70.7259     6.4446   171.3323     6.0913   -32.8167
  570.5000     6.9569   107.8367    69.5219     6.5859   171.3211     6.0930   -33.7774
  571.0000     6.8670   107.1549    67.4105     6.6699   171.3099     6.0949   -34.0034
  571.5000     6.8525   106.6231    68.3213     6.7007   171.2976     6.0971   -33.4036
  572.0000     6.8681   106.2449    67.1184     6.7475   171.2874     6.0987   -32.9637
  572.5000     6.8855   105.9316    68.4824     6.7759   170.4653     6.1005   -32.7893
  573.0000     6.9020   105.6372    72.1122     6.7557   170.2920     6.0568   -32.5002
  573.5000     6.9149   105.4842    74.5336     6.7167   171.4908     5.9545   -32.3015
  574.0000     6.9456   105.3316    76.1997     6.6841   172.7391     5.9568   -32.1966
  574.5000     6.9612   105.1033    76.2042     6.6211   174.2253     5.8838   -32.1118
  575.0000     6.9617   105.0262    76.6618     6.5682   175.9607     5.8108   -31.8927
  575.5000     6.9622   105.3271    78.0258     6.5183   177.9438     5.8131   -31.8893
  576.0000     6.9627   106.5350    79.2387     6.4611   177.9341     5.8146   -31.8867
  576.5000     6.9632   106.9118    80.4527     6.3897   177.9105     5.8166   -31.8838
  577.0000     6.9486   106.9859    81.5226     6.3600   177.1632     5.8931   -32.0298
  577.5000     6.8438   107.3619    81.8202     6.3604   176.2164     5.9697   -32.1763
  578.0000     6.7689   107.7388    81.6735     6.3767   174.1458     6.0466   -32.3217
  578.5000     6.7544   106.8299    80.6217     6.4899   173.4118     6.1537   -32.5400
  579.0000     6.7700   105.6946    77.6050     6.6310   172.6272     6.2743   -32.7780
  579.5000     6.7706   104.9372    75.7957     6.8028   171.8656     6.2762   -33.0576
  580.0000     6.7711   104.1799    77.6140     6.9611   168.6128     6.3727   -33.0551
