~VERSION INFORMATION
 VERS.                2.0:   CWLS LOG ASCII STANDARD - VERSION 2.0
 WRAP.                 NO:   ONE LINE PER DEPTH STEP
~WELL INFORMATION
#MNEM.UNIT      DATA TYPE    INFORMATION
#----------   ------------   ------------------------------
 STRT.F           80.0000:   START DEPTH
 STOP.F         1100.0000:   STOP DEPTH
 STEP.F            0.5000:   STEP LENGTH
 NULL.          -999.2500:   NO VALUE
 COMP.          U.S. NAVY:   COMPANY
 WELL.     NPR #3 #65-S-2:   WELL
 FLD .             TEAPOT:   FIELD
 LOC .       S2 T38N R78W:   LOCATION
 CNTY.            NATRONA:   COUNTY
 STAT.            WYOMING:   STATE
 CTRY. UNITED STATES OF AMERICA:   COUNTRY
 SRVC.       Schlumberger:   SERVICE COMPANY
 DATE.        17-JUL-1964:   LOGDATE
 API .       490250642600:   API NUMBER
~CURVE INFORMATION
#MNEM.UNIT       API CODE    CURVE DESCRIPTION
#----------   ------------   ------------------------------
 DEPT.F                  :   
 CALS.IN     60 280 50 00:   CALIPER FROM SONIC LOG
 DT  .US/F   60 520 33 00:   INTERVAL TRANSIT TIME
 GR  .GAPI   30 310 01 00:   GAMMA RAY
 ASN .OHMM   05 041 16 00:   AMPLIFIER SHORT NORMAL 16"
 CILD.MMHO   05 110 46 00:   CONDUCTIVITY INDUCTION LOG DEEP
 ILD .OHMM   05 120 46 00:   INDUCTION LOG DEEP
 SPR .MV     05 010 01 00:   SPONTANEOUS POTENTIAL FROM RES.
~PARAMETER INFORMATION
#MNEM.UNIT          VALUE    DESCRIPTION
#----------   ------------   ------------------------------
 PD  .                 GL:   PERMANENT DATUM
 EPD .F              5199:   ELEVATION PERMANENT DATUM
 LMF .                 KB:   LOG MEASURED FROM
 DAPD.F                 5:   FEET ABOVE PERMANENT DATUM
 DMF .                 KB:   DRILLING MEASURED FROM
 EKB .F              5204:   KELLING BUSHING
 EGL .F              5199:   GROUND LEVEL
 DATE.        17-JUL-1964:   RUN DATE
 RUN .                  1:   RUN NUMBER
 DD  .F              1100:   DEPTH DRILLER
 DL  .F              1101:   DEPTH LOGGER
 BLI .F              1100:   BOTTOM LOG INTERVAL
 TLI .F                85:   TOP LOG INTERVAL
 CS  .IN            8.625:   CASING SIZE
 CBD .F                10:   CASING BOTTOM DRILLER
 BS  .IN             6.75:   BIT SIZE
 BSD .F              1100:   BIT SIZE AT DEPTH
 DFT .                GEL:   DRILLING FLUID TYPE
 DFD .                9.5:   DRILLING FLUID DENSITY
 DFV .                 47:   DRILLING FLUID VISCOSITY
 MSS .           FLOWLINE:   MUD SAMPLE SOURCE
 RMS .OHMM           2.60:   RESISTIVITY MUD SAMPLE
 MST .F                80:   MUD SAMPLE TEMPERATURE
 RMF .OHMM           1.65:   RESISTIVITY MUD FILTRATE SAMPLE
 MFST.F                80:   MUD FILTRATE SAMPLE TEMPERATURE
 RMC .OHMM           2.53:   RESISTIVITY MUD CAKE
 MCST.F                80:   MUD CAKE SAMPLE TEMPERATURE
 MFSS.                 FP:   MUD FILTRATE SAMPLE SOURCE
 MCSS.                 FP:   MUD CAKE SAMPLE SOURCE
 TCS .HRS               2:   TIME CURCULATED STOPPED
 LUN .               4507:   LOGGING UNIT NUMBER
 LUL .               CSPR:   LOGGING UNIT LOCATION
 ENGI.             DANNER:   RECORDING ENGINEER
 CLNT.            A2DTECH:   CLIENT CODE
 ORIG.        2" 5" PRINT:   ORIGIN OF DATA
 UWI .       490250642600:   UNIQUE WELL ID
 DICO. A2D Technologies, Inc.:   DIGITIZING COMPANY
~OTHER INFORMATION
~A   DEPT     CALS         DT         GR          ASN      CILD         ILD      SPR   
# ...
  125.5000  -999.2500  -999.2500  -999.2500     6.8082   167.6098     6.6723   -41.6528
  126.0000  -999.2500  -999.2500  -999.2500     6.8087   168.8323     6.7487   -41.6513
  126.5000  -999.2500  -999.2500  -999.2500     6.8009   170.7435     6.6760   -41.6496
  127.0000  -999.2500  -999.2500  -999.2500     6.7217   172.1208     6.6527   -41.7973
  127.5000  -999.2500  -999.2500  -999.2500     6.5558   173.2410     6.5303   -41.9449
  128.0000  -999.2500  -999.2500  -999.2500     6.5509   174.3214     6.5321   -41.9434
  128.5000  -999.2500  -999.2500  -999.2500     6.5119   174.7233     6.5340   -42.0911
  129.0000  -999.2500  -999.2500  -999.2500     6.4656   173.4731     6.5362   -42.0893
  129.5000  -999.2500  -999.2500  -999.2500     6.4356   169.9801     6.6395   -42.0194
  130.0000  -999.2500  -999.2500  -999.2500     6.4686   161.2269     6.9133   -41.7784
  130.5000  -999.2500  -999.2500  -999.2500     6.7897   153.1214     7.2248   -41.6379
  131.0000  -999.2500  -999.2500  -999.2500     7.0834   144.4161     7.5546   -41.6364
  131.5000  -999.2500  -999.2500  -999.2500     7.4475   138.2211     7.8908   -41.6348
  132.0000  -999.2500  -999.2500  -999.2500     8.0391   135.3294     8.0708   -41.6334
  132.5000  -999.2500  -999.2500  -999.2500     8.3725   131.2495     8.1932   -41.7810
  133.0000  -999.2500  -999.2500  -999.2500     8.3540   128.6327     8.1505   -41.7792
  133.5000  -999.2500  -999.2500  -999.2500     8.1639   129.8728     7.9576   -41.9273
  134.0000  -999.2500  -999.2500  -999.2500     7.9057   132.7231     7.7506   -41.9254
  134.5000  -999.2500  -999.2500  -999.2500     7.7376   134.4362     7.6467   -42.1515
  135.0000  -999.2500  -999.2500  -999.2500     7.6266   136.4516     7.5286   -42.2207
  135.5000  -999.2500  -999.2500  -999.2500     7.4992   139.8204     7.4106   -42.2188
  136.0000  -999.2500  -999.2500  -999.2500     7.3880   144.2415     7.2925   -42.2176
  136.5000  -999.2500  -999.2500  -999.2500     7.1684   150.6498     7.1620   -42.2160
  137.0000  -999.2500  -999.2500  -999.2500     7.0362   155.5590     7.0142   -41.9821
  137.5000  -999.2500  -999.2500  -999.2500     6.9705   161.1149     7.0161   -41.9151
  138.0000  -999.2500  -999.2500  -999.2500     6.8966   164.8802     6.9696   -41.9133
  138.5000  -999.2500  -999.2500  -999.2500     6.7320   168.9546     6.6456   -41.9121
  139.0000  -999.2500  -999.2500  -999.2500     6.3558   173.8161     6.1250   -41.9106
  139.5000  -999.2500  -999.2500  -999.2500     6.1644   177.0435     5.9082   -41.9091
  140.0000  -999.2500  -999.2500  -999.2500     5.9701   182.0356     5.6004   -41.9076
  140.5000  -999.2500  -999.2500  -999.2500     5.8417   187.3229     5.5325   -41.9059
  141.0000  -999.2500  -999.2500  -999.2500     5.7914   188.8623     5.5344   -41.6940
  141.5000  -999.2500  -999.2500  -999.2500     5.7770   190.9943     5.5364   -41.6051
  142.0000  -999.2500  -999.2500  -999.2500     5.7625   193.0040     5.5745   -41.6036
  142.5000  -999.2500  -999.2500  -999.2500     5.7632   194.7228     5.6147   -41.6021
  143.0000  -999.2500  -999.2500  -999.2500     5.7786   194.3014     5.6169   -41.6004
  143.5000  -999.2500  -999.2500  -999.2500     5.7793   192.2280     5.6185   -41.5991
  144.0000  -999.2500  -999.2500  -999.2500     5.8038   188.7115     5.6952   -41.5976
  144.5000  -999.2500  -999.2500  -999.2500     5.8679   187.1407     5.6969   -41.5961
  145.0000  -999.2500  -999.2500  -999.2500     5.9754   183.4579     5.6988   -41.5946
  145.5000  -999.2500  -999.2500  -999.2500     6.0458   180.2470     5.7010   -41.5930
  146.0000  -999.2500  -999.2500  -999.2500     6.1419   177.1956     5.7270   -41.5917
  146.5000  -999.2500  -999.2500  -999.2500     6.2144   173.7041     6.0034   -41.5773
  147.0000  -999.2500  -999.2500  -999.2500     6.3351   170.8832     6.2349   -41.4394
  147.5000  -999.2500  -999.2500  -999.2500     6.4121   168.4505     6.4555   -41.2891
  148.0000  -999.2500  -999.2500  -999.2500     6.4553   167.2555     6.5324   -41.2875
  148.5000  -999.2500  -999.2500  -999.2500     6.5033   166.7964     6.5825   -41.2861
  149.0000  -999.2500  -999.2500  -999.2500     6.5278   165.4332     6.4612   -41.2847
  149.5000  -999.2500  -999.2500  -999.2500     6.5339   165.4267     6.4210   -41.2829
  150.0000  -999.2500  -999.2500  -999.2500     6.5345   166.9162     6.1657   -41.3313
  150.5000  -999.2500  -999.2500  -999.2500     6.5219   172.0060     6.1681   -41.5782
  151.0000  -999.2500  -999.2500  -999.2500     6.4446   173.6387     6.1697   -41.5768
  151.5000  -999.2500  -999.2500  -999.2500     6.3971   172.8808     6.1715   -41.5981
  152.0000  -999.2500  -999.2500  -999.2500     6.3568   171.6367     6.2172   -41.8716
  152.5000  -999.2500  -999.2500  -999.2500     6.3575   166.8539     6.3391   -41.8703
  153.0000  -999.2500  -999.2500  -999.2500     6.3778   163.5180     6.4763   -42.1669
  153.5000  -999.2500  -999.2500  -999.2500     6.5285   159.4586     6.6574   -42.1654
  154.0000  -999.2500  -999.2500  -999.2500     6.7015   154.1309     6.7798   -42.1639
  154.5000  -999.2500  -999.2500  -999.2500     6.9057   149.5210     6.9758   -42.1623
  155.0000  -999.2500  -999.2500  -999.2500     7.2583   144.2865     7.2957   -42.0417
  155.5000  -999.2500  -999.2500  -999.2500     7.6557   139.4785     7.8309   -41.8594
  156.0000  -999.2500  -999.2500  -999.2500     7.9543   135.0299     8.0777   -41.5618
  156.5000  -999.2500  -999.2500  -999.2500     8.1662   131.6385     8.2853   -41.2623
  157.0000  -999.2500  -999.2500  -999.2500     8.3543   127.6347     8.4071   -41.1116
  157.5000  -999.2500  -999.2500  -999.2500     8.6980   123.2784     8.5108   -41.1749
  158.0000  -999.2500  -999.2500  -999.2500     9.7354   120.6487     8.5129   -41.5559
  158.5000  -999.2500  -999.2500  -999.2500    10.5404   118.8847     8.4398   -41.6508
  159.0000  -999.2500  -999.2500  -999.2500    11.7347   120.3736     8.3627   -41.8512
  159.5000  -999.2500  -999.2500  -999.2500    12.7121   122.5574     8.2446   -41.8493
  160.0000  -999.2500  -999.2500  -999.2500    12.8174   125.9480     8.1066   -41.7089
  160.5000  -999.2500  -999.2500  -999.2500    11.4138   134.8429     7.4011   -41.2394
  161.0000  -999.2500  -999.2500  -999.2500     9.2864   142.1207     6.7728   -40.9505
  161.5000  -999.2500  -999.2500  -999.2500     8.4005   147.2824     6.5078   -40.9493
  162.0000  -999.2500  -999.2500  -999.2500     8.1023   152.4252     6.3606   -40.9477
  162.5000  -999.2500  -999.2500  -999.2500     7.5655   158.6826     6.3621   -40.9464
  163.0000  -999.2500  -999.2500  -999.2500     7.4334   161.4806     6.2894   -40.9449
  163.5000  -999.2500  -999.2500  -999.2500     7.3212   161.0404     6.7403   -40.9431
  164.0000  -999.2500  -999.2500  -999.2500     7.2378   156.9755     7.2965   -40.9419
  164.5000  -999.2500  -999.2500  -999.2500     7.2851   150.2470     7.7899   -40.9403
  165.0000  -999.2500  -999.2500  -999.2500     7.4185   143.9371     7.9646   -40.9389
  165.5000  -999.2500  -999.2500  -999.2500     7.7207   139.7366     8.1671   -40.9583
  166.0000  -999.2500  -999.2500  -999.2500     8.1887   137.5450     8.3184   -41.0849
  166.5000  -999.2500  -999.2500  -999.2500     8.4680   133.7346     8.3950   -41.1843
  167.0000  -999.2500  -999.2500  -999.2500     8.5563   131.4621     8.3972   -41.2310
  167.5000  -999.2500  -999.2500  -999.2500     8.6187   129.0544     8.3732   -41.2295
  168.0000  -999.2500  -999.2500  -999.2500     8.6491   127.7232     8.3259   -41.2538
  168.5000  -999.2500  -999.2500  -999.2500     8.6482   127.9591     8.2118   -41.3756
  169.0000  -999.2500  -999.2500  -999.2500     8.5904   129.2062     8.1684   -41.3164
  169.5000  -999.2500  -999.2500  -999.2500     8.5325   130.3443     8.1072   -41.2235
  170.0000  -999.2500  -999.2500  -999.2500     8.4416   130.6892     8.1839   -41.1326
  170.5000  -999.2500  -999.2500  -999.2500     8.3822   130.6799     8.2605   -41.0407
