~VERSION INFORMATION
 VERS.                2.0:   CWLS LOG ASCII STANDARD - VERSION 2.0
 WRAP.                 NO:   ONE LINE PER DEPTH STEP
~WELL INFORMATION
#MNEM.UNIT      DATA TYPE    INFORMATION
#----------   ------------   ------------------------------
 STRT.F          180.0000:   START DEPTH
 STOP.F         3280.0000:   STOP DEPTH
 STEP.F            0.5000:   STEP LENGTH
 NULL.          -999.2500:   NO VALUE
 COMP.    FENIX & SCISSON:   COMPANY
 WELL.  FENIX "AX" #85-10:   WELL
 FLD .              NPR 3:   FIELD
 LOC .      S10 T38N R78W:   LOCATION
 CNTY.            NATRONA:   COUNTY
 STAT.            WYOMING:   STATE
 CTRY. UNITED STATES OF AMERICA:   COUNTRY
 SRVC.       SCHLUMBERGER:   SERVICE COMPANY
 DATE.        03-JUL-1977:   LOGDATE
 API .     49025104000000:   API NUMBER
~CURVE INFORMATION
#MNEM.UNIT       API CODE    CURVE DESCRIPTION
#----------   ------------   ------------------------------
 DEPT.F                  :   
 SPR .MV     11 010 01 00:   SPONTANEOUS POTENTIAL FROM RES.
 MSFL.OHMM   11 270 04 00:   MICRO SPHERICALLY FOCUSED
 LLD .OHMM   11 220 10 00:   LATEROLOG LOG DEEP
 LLS .OHMM   11 220 09 00:   LATEROLOG LOG SHALLOW
 GRD .GAPI   45 310 01 00:   GAMMA RAY FROM DENSITY LOG
 CALD.IN     45 280 60 00:   CALIPER FROM DENSITY LOG
 CORR.G/C3   45 356 01 00:   DENSITY CORRECTION
 RHOB.G/C3   45 350 01 00:   BULK DENSITY
 NPHI.DEC    42 890 03 00:   NEUTRON POROSITY SANDSTONE
~PARAMETER INFORMATION
#MNEM.UNIT          VALUE    DESCRIPTION
#----------   ------------   ------------------------------
 EKB .F         5210.0000:   Kelly bushing
 EGL .F         5200.0000:   Ground level
 EDF .F            0.0000:   Drilling floor
 TD  .F         3265.0000:   Total depth
 DATE.        03-JUL-1977:   Date logged
 CLNT.            A2DTECH:   Client Code
 SL  . 2000' FSL & 100' FEL:   Surface Location
 PD  .                 GL:   Permanent Datum
 EPD .F              5200:   Elevation Permanent Datum
 LMF .                 KB:   Log Measured From
 DMF .                 KB:   Drilling Measured From
 DAPD.F                10:   Feet Above Permanent Datum
 DD  .F              3261:   Depth driller
 DL  .F              3265:   Depth logger
 BLI .F              2364:   Bottom log interval
 TLI .F               220:   Top log interval
 CS1 .IN            8.625:   Casing size
 CBD1.      8.625" @ 220':   Casing driller 1
 CBL1.F               220:   Casing logger 1
 BS1 .IN            7.875:   Bit size
 BSD1.F              3261:   Depth drilled with bit1
 DFT .                KCL:   Type fluid in hole
 DFD .                9.7:   Density
 DFV .                 38:   Viscosity
 DFPH.                7.5:   pH
 DFL .                 40:   Fluid loss
 MSS .                PIT:   Source of sample
 RMS .OHMM          0.167:   Rm
 MST .F                78:   Rm Meas. temp.
 RMF .OHMM          0.167:   Rmf
 MFST.F                78:   Rmf Meas. temp.
 MFSS.               MEAS:   Source Rmf.
 RMB .OHMM          0.103:   Rm. at BHT
 BHT .F               126:   BHT.
 TLAB.HRS            0930:   Time logger at bottom
 MRT .F               126:   Maximum recorded temp.
 LUN .               5642:   Logging unit number
 LUL .               CSPR:   Logging unit location
 ENGI.             MARTIN:   Recorded By
 WITN.         PETTINGILL:   Witnessed by
 ORIG.           5" PRINT:   Origin of data
 UWI .     49025104000000:   Unique Well ID
 DICO. A2D TECHNOLOGIES, INC.:   Digitizing Company
~OTHER INFORMATION
~A   DEPT      SPR       MSFL        LLD        LLS         GRD      CALD        CORR        RHOB       NPHI 
# ...
 1019.5000   -30.8230     9.7980     7.1320     8.1770   112.3840    11.5180     0.0090     2.5310     0.3130
 1020.0000   -30.9180     9.9110     7.1240     8.2010   114.3420    11.5050     0.0140     2.5420     0.3160
 1020.5000   -31.0140    10.0240     7.1160     8.1970   116.3300    11.5020     0.0090     2.5540     0.3180
 1021.0000   -31.1070    10.1370     7.1070     8.1320   118.3310    11.5140     0.0070     2.5610     0.3200
 1021.5000   -31.1960     9.8770     7.0990     8.1030   119.1470    11.5250     0.0060     2.5550     0.3260
 1022.0000   -31.2800     9.6210     7.0860     8.0680   119.1300    11.5370     0.0050     2.5470     0.3310
 1022.5000   -31.3640     9.3330     7.0920     8.0330   117.4430    11.5490     0.0100     2.5470     0.3260
 1023.0000   -31.4490     9.3330     7.1090     7.9890   115.7490    11.5600     0.0140     2.5440     0.3320
 1023.5000   -31.5340     9.4120     7.1250     8.0580   114.0540    11.5720     0.0120     2.5340     0.3340
 1024.0000   -31.6180     9.4770     7.1420     8.0580   112.3670    11.5760     0.0090     2.5320     0.3230
 1024.5000   -31.7030     9.5420     7.1580     8.1320   112.6290    11.5700     0.0110     2.5470     0.3070
 1025.0000   -31.6910     9.6430     7.1750     8.1320   112.9520    11.5630     0.0140     2.5520     0.3130
 1025.5000   -31.6210     9.8900     7.1910     8.1320   113.2650    11.5560     0.0160     2.5520     0.3190
 1026.0000   -31.5500    10.1370     7.2070     8.1320   113.4140    11.5830     0.0260     2.5520     0.3150
 1026.5000   -31.4800    10.1840     7.2700     8.1320   110.5350    11.6180     0.0370     2.5710     0.3080
 1027.0000   -31.4090    10.2620     7.5450     8.2110   107.3110    11.6750     0.0370     2.5830     0.2990
 1027.5000   -31.3390    10.3250     7.8200     8.6180   104.0490    11.7310     0.0310     2.5730     0.3010
 1028.0000   -31.2680    11.5300     8.0950     9.0260   100.9010    11.7870     0.0170     2.5540     0.2930
 1028.5000   -31.1980    12.5210     8.3690     9.4340   101.3070    11.8440     0.0160     2.5660     0.2890
 1029.0000   -31.1280    12.3380     8.6440     9.8420   101.9090    11.9000     0.0190     2.5620     0.2850
 1029.5000   -31.0570    12.1810     8.9190    10.2490   100.8670    11.9310     0.0220     2.5560     0.2750
 1030.0000   -30.9880    12.5690     9.1930    10.5040    99.4480    11.7880     0.0250     2.5560     0.2650
 1030.5000   -30.9280    13.0660     9.4190    10.6480    98.0870    11.6410     0.0260     2.5570     0.2700
 1031.0000   -31.0120    13.4750     9.4190    10.7910    99.2670    11.6060     0.0170     2.5380     0.2760
 1031.5000   -31.1520    13.3560     9.4190    10.9100   100.5790    11.5890     0.0150     2.5440     0.2730
 1032.0000   -31.2920    13.1490     9.4190    10.8690   101.8850    11.5770     0.0140     2.5340     0.2760
 1032.5000   -31.4330    12.9420     9.4190    10.7600   103.1860    11.5810     0.0100     2.5250     0.2800
 1033.0000   -31.5740    12.7350     9.4190    10.6510   104.4770    11.5900     0.0070     2.5240     0.2830
 1033.5000   -31.7150    12.5210     9.4190    10.5160   105.6490    11.5980     0.0160     2.5360     0.2820
 1034.0000   -31.8560    12.8850     9.4190    10.6130   104.0470    11.6060     0.0160     2.5430     0.2760
 1034.5000   -31.9960    13.2630     9.4190    10.6730   102.0660    11.6140     0.0110     2.5360     0.2710
 1035.0000   -32.1180    13.6400     9.5190    10.8350   101.7080    11.6150     0.0130     2.5300     0.2690
 1035.5000   -32.0620    14.0170     9.6030    10.9980   102.6100    11.6450     0.0230     2.5360     0.2720
 1036.0000   -31.9080    14.1090     9.6870    11.1610   102.1750    11.6820     0.0100     2.5430     0.2750
 1036.5000   -31.7570    14.0380     9.7710    11.3240   101.3790    11.7190     0.0160     2.5360     0.2710
 1037.0000   -31.6050    13.8380     9.8550    11.4870   101.5950    11.7570     0.0230     2.5470     0.2670
 1037.5000   -31.4530    13.6390     9.9390    11.5280   102.2940    11.7930     0.0220     2.5370     0.2630
 1038.0000   -31.3020    13.4390    10.0440    11.4090   103.0440    11.7210     0.0210     2.5300     0.2610
 1038.5000   -31.1510    13.2400    10.0050    11.3060   102.1820    11.6420     0.0220     2.5250     0.2640
 1039.0000   -30.9990    13.1090     9.9320    11.2030   100.8730    11.5650     0.0270     2.5390     0.2690
 1039.5000   -30.9810    13.0210     9.8600    11.0990    99.5500    11.5120     0.0320     2.5540     0.2760
 1040.0000   -31.0720    12.9030     9.7870    11.0110    98.2250    11.4780     0.0310     2.5670     0.2830
 1040.5000   -31.1640    12.7840     9.7150    10.9400    97.7160    11.4740     0.0260     2.5720     0.2860
 1041.0000   -31.2560    12.7530     9.6420    10.8460    98.4000    11.4950     0.0270     2.5760     0.2820
 1041.5000   -31.3490    12.7300     9.5690    10.7510    99.0900    11.5130     0.0280     2.5500     0.2790
 1042.0000   -31.4410    12.6610     9.4970    10.6560    99.7810    11.5320     0.0280     2.5580     0.2760
 1042.5000   -31.5340    12.5920     9.4190    10.5610   100.4610    11.5370     0.0220     2.5500     0.2780
 1043.0000   -31.6260    12.5220     9.4190    10.5160   100.5020    11.5290     0.0160     2.5350     0.2810
 1043.5000   -31.7190    12.4530     9.5140    10.5160    99.4650    11.5200     0.0220     2.5330     0.2760
 1044.0000   -31.8110    12.4070     9.5740    10.6130    98.4300    11.5010     0.0260     2.5400     0.2710
 1044.5000   -31.9050    12.5210     9.6350    10.6810    99.2500    11.4970     0.0120     2.5380     0.2640
 1045.0000   -31.9930    12.7890     9.6950    10.7750   100.3840    11.4960     0.0090     2.5360     0.2680
 1045.5000   -32.0700    12.8710     9.7560    10.8690   100.7920    11.4810     0.0100     2.5410     0.2770
 1046.0000   -32.2460    12.9100     9.8160    10.9630    99.2440    11.4770    -0.0040     2.5280     0.2850
 1046.5000   -32.1180    12.9520     9.8770    11.0570    99.9040    11.4770     0.0040     2.5190     0.2810
 1047.0000   -31.9960    12.9890     9.9380    11.1510   100.9470    11.4770     0.0250     2.5330     0.2750
 1047.5000   -31.8710    13.3730     9.9980    11.2450   100.4740    11.4530     0.0210     2.5350     0.2730
 1048.0000   -31.7450    13.7430    10.0590    11.3390    99.4980    11.4370     0.0310     2.5540     0.2730
 1048.5000   -31.6190    13.8520    10.1190    11.4220    98.8060    11.4190     0.0210     2.5420     0.2740
 1049.0000   -31.4940    12.8610    10.1370    11.4220   100.0790    11.4010     0.0090     2.5250     0.2710
 1049.5000   -31.3680    12.6370     9.9440    11.4220   101.4860    11.3830     0.0050     2.5170     0.2680
 1050.0000   -31.2420    13.0150     9.7950    11.4220   102.8940    11.3780     0.0030     2.5180     0.2680
 1050.5000   -31.1170    13.4750     9.6470    11.1700   104.3020    11.3780     0.0050     2.5280     0.2800
 1051.0000   -30.9910    12.9750     9.4990    10.9410   105.7130    11.3780     0.0040     2.5350     0.2840
 1051.5000   -30.9540    12.4370     9.3500    10.7120   107.1420    11.3780     0.0030     2.5360     0.2860
 1052.0000   -31.1720    11.8500     9.1630    10.4830   106.7800    11.3780     0.0010     2.5290     0.2880
 1052.5000   -31.3920    12.1820     9.1630    10.3250   103.7300    11.3780     0.0020     2.5230     0.2890
 1053.0000   -31.6120    12.5470     9.0790    10.2310   100.7740    11.3910     0.0130     2.5200     0.2840
 1053.5000   -31.8320    12.8710     9.1000    10.2580   100.3960    11.4030     0.0210     2.5270     0.2770
 1054.0000   -32.0520    12.5290     9.1400    10.3110   100.3930    11.4160     0.0160     2.5450     0.2700
 1054.5000   -32.2750    12.1550     9.1800    10.3640   100.3910    11.4280     0.0150     2.5530     0.2660
 1055.0000   -32.5010    11.7820     9.2200    10.4170   100.6960    11.4420     0.0160     2.5520     0.2730
 1055.5000   -32.4910    11.5280     9.2480    10.4700   101.1410    11.4620     0.0170     2.5520     0.2820
