~VERSION INFORMATION
 VERS.                2.0:   CWLS LOG ASCII STANDARD - VERSION 2.0
 WRAP.                 NO:   ONE LINE PER DEPTH STEP
~WELL INFORMATION
#MNEM.UNIT      DATA TYPE    INFORMATION
#----------   ------------   ------------------------------
 STRT.F           48.0000:   START DEPTH
 STOP.F          673.0000:   STOP DEPTH
 STEP.F            0.5000:   STEP LENGTH
 NULL.          -999.2500:   NO VALUE
 COMP. Fluor Daniel (NPOSR) Inc:   COMPANY
 WELL.      72-9-X-3 #3-3:   WELL
 FLD .             N.P.R.:   FIELD
 LOC .       S3 T38N R78W:   LOCATION
 CNTY.            NATRONA:   COUNTY
 STAT.            WYOMING:   STATE
 CTRY. UNITED STATES OF AMERICA:   COUNTRY
 SRVC.      Western Atlas:   SERVICE COMPANY
 DATE.        09-APR-1996:   LOGDATE
 API .       490252277400:   API NUMBER
~CURVE INFORMATION
#MNEM.UNIT       API CODE    CURVE DESCRIPTION
#----------   ------------   ------------------------------
 DEPT.F                  :   
 RILD.OHMM   07 120 46 00:   INDUCTION LOG DEEP RESISTIVITY
 RILM.OHMM   07 120 44 00:   INDUCTION LOG MEDIUM RESISTIVITY
 CALD.IN     45 280 60 00:   CALIPER
 GRD .GAPI   45 310 01 00:   GAMMA RAY FROM DENSITY LOG
 ZDEN.G/C3   45 350 01 00:   BULK DENSITY
 ZCOR.G/C3   45 356 01 00:   DENSITY CORRECTION
 PORZ.DEC    45 890 10 00:   DENSITY POROSITY
 PORS.DEC    42 890 01 00:   NEUTRON POROSITY LIMESTONE
~PARAMETER INFORMATION
#MNEM.UNIT          VALUE    DESCRIPTION
#----------   ------------   ------------------------------
 PD  .                 GL:   PERMANENT DATUM
 EPD .F              5118:   ELEVATION PERMANENT DATUM
 LMF .                 KB:   LOG MEASURED FROM
 DAPD.F                10:   FEET ABOVE PERMANENT DATUM
 DMF .                 KB:   DRILLING MEASURED FROM
 EKB .F              5128:   KELLING BUSHING
 EDF .F              5127:   DRILLING FLOOR
 EGL .F              5118:   GROUND LEVEL
 DATE.         9-APR-1996:   RUN DATE
 RUN .                  1:   RUN NUMBER
 DD  .F               665:   DEPTH DRILLER
 DL  .F               675:   DEPTH LOGGER
 BLI .F               668:   BOTTOM LOG INTERVAL
 CS  .IN            9.625:   CASING SIZE
 CBD .F                54:   CASING BOTTOM DRILLER
 CBL .F                56:   CASING BOTTOM LOGGER
 BS  .IN             8.75:   BIT SIZE
 BSD .F               665:   BIT SIZE AT DEPTH
 DFT .                AIR:   DRILLING FLUID TYPE
 MRT .F                85:   MAXIMUM RECORDED TEMPERATURE
 LUN .            HL-6530:   LOGGING UNIT NUMBER
 LUL .             CASPER:   LOGGING UNIT LOCATION
 ENGI.        VERN RAUTIO:   RECORDING ENGINEER
 WITN.        STEVE HARDY:   WITNESSED BY
 CLNT.            A2DTECH:   CLIENT CODE
 ORIG.           5" PRINT:   ORIGIN OF DATA
 UWI .       490252277400:   UNIQUE WELL ID
 DICO. A2D Technologies, Inc.:   DIGITIZING COMPANY
~OTHER INFORMATION
~A   DEPT     RILD       RILM       CALD        GRD       ZDEN       ZCOR       PORZ         PORS 
# ...
  372.0000     6.8010     6.9300     8.9700   197.6640     2.4430     0.0050     0.1240     0.3290
  372.5000     6.5690     6.7230     8.9690   200.1020     2.4410     0.0040     0.1250     0.3300
  373.0000     6.3350     6.5150     8.9680   200.2500     2.4370     0.0030     0.1250     0.3310
  373.5000     6.0890     6.2170     8.9670   199.8310     2.4280     0.0020     0.1260     0.3340
  374.0000     5.7170     5.7330     8.9660   200.2100     2.4180     0.0010     0.1290     0.3390
  374.5000     5.3250     5.2480     8.9650   200.5270     2.3920    -0.0020     0.1340     0.3470
  375.0000     4.9330     4.7630     8.9640   199.8590     2.3620    -0.0040     0.1410     0.3570
  375.5000     4.6600     4.4840     8.9630   199.1730     2.3410     0.0100     0.1580     0.3670
  376.0000     4.6170     4.4090     8.9630   198.4900     2.3630     0.0230     0.1800     0.3770
  376.5000     4.6630     4.4910     8.9620   197.8080     2.4050     0.0030     0.1880     0.3650
  377.0000     4.7080     4.8580     8.9610   197.1340     2.4390    -0.0130     0.1700     0.3490
  377.5000     4.7910     5.2070     8.9600   196.4020     2.4550    -0.0100     0.1450     0.3320
  378.0000     4.9570     5.5550     8.9590   194.9500     2.4600    -0.0080     0.1220     0.3290
  378.5000     5.3370     5.9030     8.9580   194.2540     2.4600    -0.0080     0.1160     0.3300
  379.0000     5.7170     6.2510     8.9570   194.9720     2.4560    -0.0110     0.1140     0.3320
  379.5000     6.0980     6.6000     8.9560   196.1570     2.4530    -0.0130     0.1160     0.3340
  380.0000     6.4780     6.8340     8.9550   196.5540     2.4560    -0.0080     0.1200     0.3360
  380.5000     6.8580     7.0370     8.9540   195.8090     2.4630    -0.0030     0.1190     0.3340
  381.0000     7.1400     7.2540     8.9540   193.6420     2.4650    -0.0010     0.1150     0.3300
  381.5000     7.2010     7.3190     8.9550   191.1290     2.4650    -0.0010     0.1120     0.3260
  382.0000     7.2620     7.3890     8.9570   192.7390     2.4660     0.0020     0.1120     0.3210
  382.5000     7.3230     7.4590     8.9580   192.6860     2.4680     0.0000     0.1120     0.3220
  383.0000     7.3840     7.5290     8.9590   191.2090     2.4700    -0.0020     0.1100     0.3220
  383.5000     7.4450     7.5990     8.9610   186.4900     2.4690     0.0010     0.1080     0.3230
  384.0000     7.5060     7.6670     8.9620   183.8190     2.4660     0.0040     0.1090     0.3230
  384.5000     7.5270     7.6670     8.9630   185.9300     2.4620     0.0080     0.1110     0.3230
  385.0000     7.5270     7.6670     8.9650   191.5160     2.4590     0.0160     0.1130     0.3210
  385.5000     7.5270     7.6670     8.9660   196.9070     2.4620     0.0140     0.1150     0.3190
  386.0000     7.5270     7.6320     8.9670   198.0200     2.4700     0.0120     0.1160     0.3170
  386.5000     7.4930     7.5750     8.9690   197.5810     2.4770     0.0120     0.1140     0.3170
  387.0000     7.4220     7.5180     8.9700   196.5730     2.4770     0.0140     0.1100     0.3180
  387.5000     7.3500     7.4620     8.9710   196.2510     2.4740     0.0170     0.1050     0.3190
  388.0000     7.2790     7.4050     8.9730   196.3690     2.4720     0.0190     0.1050     0.3190
  388.5000     7.2080     7.3480     8.9770   196.4780     2.4730     0.0130     0.1070     0.3190
  389.0000     7.1880     7.3210     8.9940   196.2540     2.4740     0.0040     0.1090     0.3200
  389.5000     7.1880     7.3210     8.9930   195.0130     2.4720     0.0060     0.1080     0.3210
  390.0000     7.1880     7.3210     8.9930   192.5040     2.4630     0.0020     0.1080     0.3230
  390.5000     7.1880     7.3210     8.9920   191.0200     2.4540    -0.0020     0.1090     0.3240
  391.0000     7.1610     7.2520     8.9910   190.1790     2.4500    -0.0060     0.1130     0.3240
  391.5000     6.9920     7.0510     8.9910   191.5020     2.4490    -0.0100     0.1200     0.3250
  392.0000     6.5920     6.8640     8.9900   193.5040     2.4390    -0.0140     0.1220     0.3270
  392.5000     6.1980     6.4250     8.9900   195.6040     2.4290    -0.0110     0.1230     0.3340
  393.0000     5.8140     5.9220     8.9890   193.3550     2.4270    -0.0090     0.1290     0.3460
  393.5000     5.8270     5.9440     8.9880   201.2310     2.4330    -0.0060     0.1400     0.3620
  394.0000     5.8680     5.9810     8.9880   210.2140     2.4130    -0.0030     0.1480     0.3600
  394.5000     5.8500     6.0170     8.9870   209.9520     2.4050     0.0080     0.1440     0.3510
  395.0000     5.8230     6.0540     8.9870   205.3550     2.4210     0.0020     0.1340     0.3420
  395.5000     5.7960     6.0900     8.9860   200.1830     2.4400    -0.0080     0.1230     0.3430
  396.0000     5.7690     6.1450     8.9850   197.7160     2.4500    -0.0120     0.1200     0.3430
  396.5000     5.6310     6.0250     8.9850   197.9350     2.4540     0.0010     0.1190     0.3440
  397.0000     5.4440     5.7910     8.9840   198.0830     2.4540     0.0150     0.1190     0.3450
  397.5000     5.2580     5.5570     8.9840   198.5120     2.4470     0.0180     0.1260     0.3530
  398.0000     5.0170     5.2540     8.9830   200.9460     2.4240     0.0090     0.1420     0.3680
  398.5000     5.0780     5.2890     8.9820   203.7750     2.3960    -0.0040     0.1630     0.3790
  399.0000     5.1970     5.3590     8.9820   204.2670     2.3760     0.0050     0.1660     0.3720
  399.5000     5.3160     5.4280     8.9810   200.5800     2.3910     0.0150     0.1510     0.3590
  400.0000     5.4640     5.6140     8.9810   196.6920     2.4300     0.0160     0.1340     0.3470
  400.5000     5.6860     5.8590     8.9800   194.6200     2.4550     0.0040     0.1180     0.3370
  401.0000     5.9070     6.1040     8.9790   196.8050     2.4570     0.0030     0.1170     0.3360
  401.5000     6.1290     6.3490     8.9790   198.1440     2.4530    -0.0010     0.1190     0.3360
  402.0000     6.3500     6.5690     8.9780   198.2290     2.4490    -0.0100     0.1230     0.3330
  402.5000     6.5720     6.7770     8.9780   196.4980     2.4480    -0.0080     0.1240     0.3300
  403.0000     6.8010     6.9920     8.9770   193.7870     2.4500    -0.0060     0.1220     0.3270
  403.5000     6.7380     6.8650     8.9760   192.5080     2.4550    -0.0090     0.1190     0.3270
  404.0000     6.5920     6.7030     8.9760   193.2320     2.4600    -0.0080     0.1150     0.3280
  404.5000     6.2400     6.5550     8.9750   194.1670     2.4630    -0.0030     0.1140     0.3290
  405.0000     5.8890     6.1560     8.9750   194.0890     2.4590     0.0000     0.1150     0.3300
  405.5000     5.5370     5.7920     8.9740   195.9250     2.4500    -0.0130     0.1200     0.3360
  406.0000     5.1850     5.4270     8.9740   199.8410     2.4190    -0.0260     0.1340     0.3540
  406.5000     4.7910     5.1580     8.9740   204.3570     2.3890    -0.0160     0.1550     0.3720
  407.0000     4.8490     5.0170     8.9740   204.3550     2.3710     0.0140     0.1700     0.3700
  407.5000     4.9670     5.1450     8.9740   204.0070     2.3770     0.0190     0.1660     0.3580
  408.0000     5.0810     5.3830     8.9740   203.0690     2.4020     0.0170     0.1560     0.3440
  408.5000     5.2490     5.6210     8.9690   200.2520     2.4360     0.0160     0.1330     0.3310
  409.0000     5.4010     5.9870     8.9640   197.4200     2.4650     0.0160     0.1180     0.3220
  409.5000     5.8780     6.3750     8.9600   194.5400     2.4730     0.0130     0.1080     0.3200
  410.0000     6.3160     6.7640     8.9550   192.0820     2.4750     0.0080     0.1080     0.3190
  410.5000     6.7540     7.1520     8.9540   189.7760     2.4740     0.0040     0.1080     0.3190
  411.0000     7.1920     7.5400     8.9550   189.6990     2.4760     0.0000     0.1050     0.3190
  411.5000     7.6670     7.7520     8.9560   189.7110     2.4830     0.0030     0.1010     0.3180
  412.0000     7.6670     7.7980     8.9560   189.7270     2.4880     0.0050     0.0980     0.3180
