~VERSION INFORMATION
 VERS.                2.0:   CWLS LOG ASCII STANDARD - VERSION 2.0
 WRAP.                 NO:   ONE LINE PER DEPTH STEP
~WELL INFORMATION
#MNEM.UNIT      DATA TYPE    INFORMATION
#----------   ------------   ------------------------------
 STRT.F           48.0000:   START DEPTH
 STOP.F          673.0000:   STOP DEPTH
 STEP.F            0.5000:   STEP LENGTH
 NULL.          -999.2500:   NO VALUE
 COMP. Fluor Daniel (NPOSR) Inc:   COMPANY
 WELL.      72-9-X-3 #3-3:   WELL
 FLD .             N.P.R.:   FIELD
 LOC .       S3 T38N R78W:   LOCATION
 CNTY.            NATRONA:   COUNTY
 STAT.            WYOMING:   STATE
 CTRY. UNITED STATES OF AMERICA:   COUNTRY
 SRVC.      Western Atlas:   SERVICE COMPANY
 DATE.        09-APR-1996:   LOGDATE
 API .       490252277400:   API NUMBER
~CURVE INFORMATION
#MNEM.UNIT       API CODE    CURVE DESCRIPTION
#----------   ------------   ------------------------------
 DEPT.F                  :   
 RILD.OHMM   07 120 46 00:   INDUCTION LOG DEEP RESISTIVITY
 RILM.OHMM   07 120 44 00:   INDUCTION LOG MEDIUM RESISTIVITY
 CALD.IN     45 280 60 00:   CALIPER
 GRD .GAPI   45 310 01 00:   GAMMA RAY FROM DENSITY LOG
 ZDEN.G/C3   45 350 01 00:   BULK DENSITY
 ZCOR.G/C3   45 356 01 00:   DENSITY CORRECTION
 PORZ.DEC    45 890 10 00:   DENSITY POROSITY
 PORS.DEC    42 890 01 00:   NEUTRON POROSITY LIMESTONE
~PARAMETER INFORMATION
#MNEM.UNIT          VALUE    DESCRIPTION
#----------   ------------   ------------------------------
 PD  .                 GL:   PERMANENT DATUM
 EPD .F              5118:   ELEVATION PERMANENT DATUM
 LMF .                 KB:   LOG MEASURED FROM
 DAPD.F                10:   FEET ABOVE PERMANENT DATUM
 DMF .                 KB:   DRILLING MEASURED FROM
 EKB .F              5128:   KELLING BUSHING
 EDF .F              5127:   DRILLING FLOOR
 EGL .F              5118:   GROUND LEVEL
 DATE.         9-APR-1996:   RUN DATE
 RUN .                  1:   RUN NUMBER
 DD  .F               665:   DEPTH DRILLER
 DL  .F               675:   DEPTH LOGGER
 BLI .F               668:   BOTTOM LOG INTERVAL
 CS  .IN            9.625:   CASING SIZE
 CBD .F                54:   CASING BOTTOM DRILLER
 CBL .F                56:   CASING BOTTOM LOGGER
 BS  .IN             8.75:   BIT SIZE
 BSD .F               665:   BIT SIZE AT DEPTH
 DFT .                AIR:   DRILLING FLUID TYPE
 MRT .F                85:   MAXIMUM RECORDED TEMPERATURE
 LUN .            HL-6530:   LOGGING UNIT NUMBER
 LUL .             CASPER:   LOGGING UNIT LOCATION
 ENGI.        VERN RAUTIO:   RECORDING ENGINEER
 WITN.        STEVE HARDY:   WITNESSED BY
 CLNT.            A2DTECH:   CLIENT CODE
 ORIG.           5" PRINT:   ORIGIN OF DATA
 UWI .       490252277400:   UNIQUE WELL ID
 DICO. A2D Technologies, Inc.:   DIGITIZING COMPANY
~OTHER INFORMATION
~A   DEPT     RILD       RILM       CALD        GRD       ZDEN       ZCOR       PORZ         PORS 
# ...
  210.0000     8.5800     8.5460     8.9770   190.9500     2.4840     0.0040     0.1080     0.3110
  210.5000     8.5710     8.5640     8.9900   191.2380     2.4960     0.0080     0.1010     0.3090
  211.0000     8.5550     8.4880     8.9890   190.9200     2.4990     0.0090     0.0940     0.3090
  211.5000     8.4960     8.3830     8.9820   190.2850     2.4980     0.0120     0.0920     0.3100
  212.0000     8.4380     8.2780     8.9740   189.7660     2.4940     0.0170     0.0940     0.3120
  212.5000     8.3690     8.1730     8.9800   190.7240     2.4870     0.0210     0.0950     0.3140
  213.0000     8.2880     8.1030     8.9860   191.6850     2.4810     0.0170     0.0990     0.3170
  213.5000     8.2290     8.0310     8.9930   192.6210     2.4760     0.0130     0.1030     0.3210
  214.0000     8.1780     8.0590     8.9940   192.6830     2.4730     0.0110     0.1060     0.3210
  214.5000     8.2120     8.0820     8.9940   192.3000     2.4720     0.0170     0.1080     0.3190
  215.0000     8.2390     8.1040     8.9940   190.4610     2.4720     0.0200     0.1080     0.3160
  215.5000     8.2670     8.1260     8.9940   187.0850     2.4750     0.0220     0.1080     0.3130
  216.0000     8.2940     8.1490     8.9940   183.4050     2.4790     0.0240     0.1060     0.3110
  216.5000     8.3220     8.1710     8.9940   183.6970     2.4800     0.0220     0.1040     0.3100
  217.0000     8.4500     8.2990     8.9930   186.4280     2.4820     0.0120     0.1030     0.3090
  217.5000     8.6220     8.4740     8.9920   188.0470     2.4840     0.0020     0.1020     0.3080
  218.0000     8.7350     8.6430     8.9910   187.2280     2.4880    -0.0040     0.1010     0.3070
  218.5000     8.7630     8.6720     8.9890   186.4080     2.4920     0.0040     0.0980     0.3080
  219.0000     8.7910     8.7000     8.9880   188.3110     2.4900     0.0060     0.0970     0.3080
  219.5000     8.9680     8.7230     8.9870   189.9640     2.4860     0.0070     0.0980     0.3100
  220.0000     8.9620     8.8060     8.9860   190.4870     2.4840     0.0050     0.1000     0.3110
  220.5000     8.9460     8.8850     8.9850   189.4360     2.4840     0.0030     0.1010     0.3130
  221.0000     8.9310     8.8470     8.9840   187.4780     2.4850     0.0020     0.1010     0.3120
  221.5000     8.9150     8.8100     8.9830   185.5560     2.4860     0.0080     0.1000     0.3110
  222.0000     8.9000     8.7740     8.9820   184.4930     2.4860     0.0160     0.1000     0.3110
  222.5000     8.8850     8.7380     8.9810   185.2540     2.4850     0.0230     0.1000     0.3100
  223.0000     8.8330     8.7020     8.9790   186.4710     2.4830     0.0270     0.1000     0.3110
  223.5000     8.7820     8.6650     8.9780   186.2330     2.4800     0.0250     0.1010     0.3120
  224.0000     8.7320     8.5870     8.9770   186.4970     2.4740     0.0200     0.1050     0.3130
  224.5000     8.6240     8.4410     8.9760   188.8880     2.4690     0.0130     0.1090     0.3140
  225.0000     8.5030     8.2950     8.9750   190.0930     2.4680     0.0060     0.1100     0.3180
  225.5000     8.3820     8.1900     8.9740   189.5860     2.4670     0.0060     0.1110     0.3220
  226.0000     8.2600     8.1000     8.9740   188.5920     2.4690     0.0060     0.1100     0.3250
  226.5000     8.1390     8.0110     8.9740   187.2260     2.4730     0.0060     0.1070     0.3290
  227.0000     8.0280     7.9210     8.9740   188.4220     2.4770     0.0060     0.1060     0.3320
  227.5000     7.9680     7.8320     8.9740   191.2570     2.4760     0.0070     0.1080     0.3330
  228.0000     7.9550     7.8090     8.9740   191.3620     2.4760     0.0080     0.1140     0.3330
  228.5000     7.9550     7.8090     8.9740   191.3150     2.4700     0.0040     0.1150     0.3310
  229.0000     7.9550     7.8090     8.9740   190.5220     2.4630    -0.0030     0.1120     0.3300
  229.5000     7.9670     7.8340     8.9740   187.3720     2.4620    -0.0100     0.1080     0.3280
  230.0000     8.0060     7.8810     8.9740   186.9770     2.4670    -0.0100     0.1070     0.3240
  230.5000     8.0450     7.9290     8.9740   189.5570     2.4730    -0.0060     0.1110     0.3200
  231.0000     8.0840     7.9690     8.9740   192.1940     2.4760     0.0000     0.1160     0.3170
  231.5000     8.1230     8.0250     8.9740   193.2470     2.4680     0.0050     0.1150     0.3150
  232.0000     8.1620     8.0800     8.9740   189.8480     2.4600     0.0090     0.1110     0.3170
  232.5000     8.2960     8.1750     8.9740   186.3110     2.4600     0.0130     0.1070     0.3180
  233.0000     8.4620     8.2980     8.9740   185.4320     2.4690     0.0110     0.1040     0.3180
  233.5000     8.5850     8.4200     8.9740   185.8890     2.4760     0.0060     0.1010     0.3170
  234.0000     8.7080     8.5430     8.9740   187.4240     2.4800     0.0100     0.1000     0.3180
  234.5000     8.8310     8.6650     8.9740   189.5110     2.4840     0.0150     0.1010     0.3160
  235.0000     8.9540     8.7880     8.9740   191.6490     2.4850     0.0150     0.1020     0.3130
  235.5000     9.0770     8.9680     8.9740   191.5220     2.4830     0.0090     0.1020     0.3100
  236.0000     9.1350     8.9500     8.9740   190.8860     2.4820     0.0060     0.1030     0.3100
  236.5000     9.0230     8.9170     8.9740   188.5200     2.4820     0.0060     0.1050     0.3120
  237.0000     8.9410     8.8850     8.9740   185.2130     2.4790     0.0030     0.1070     0.3130
  237.5000     8.8580     8.7640     8.9740   183.3410     2.4750     0.0000     0.1070     0.3140
  238.0000     8.7750     8.6380     8.9740   183.8990     2.4740     0.0020     0.1050     0.3150
  238.5000     8.7180     8.6030     8.9740   186.7880     2.4760     0.0040     0.1060     0.3160
  239.0000     8.6920     8.5690     8.9740   187.4830     2.4760     0.0060     0.1080     0.3160
  239.5000     8.6660     8.5100     8.9740   182.7040     2.4730     0.0050     0.1090     0.3160
  240.0000     8.6360     8.4470     8.9740   178.6260     2.4720     0.0030     0.1100     0.3150
  240.5000     8.5840     8.4000     8.9740   180.8210     2.4680     0.0040     0.1130     0.3160
  241.0000     8.5560     8.3810     8.9740   184.7420     2.4610     0.0100     0.1200     0.3180
  241.5000     8.5380     8.3620     8.9740   186.4070     2.4520     0.0090     0.1230     0.3170
  242.0000     8.5200     8.3330     8.9740   186.1350     2.4480     0.0040     0.1210     0.3160
  242.5000     8.5030     8.4850     8.9740   187.0090     2.4520    -0.0010     0.1180     0.3160
  243.0000     8.4850     8.6200     8.9740   188.0300     2.4560    -0.0060     0.1180     0.3160
  243.5000     8.6970     8.7570     8.9740   186.1650     2.4550    -0.0080     0.1190     0.3130
  244.0000     8.9030     8.8950     8.9740   182.8780     2.4530    -0.0060     0.1200     0.3080
  244.5000     9.1100     9.0320     8.9740   181.2640     2.4510    -0.0040     0.1200     0.3030
  245.0000     9.3160     9.1690     8.9740   181.5380     2.4510    -0.0020     0.1200     0.2980
  245.5000     9.4490     9.3670     8.9740   182.6710     2.4530     0.0040     0.1190     0.2910
  246.0000     9.7040     9.5990     8.9740   185.0120     2.4550     0.0080     0.1180     0.2900
  246.5000    10.0350     9.8320     8.9740   185.6700     2.4580     0.0030     0.1160     0.2890
  247.0000    10.2060    10.0420     8.9740   184.2330     2.4610     0.0000     0.1140     0.2890
  247.5000    10.3290    10.1650     8.9740   182.0290     2.4680     0.0000     0.1110     0.2860
  248.0000    10.4770    10.2880     8.9750   183.4070     2.4710     0.0110     0.1090     0.2830
  248.5000    10.6510    10.4250     8.9760   184.4750     2.4730     0.0140     0.1070     0.2780
  249.0000    10.8250    10.6410     8.9770   183.8330     2.4750     0.0170     0.1060     0.2770
  249.5000    10.9980    10.8570     8.9770   182.5130     2.4800     0.0200     0.1040     0.2760
  250.0000    11.1890    11.0730     8.9780   182.9580     2.4870     0.0220     0.1010     0.2740
