~VERSION INFORMATION
 VERS.                2.0:   CWLS LOG ASCII STANDARD - VERSION 2.0
 WRAP.                 NO:   ONE LINE PER DEPTH STEP
~WELL INFORMATION
#MNEM.UNIT      DATA TYPE    INFORMATION
#----------   ------------   ------------------------------
 STRT.F           48.0000:   START DEPTH
 STOP.F          673.0000:   STOP DEPTH
 STEP.F            0.5000:   STEP LENGTH
 NULL.          -999.2500:   NO VALUE
 COMP. Fluor Daniel (NPOSR) Inc:   COMPANY
 WELL.      72-9-X-3 #3-3:   WELL
 FLD .             N.P.R.:   FIELD
 LOC .       S3 T38N R78W:   LOCATION
 CNTY.            NATRONA:   COUNTY
 STAT.            WYOMING:   STATE
 CTRY. UNITED STATES OF AMERICA:   COUNTRY
 SRVC.      Western Atlas:   SERVICE COMPANY
 DATE.        09-APR-1996:   LOGDATE
 API .       490252277400:   API NUMBER
~CURVE INFORMATION
#MNEM.UNIT       API CODE    CURVE DESCRIPTION
#----------   ------------   ------------------------------
 DEPT.F                  :   
 RILD.OHMM   07 120 46 00:   INDUCTION LOG DEEP RESISTIVITY
 RILM.OHMM   07 120 44 00:   INDUCTION LOG MEDIUM RESISTIVITY
 CALD.IN     45 280 60 00:   CALIPER
 GRD .GAPI   45 310 01 00:   GAMMA RAY FROM DENSITY LOG
 ZDEN.G/C3   45 350 01 00:   BULK DENSITY
 ZCOR.G/C3   45 356 01 00:   DENSITY CORRECTION
 PORZ.DEC    45 890 10 00:   DENSITY POROSITY
 PORS.DEC    42 890 01 00:   NEUTRON POROSITY LIMESTONE
~PARAMETER INFORMATION
#MNEM.UNIT          VALUE    DESCRIPTION
#----------   ------------   ------------------------------
 PD  .                 GL:   PERMANENT DATUM
 EPD .F              5118:   ELEVATION PERMANENT DATUM
 LMF .                 KB:   LOG MEASURED FROM
 DAPD.F                10:   FEET ABOVE PERMANENT DATUM
 DMF .                 KB:   DRILLING MEASURED FROM
 EKB .F              5128:   KELLING BUSHING
 EDF .F              5127:   DRILLING FLOOR
 EGL .F              5118:   GROUND LEVEL
 DATE.         9-APR-1996:   RUN DATE
 RUN .                  1:   RUN NUMBER
 DD  .F               665:   DEPTH DRILLER
 DL  .F               675:   DEPTH LOGGER
 BLI .F               668:   BOTTOM LOG INTERVAL
 CS  .IN            9.625:   CASING SIZE
 CBD .F                54:   CASING BOTTOM DRILLER
 CBL .F                56:   CASING BOTTOM LOGGER
 BS  .IN             8.75:   BIT SIZE
 BSD .F               665:   BIT SIZE AT DEPTH
 DFT .                AIR:   DRILLING FLUID TYPE
 MRT .F                85:   MAXIMUM RECORDED TEMPERATURE
 LUN .            HL-6530:   LOGGING UNIT NUMBER
 LUL .             CASPER:   LOGGING UNIT LOCATION
 ENGI.        VERN RAUTIO:   RECORDING ENGINEER
 WITN.        STEVE HARDY:   WITNESSED BY
 CLNT.            A2DTECH:   CLIENT CODE
 ORIG.           5" PRINT:   ORIGIN OF DATA
 UWI .       490252277400:   UNIQUE WELL ID
 DICO. A2D Technologies, Inc.:   DIGITIZING COMPANY
~OTHER INFORMATION
~A   DEPT     RILD       RILM       CALD        GRD       ZDEN       ZCOR       PORZ         PORS 
# ...
  169.5000    10.3350    10.0210     8.9780   189.8060     2.4820     0.0040     0.1020     0.3010
  170.0000    10.2790     9.9790     8.9790   192.2980     2.4820     0.0040     0.1030     0.3010
  170.5000    10.2220     9.9350     8.9790   194.1290     2.4780     0.0040     0.1070     0.3000
  171.0000    10.1660     9.8910     8.9800   194.7950     2.4740    -0.0010     0.1070     0.2990
  171.5000    10.1090     9.8470     8.9810   193.6300     2.4750    -0.0010     0.1060     0.2970
  172.0000    10.0520     9.8030     8.9810   189.7510     2.4770     0.0040     0.1060     0.2980
  172.5000     9.9960     9.7600     8.9820   186.9340     2.4750     0.0060     0.1100     0.3000
  173.0000     9.9390     9.7160     8.9820   188.4110     2.4690     0.0180     0.1130     0.3040
  173.5000     9.9250     9.6720     8.9830   191.3940     2.4640     0.0150     0.1140     0.3060
  174.0000     9.9250     9.6540     8.9840   192.4920     2.4620     0.0110     0.1150     0.3080
  174.5000     9.9250     9.6780     8.9840   189.7680     2.4600     0.0060     0.1160     0.3080
  175.0000     9.9250     9.6970     8.9850   185.5720     2.4590     0.0020     0.1140     0.3080
  175.5000     9.9250     9.7160     8.9860   185.3560     2.4620     0.0110     0.1080     0.3090
  176.0000     9.9250     9.7430     8.9860   187.8570     2.4730     0.0230     0.1000     0.3120
  176.5000     9.9250     9.7270     8.9870   190.3390     2.4820     0.0140     0.1010     0.3180
  177.0000     9.9250     9.7000     8.9870   192.8170     2.4840     0.0040     0.1040     0.3230
  177.5000     9.8480     9.6730     8.9880   195.3260     2.4790    -0.0040     0.1070     0.3270
  178.0000     9.7590     9.6180     8.9890   195.8860     2.4750    -0.0040     0.1080     0.3270
  178.5000     9.6700     9.5050     8.9890   195.4860     2.4720    -0.0010     0.1100     0.3260
  179.0000     9.5810     9.3930     8.9900   194.7000     2.4710     0.0050     0.1120     0.3240
  179.5000     9.4570     9.2810     8.9910   193.7950     2.4690     0.0090     0.1160     0.3200
  180.0000     9.3250     9.1690     8.9910   192.8870     2.4640     0.0000     0.1190     0.3150
  180.5000     9.1930     9.0510     8.9920   191.9770     2.4560     0.0010     0.1190     0.3150
  181.0000     8.9970     8.8210     8.9920   192.2980     2.4530     0.0020     0.1190     0.3180
  181.5000     8.7510     8.5770     8.9930   194.2540     2.4530     0.0080     0.1160     0.3210
  182.0000     8.5050     8.3330     8.9940   194.9470     2.4560     0.0040     0.1160     0.3240
  182.5000     8.2590     8.0890     8.9940   193.2480     2.4580     0.0030     0.1150     0.3240
  183.0000     8.0130     7.8460     8.9950   191.2870     2.4590     0.0070     0.1160     0.3250
  183.5000     7.7950     7.6610     8.9960   191.9030     2.4600     0.0140     0.1190     0.3250
  184.0000     7.6670     7.5270     8.9960   194.9780     2.4580     0.0080     0.1220     0.3260
  184.5000     7.6870     7.5810     8.9970   196.7900     2.4510     0.0030     0.1220     0.3260
  185.0000     7.7380     7.6480     8.9980   196.4910     2.4470     0.0070     0.1230     0.3240
  185.5000     7.8970     7.7730     8.9990   195.4910     2.4500     0.0100     0.1230     0.3230
  186.0000     8.0730     7.9230     8.9990   192.4520     2.4580     0.0060     0.1200     0.3220
  186.5000     8.2700     8.0920     9.0000   188.9770     2.4670     0.0010     0.1160     0.3200
  187.0000     8.4980     8.3230     9.0010   187.0430     2.4680    -0.0030     0.1120     0.3130
  187.5000     8.7260     8.5530     9.0010   186.4810     2.4650     0.0000     0.1100     0.3010
  188.0000     8.9680     8.8850     9.0020   186.5860     2.4620     0.0040     0.1110     0.3000
  188.5000     8.9790     8.8750     9.0030   183.6520     2.4580     0.0030     0.1140     0.2990
  189.0000     8.9940     8.8480     9.0030   180.1650     2.4580     0.0030     0.1150     0.2980
  189.5000     9.0090     8.8210     9.0040   177.7220     2.4580     0.0020     0.1160     0.2960
  190.0000     9.0240     8.7930     9.0050   176.7890     2.4600    -0.0010     0.1170     0.2950
  190.5000     9.0380     8.7660     9.0050   176.8480     2.4670    -0.0040     0.1160     0.2950
  191.0000     9.0510     8.7380     9.0060   178.5780     2.4730     0.0000     0.1130     0.2950
  191.5000     8.9750     8.7110     9.0070   181.3010     2.4800     0.0040     0.1090     0.2950
  192.0000     8.9110     8.6840     9.0070   184.3360     2.4820     0.0130     0.1050     0.2950
  192.5000     8.8470     8.6430     9.0080   187.2270     2.4830     0.0200     0.1010     0.2960
  193.0000     8.8040     8.6550     9.0090   187.3170     2.4810     0.0240     0.1010     0.2990
  193.5000     8.8040     8.6780     9.0090   187.3090     2.4770     0.0240     0.1020     0.2990
  194.0000     8.8040     8.7010     9.0100   187.3020     2.4740     0.0250     0.1050     0.2990
  194.5000     8.9680     8.7230     9.0110   187.8700     2.4720     0.0280     0.1070     0.3010
  195.0000     8.9650     8.7870     9.0120   190.3830     2.4720     0.0300     0.1080     0.3020
  195.5000     8.9590     8.8470     9.0120   192.9460     2.4770     0.0280     0.1070     0.3020
  196.0000     8.9530     8.8850     9.0130   191.2820     2.4830     0.0220     0.1040     0.3010
  196.5000     8.9470     8.8850     9.0140   188.3730     2.4860     0.0150     0.1000     0.3010
  197.0000     8.9410     8.8740     9.0160   185.8860     2.4810     0.0080     0.1010     0.3010
  197.5000     8.9350     8.8300     9.0240   185.0420     2.4720     0.0070     0.1060     0.3020
  198.0000     8.9290     8.7850     9.0320   183.7860     2.4640     0.0080     0.1120     0.3060
  198.5000     8.9230     8.7410     9.0280   182.2860     2.4560     0.0100     0.1170     0.3100
  199.0000     8.9170     8.7230     9.0210   183.4430     2.4530     0.0070     0.1190     0.3120
  199.5000     8.9100     8.7230     9.0130   186.4830     2.4540     0.0020     0.1180     0.3120
  200.0000     8.9040     8.7230     9.0050   187.6810     2.4580    -0.0020     0.1150     0.3090
  200.5000     8.8980     8.7230     8.9970   181.7550     2.4640    -0.0060     0.1130     0.3070
  201.0000     8.8920     8.7230     8.9950   178.8680     2.4600    -0.0100     0.1150     0.3050
  201.5000     8.8870     8.7150     8.9970   179.4470     2.4570    -0.0010     0.1180     0.3030
  202.0000     8.8650     8.6970     8.9990   181.1950     2.4550     0.0080     0.1180     0.3010
  202.5000     8.8330     8.6790     9.0000   181.9450     2.4520     0.0130     0.1190     0.3010
  203.0000     8.8020     8.6610     9.0020   181.7910     2.4530     0.0080     0.1190     0.3020
  203.5000     8.7700     8.6430     9.0040   181.7490     2.4600     0.0030     0.1170     0.3030
  204.0000     8.7390     8.6250     9.0050   182.7290     2.4670     0.0020     0.1120     0.3040
  204.5000     8.7230     8.6070     9.0070   184.2050     2.4740     0.0020     0.1080     0.3060
  205.0000     8.7230     8.5890     9.0090   185.4410     2.4750     0.0000     0.1060     0.3080
  205.5000     8.7230     8.5710     9.0110   184.6570     2.4770     0.0000     0.1060     0.3090
  206.0000     8.6880     8.5530     9.0120   181.3470     2.4780     0.0010     0.1050     0.3110
  206.5000     8.6440     8.5350     9.0140   179.9780     2.4780     0.0030     0.1040     0.3090
  207.0000     8.6350     8.5170     9.0080   182.4090     2.4740     0.0080     0.1050     0.3080
  207.5000     8.6260     8.4980     9.0020   184.8510     2.4640     0.0150     0.1080     0.3100
  208.0000     8.6170     8.4860     8.9960   185.7990     2.4550     0.0110     0.1150     0.3110
  208.5000     8.6080     8.5030     8.9900   187.7060     2.4530     0.0060     0.1200     0.3120
  209.0000     8.5990     8.5170     8.9840   189.9710     2.4590     0.0010     0.1190     0.3120
  209.5000     8.5890     8.5310     8.9780   190.7130     2.4710     0.0000     0.1140     0.3110
