~VERSION INFORMATION
 VERS.                2.0:   CWLS LOG ASCII STANDARD - VERSION 2.0
 WRAP.                 NO:   ONE LINE PER DEPTH STEP
~WELL INFORMATION
#MNEM.UNIT      DATA TYPE    INFORMATION
#----------   ------------   ------------------------------
 STRT.F           48.0000:   START DEPTH
 STOP.F          673.0000:   STOP DEPTH
 STEP.F            0.5000:   STEP LENGTH
 NULL.          -999.2500:   NO VALUE
 COMP. Fluor Daniel (NPOSR) Inc:   COMPANY
 WELL.      72-9-X-3 #3-3:   WELL
 FLD .             N.P.R.:   FIELD
 LOC .       S3 T38N R78W:   LOCATION
 CNTY.            NATRONA:   COUNTY
 STAT.            WYOMING:   STATE
 CTRY. UNITED STATES OF AMERICA:   COUNTRY
 SRVC.      Western Atlas:   SERVICE COMPANY
 DATE.        09-APR-1996:   LOGDATE
 API .       490252277400:   API NUMBER
~CURVE INFORMATION
#MNEM.UNIT       API CODE    CURVE DESCRIPTION
#----------   ------------   ------------------------------
 DEPT.F                  :   
 RILD.OHMM   07 120 46 00:   INDUCTION LOG DEEP RESISTIVITY
 RILM.OHMM   07 120 44 00:   INDUCTION LOG MEDIUM RESISTIVITY
 CALD.IN     45 280 60 00:   CALIPER
 GRD .GAPI   45 310 01 00:   GAMMA RAY FROM DENSITY LOG
 ZDEN.G/C3   45 350 01 00:   BULK DENSITY
 ZCOR.G/C3   45 356 01 00:   DENSITY CORRECTION
 PORZ.DEC    45 890 10 00:   DENSITY POROSITY
 PORS.DEC    42 890 01 00:   NEUTRON POROSITY LIMESTONE
~PARAMETER INFORMATION
#MNEM.UNIT          VALUE    DESCRIPTION
#----------   ------------   ------------------------------
 PD  .                 GL:   PERMANENT DATUM
 EPD .F              5118:   ELEVATION PERMANENT DATUM
 LMF .                 KB:   LOG MEASURED FROM
 DAPD.F                10:   FEET ABOVE PERMANENT DATUM
 DMF .                 KB:   DRILLING MEASURED FROM
 EKB .F              5128:   KELLING BUSHING
 EDF .F              5127:   DRILLING FLOOR
 EGL .F              5118:   GROUND LEVEL
 DATE.         9-APR-1996:   RUN DATE
 RUN .                  1:   RUN NUMBER
 DD  .F               665:   DEPTH DRILLER
 DL  .F               675:   DEPTH LOGGER
 BLI .F               668:   BOTTOM LOG INTERVAL
 CS  .IN            9.625:   CASING SIZE
 CBD .F                54:   CASING BOTTOM DRILLER
 CBL .F                56:   CASING BOTTOM LOGGER
 BS  .IN             8.75:   BIT SIZE
 BSD .F               665:   BIT SIZE AT DEPTH
 DFT .                AIR:   DRILLING FLUID TYPE
 MRT .F                85:   MAXIMUM RECORDED TEMPERATURE
 LUN .            HL-6530:   LOGGING UNIT NUMBER
 LUL .             CASPER:   LOGGING UNIT LOCATION
 ENGI.        VERN RAUTIO:   RECORDING ENGINEER
 WITN.        STEVE HARDY:   WITNESSED BY
 CLNT.            A2DTECH:   CLIENT CODE
 ORIG.           5" PRINT:   ORIGIN OF DATA
 UWI .       490252277400:   UNIQUE WELL ID
 DICO. A2D Technologies, Inc.:   DIGITIZING COMPANY
~OTHER INFORMATION
~A   DEPT     RILD       RILM       CALD        GRD       ZDEN       ZCOR       PORZ         PORS 
# ...
  453.0000    31.1640    28.5830     8.9860   148.3550     2.1840     0.0020     0.2920     0.2300
  453.5000    30.1180    27.3410     8.9860   146.6160     2.1610     0.0050     0.2990     0.2310
  454.0000    28.8070    25.5480     8.9870   144.9190     2.1590     0.0080     0.2820     0.2330
  454.5000    27.4960    23.6320     8.9870   144.5510     2.2080     0.0120     0.2550     0.2350
  455.0000    26.1660    22.0140     8.9870   147.2110     2.2590     0.0170     0.2210     0.2360
  455.5000    24.8190    21.0150     8.9870   151.8640     2.3130     0.0140     0.1910     0.2380
  456.0000    23.4710    20.0150     8.9880   156.6940     2.3460     0.0080     0.1770     0.2400
  456.5000    22.1230    19.1140     8.9880   159.8420     2.3640     0.0020     0.1740     0.2420
  457.0000    20.7760    18.4940     8.9880   159.6620     2.3580     0.0020     0.1810     0.2420
  457.5000    19.5410    17.8750     8.9890   155.3590     2.3510     0.0110     0.1840     0.2390
  458.0000    18.9280    17.2570     8.9890   150.5290     2.3480     0.0190     0.1820     0.2360
  458.5000    18.3990    17.2300     8.9890   147.3540     2.3510     0.0160     0.1800     0.2370
  459.0000    18.3640    17.1870     8.9890   148.8890     2.3530     0.0050     0.1810     0.2390
  459.5000    18.3290    17.1430     8.9900   152.5410     2.3510    -0.0040     0.1840     0.2400
  460.0000    18.2930    17.0990     8.9900   154.9090     2.3480    -0.0030     0.1850     0.2400
  460.5000    18.2580    17.0750     8.9900   152.8420     2.3450     0.0000     0.1860     0.2400
  461.0000    18.1880    17.0510     8.9910   151.4660     2.3440     0.0030     0.1870     0.2390
  461.5000    18.0750    17.0270     8.9910   154.3180     2.3430     0.0070     0.1890     0.2370
  462.0000    17.9620    17.0030     8.9910   157.0170     2.3380     0.0110     0.1900     0.2360
  462.5000    17.8490    16.9780     8.9910   156.1020     2.3370     0.0150     0.1890     0.2360
  463.0000    17.7410    16.9420     8.9920   154.8800     2.3410     0.0190     0.1860     0.2370
  463.5000    17.9270    16.9630     8.9920   156.2170     2.3480     0.0230     0.1810     0.2370
  464.0000    18.1050    17.0090     8.9920   159.9430     2.3530     0.0250     0.1790     0.2380
  464.5000    18.2830    17.0540     8.9930   163.8140     2.3550     0.0240     0.1810     0.2380
  465.0000    18.4610    17.0990     8.9930   162.8470     2.3480     0.0220     0.1850     0.2400
  465.5000    18.6390    17.5960     8.9930   159.8070     2.3410     0.0210     0.1900     0.2410
  466.0000    18.8170    18.0840     8.9930   158.8670     2.3340     0.0190     0.1920     0.2420
  466.5000    18.9950    18.4070     8.9940   158.7290     2.3340     0.0170     0.1920     0.2430
  467.0000    19.1730    18.3290     8.9940   158.9130     2.3330     0.0130     0.1930     0.2450
  467.5000    19.2760    18.2700     8.9930   159.0940     2.3320     0.0090     0.1950     0.2470
  468.0000    19.1820    18.1850     8.9920   159.2670     2.3260     0.0050     0.1980     0.2500
  468.5000    19.1050    18.0690     8.9910   159.4030     2.3210     0.0020     0.1990     0.2530
  469.0000    19.0280    17.9530     8.9900   160.6970     2.3240     0.0030     0.1980     0.2550
  469.5000    18.9520    17.8500     8.9890   161.4150     2.3260     0.0030     0.1960     0.2570
  470.0000    18.8420    17.7550     8.9880   161.9050     2.3270     0.0040     0.1970     0.2570
  470.5000    18.6730    17.6610     8.9870   162.3500     2.3260     0.0090     0.1980     0.2550
  471.0000    18.4100    17.5660     8.9860   163.6910     2.3250     0.0140     0.1970     0.2540
  471.5000    18.1470    17.4720     8.9850   165.0190     2.3300     0.0190     0.1920     0.2530
  472.0000    17.8840    17.2970     8.9840   166.3010     2.3400     0.0240     0.1850     0.2550
  472.5000    17.6210    17.0110     8.9830   165.3500     2.3570     0.0160     0.1770     0.2590
  473.0000    17.3570    16.7240     8.9820   162.6230     2.3670     0.0140     0.1700     0.2620
  473.5000    17.0940    16.4380     8.9810   160.8950     2.3760     0.0140     0.1660     0.2620
  474.0000    16.8310    16.1520     8.9810   160.7250     2.3770     0.0140     0.1670     0.2600
  474.5000    16.5680    15.8650     8.9800   162.6220     2.3730     0.0080     0.1710     0.2590
  475.0000    16.3050    15.5790     8.9790   164.6230     2.3670     0.0040     0.1740     0.2590
  475.5000    16.0300    15.2920     8.9780   164.4560     2.3610     0.0030     0.1740     0.2590
  476.0000    16.0820    15.1670     8.9770   163.3010     2.3630     0.0050     0.1700     0.2590
  476.5000    16.1360    15.1670     8.9760   163.5080     2.3720     0.0100     0.1650     0.2590
  477.0000    16.1910    15.4190     8.9750   164.7910     2.3810     0.0090     0.1620     0.2590
  477.5000    16.2450    15.7190     8.9740   164.6290     2.3820     0.0080     0.1650     0.2600
  478.0000    16.3000    16.0300     8.9790   162.9840     2.3750     0.0070     0.1720     0.2620
  478.5000    16.3550    15.9180     8.9850   161.4860     2.3660     0.0040     0.1820     0.2600
  479.0000    16.4090    15.9630     8.9900   160.6490     2.3490     0.0010     0.1920     0.2560
  479.5000    16.4800    16.0300     8.9940   161.1430     2.3320    -0.0030     0.1960     0.2540
  480.0000    16.3800    15.9370     8.9930   163.7750     2.3270    -0.0030     0.1890     0.2550
  480.5000    16.2400    15.7580     8.9920   166.3930     2.3330     0.0010     0.1810     0.2590
  481.0000    16.1000    15.5780     8.9920   164.5030     2.3550     0.0050     0.1780     0.2590
  481.5000    15.9590    15.3990     8.9910   162.5950     2.3570     0.0080     0.1770     0.2590
  482.0000    15.8190    15.1710     8.9900   160.6020     2.3570     0.0030     0.1740     0.2570
  482.5000    15.6790    14.8930     8.9900   159.3350     2.3620     0.0100     0.1680     0.2570
  483.0000    15.6000    14.6160     8.9890   158.4980     2.3720     0.0170     0.1630     0.2570
  483.5000    15.6620    14.3510     8.9880   156.6880     2.3820     0.0150     0.1610     0.2560
  484.0000    15.7130    14.4840     8.9880   155.0020     2.3850     0.0110     0.1590     0.2560
  484.5000    15.9070    14.5540     8.9870   156.0470     2.3900     0.0060     0.1560     0.2540
  485.0000    16.2380    14.7040     8.9860   159.0690     2.3950     0.0120     0.1530     0.2520
  485.5000    16.5690    15.2000     8.9850   162.1050     2.4010     0.0140     0.1500     0.2510
  486.0000    16.9000    15.6960     8.9850   160.9190     2.4060     0.0110     0.1470     0.2510
  486.5000    17.1390    16.3280     8.9840   157.7570     2.4060    -0.0060     0.1510     0.2450
  487.0000    17.4170    16.2340     8.9830   155.0280     2.3870    -0.0230     0.1640     0.2380
  487.5000    17.3370    15.9120     8.9830   154.9580     2.3660    -0.0060     0.1780     0.2320
  488.0000    17.0660    15.4470     8.9820   156.1790     2.3480     0.0460     0.1850     0.2290
  488.5000    16.4550    14.9820     8.9810   157.2960     2.3400     0.0700     0.1880     0.2290
  489.0000    15.9520    14.5180     8.9810   156.6920     2.3510     0.0570     0.1770     0.2350
  489.5000    15.4490    14.0530     8.9800   155.6480     2.3770     0.0390     0.1620     0.2400
  490.0000    14.9460    13.5890     8.9790   155.0570     2.3990     0.0240     0.1520     0.2440
  490.5000    14.4430    13.3310     8.9780   155.4880     2.4070     0.0240     0.1470     0.2460
  491.0000    13.9670    13.2910     8.9780   156.2700     2.4050     0.0230     0.1480     0.2470
  491.5000    13.5530    13.2540     8.9770   159.0070     2.4030     0.0230     0.1500     0.2490
  492.0000    13.4240    13.2160     8.9760   161.8080     2.4010     0.0220     0.1520     0.2510
  492.5000    13.3450    13.1790     8.9760   162.0020     2.3950     0.0160     0.1550     0.2510
  493.0000    13.2650    13.1410     8.9750   159.5840     2.3890     0.0080     0.1580     0.2500
