~VERSION INFORMATION
 VERS.                2.0:   CWLS LOG ASCII STANDARD - VERSION 2.0
 WRAP.                 NO:   ONE LINE PER DEPTH STEP
~WELL INFORMATION
#MNEM.UNIT      DATA TYPE    INFORMATION
#----------   ------------   ------------------------------
 STRT.F           48.0000:   START DEPTH
 STOP.F          673.0000:   STOP DEPTH
 STEP.F            0.5000:   STEP LENGTH
 NULL.          -999.2500:   NO VALUE
 COMP. Fluor Daniel (NPOSR) Inc:   COMPANY
 WELL.      72-9-X-3 #3-3:   WELL
 FLD .             N.P.R.:   FIELD
 LOC .       S3 T38N R78W:   LOCATION
 CNTY.            NATRONA:   COUNTY
 STAT.            WYOMING:   STATE
 CTRY. UNITED STATES OF AMERICA:   COUNTRY
 SRVC.      Western Atlas:   SERVICE COMPANY
 DATE.        09-APR-1996:   LOGDATE
 API .       490252277400:   API NUMBER
~CURVE INFORMATION
#MNEM.UNIT       API CODE    CURVE DESCRIPTION
#----------   ------------   ------------------------------
 DEPT.F                  :   
 RILD.OHMM   07 120 46 00:   INDUCTION LOG DEEP RESISTIVITY
 RILM.OHMM   07 120 44 00:   INDUCTION LOG MEDIUM RESISTIVITY
 CALD.IN     45 280 60 00:   CALIPER
 GRD .GAPI   45 310 01 00:   GAMMA RAY FROM DENSITY LOG
 ZDEN.G/C3   45 350 01 00:   BULK DENSITY
 ZCOR.G/C3   45 356 01 00:   DENSITY CORRECTION
 PORZ.DEC    45 890 10 00:   DENSITY POROSITY
 PORS.DEC    42 890 01 00:   NEUTRON POROSITY LIMESTONE
~PARAMETER INFORMATION
#MNEM.UNIT          VALUE    DESCRIPTION
#----------   ------------   ------------------------------
 PD  .                 GL:   PERMANENT DATUM
 EPD .F              5118:   ELEVATION PERMANENT DATUM
 LMF .                 KB:   LOG MEASURED FROM
 DAPD.F                10:   FEET ABOVE PERMANENT DATUM
 DMF .                 KB:   DRILLING MEASURED FROM
 EKB .F              5128:   KELLING BUSHING
 EDF .F              5127:   DRILLING FLOOR
 EGL .F              5118:   GROUND LEVEL
 DATE.         9-APR-1996:   RUN DATE
 RUN .                  1:   RUN NUMBER
 DD  .F               665:   DEPTH DRILLER
 DL  .F               675:   DEPTH LOGGER
 BLI .F               668:   BOTTOM LOG INTERVAL
 CS  .IN            9.625:   CASING SIZE
 CBD .F                54:   CASING BOTTOM DRILLER
 CBL .F                56:   CASING BOTTOM LOGGER
 BS  .IN             8.75:   BIT SIZE
 BSD .F               665:   BIT SIZE AT DEPTH
 DFT .                AIR:   DRILLING FLUID TYPE
 MRT .F                85:   MAXIMUM RECORDED TEMPERATURE
 LUN .            HL-6530:   LOGGING UNIT NUMBER
 LUL .             CASPER:   LOGGING UNIT LOCATION
 ENGI.        VERN RAUTIO:   RECORDING ENGINEER
 WITN.        STEVE HARDY:   WITNESSED BY
 CLNT.            A2DTECH:   CLIENT CODE
 ORIG.           5" PRINT:   ORIGIN OF DATA
 UWI .       490252277400:   UNIQUE WELL ID
 DICO. A2D Technologies, Inc.:   DIGITIZING COMPANY
~OTHER INFORMATION
~A   DEPT     RILD       RILM       CALD        GRD       ZDEN       ZCOR       PORZ         PORS 
# ...
  250.5000    11.4080    11.2890     8.9790   182.8570     2.4880     0.0130     0.1000     0.2730
  251.0000    11.6510    11.5050     8.9800   181.4500     2.4890     0.0060     0.0990     0.2750
  251.5000    11.8930    11.7210     8.9810   180.1060     2.4900     0.0130     0.0980     0.2760
  252.0000    12.1360    11.9370     8.9820   180.9260     2.4920     0.0220     0.0970     0.2750
  252.5000    12.3830    12.1570     8.9820   181.6600     2.4920     0.0220     0.0960     0.2690
  253.0000    12.4430    12.1790     8.9830   179.0270     2.4920     0.0220     0.0960     0.2630
  253.5000    12.5030    12.2020     8.9840   176.0370     2.4920     0.0200     0.0970     0.2640
  254.0000    12.5640    12.2250     8.9850   173.7610     2.4890     0.0120     0.1010     0.2670
  254.5000    12.6130    12.2480     8.9860   174.0770     2.4740     0.0050     0.1100     0.2690
  255.0000    12.5580    12.2690     8.9870   174.6140     2.4650     0.0000     0.1140     0.2700
  255.5000    12.4980    12.1220     8.9870   175.1780     2.4630     0.0020     0.1130     0.2700
  256.0000    12.3330    11.9820     8.9880   174.1440     2.4660     0.0040     0.1120     0.2700
  256.5000    12.1530    11.8430     8.9890   171.2880     2.4660     0.0020     0.1130     0.2690
  257.0000    11.9740    11.7030     8.9900   171.2720     2.4620     0.0000     0.1160     0.2710
  257.5000    11.7950    11.5630     8.9910   173.7960     2.4570    -0.0010     0.1170     0.2740
  258.0000    11.6730    11.4240     8.9920   175.5420     2.4570     0.0020     0.1170     0.2760
  258.5000    11.5960    11.3530     8.9930   176.4360     2.4570     0.0050     0.1170     0.2780
  259.0000    11.5200    11.2980     8.9930   179.1770     2.4560     0.0110     0.1170     0.2770
  259.5000    11.4430    11.2430     8.9930   181.6240     2.4550     0.0100     0.1180     0.2760
  260.0000    11.3960    11.1880     8.9910   182.0500     2.4540     0.0070     0.1190     0.2750
  260.5000    11.3970    11.1890     8.9880   180.7830     2.4490     0.0040     0.1220     0.2730
  261.0000    11.3970    11.1890     8.9860   179.5500     2.4460     0.0030     0.1240     0.2730
  261.5000    11.3970    11.1890     8.9840   178.3130     2.4450     0.0060     0.1240     0.2730
  262.0000    11.3970    11.1890     8.9810   177.3970     2.4460     0.0100     0.1240     0.2730
  262.5000    11.3970    11.1890     8.9790   177.6940     2.4480     0.0090     0.1230     0.2720
  263.0000    11.3700    11.2920     8.9760   180.1290     2.4570     0.0050     0.1200     0.2680
  263.5000    11.2920    11.2170     8.9740   179.4860     2.4650     0.0040     0.1130     0.2650
  264.0000    11.2130    11.0240     8.9780   175.7330     2.4640     0.0050     0.1120     0.2670
  264.5000    11.0600    10.8320     8.9820   172.9260     2.4600     0.0060     0.1150     0.2720
  265.0000    10.8730    10.6390     8.9870   174.7060     2.4550     0.0080     0.1180     0.2760
  265.5000    10.6860    10.4670     8.9910   179.5940     2.4530     0.0100     0.1190     0.2800
  266.0000    10.5440    10.3670     8.9850   183.8610     2.4490     0.0130     0.1210     0.2840
  266.5000    10.4520    10.2670     8.9660   182.9160     2.4470     0.0130     0.1240     0.2840
  267.0000    10.3600    10.1680     8.9540   179.3580     2.4500     0.0090     0.1230     0.2840
  267.5000    10.2680    10.0680     8.9580   176.0610     2.4530     0.0060     0.1200     0.2850
  268.0000    10.1970     9.9910     8.9620   176.3010     2.4530     0.0100     0.1180     0.2850
  268.5000    10.1760     9.9370     8.9660   175.9710     2.4480     0.0100     0.1200     0.2850
  269.0000    10.1560     9.8840     8.9700   173.9890     2.4440     0.0060     0.1230     0.2860
  269.5000    10.1350     9.8300     8.9730   173.7900     2.4430     0.0020     0.1260     0.2870
  270.0000    10.1100     9.7500     8.9770   173.7050     2.4430     0.0020     0.1260     0.2870
  270.5000    10.1160     9.7730     8.9810   172.3850     2.4410     0.0040     0.1250     0.2870
  271.0000    10.1250     9.8340     8.9850   171.7280     2.4360     0.0050     0.1270     0.2860
  271.5000    10.1330     9.6580     8.9890   171.9420     2.4360     0.0060     0.1300     0.2840
  272.0000    10.1420     9.5660     8.9920   169.5150     2.4450     0.0080     0.1300     0.2820
  272.5000    10.1500     9.8210     8.9930   166.8120     2.4520     0.0130     0.1250     0.2790
  273.0000    10.1590     9.9250     8.9920   167.5040     2.4520     0.0130     0.1200     0.2770
  273.5000    10.1670     9.9440     8.9910   172.1010     2.4490     0.0040     0.1200     0.2780
  274.0000    10.1760     9.9660     8.9900   175.4430     2.4580     0.0070     0.1210     0.2780
  274.5000    10.1840     9.9880     8.9890   172.7310     2.4780     0.0120     0.1190     0.2780
  275.0000    10.1930    10.0170     8.9870   166.8230     2.4960     0.0070     0.1040     0.2690
  275.5000    10.2030     9.8340     8.9860   164.7540     2.4900     0.0010     0.0920     0.2600
  276.0000    10.1610    10.0170     8.9850   166.3380     2.4670    -0.0020     0.0990     0.2550
  276.5000    10.1070     9.9590     8.9840   166.7170     2.4450     0.0060     0.1120     0.2580
  277.0000    10.0520     9.8280     8.9830   166.7380     2.4390     0.0150     0.1260     0.2620
  277.5000     9.9160     9.6530     8.9810   166.7400     2.4400     0.0240     0.1280     0.2640
  278.0000     9.6350     9.4010     8.9800   167.6290     2.4410     0.0190     0.1260     0.2640
  278.5000     9.3540     9.1500     8.9790   169.9740     2.4340     0.0090     0.1260     0.2660
  279.0000     9.0470     8.8850     8.9780   172.8090     2.4260    -0.0010     0.1310     0.2680
  279.5000     8.7170     8.5680     8.9770   172.9550     2.4210    -0.0120     0.1350     0.2700
  280.0000     8.3860     8.2340     8.9760   174.7890     2.4140    -0.0080     0.1390     0.2700
  280.5000     8.0280     7.8990     8.9740   179.9400     2.4140     0.0010     0.1420     0.2730
  281.0000     7.9250     7.7500     8.9740   185.2260     2.4130     0.0100     0.1430     0.2770
  281.5000     7.8130     7.6700     8.9740   187.5280     2.4120     0.0090     0.1440     0.2820
  282.0000     7.7000     7.5890     8.9740   185.6690     2.4130     0.0090     0.1450     0.2870
  282.5000     7.6340     7.5080     8.9740   181.7930     2.4200     0.0080     0.1430     0.2890
  283.0000     7.5960     7.4580     8.9740   178.3430     2.4280     0.0050     0.1390     0.2880
  283.5000     7.7830     7.6140     8.9740   175.9040     2.4320     0.0040     0.1350     0.2840
  284.0000     7.9550     7.7460     8.9740   176.0460     2.4330     0.0040     0.1320     0.2800
  284.5000     8.0080     7.8820     8.9740   178.5840     2.4320     0.0130     0.1310     0.2800
  285.0000     8.0820     7.9550     8.9740   181.3280     2.4310     0.0140     0.1320     0.2800
  285.5000     8.1550     7.9550     8.9740   182.5830     2.4310     0.0090     0.1330     0.2810
  286.0000     8.1920     7.9550     8.9740   184.6210     2.4360     0.0030     0.1320     0.2820
  286.5000     8.2120     8.0260     8.9740   185.8680     2.4460     0.0030     0.1260     0.2830
  287.0000     8.2320     8.1020     8.9740   186.3630     2.4550     0.0110     0.1190     0.2840
  287.5000     8.2540     8.1790     8.9740   185.1800     2.4590     0.0180     0.1150     0.2870
  288.0000     8.3380     8.2550     8.9740   182.2490     2.4560     0.0180     0.1170     0.2900
  288.5000     8.4320     8.3300     8.9740   180.4670     2.4520     0.0150     0.1190     0.2910
  289.0000     8.5250     8.4090     8.9740   179.7900     2.4510     0.0080     0.1200     0.2900
  289.5000     8.6190     8.4870     8.9740   178.8240     2.4500     0.0020     0.1210     0.2870
  290.0000     8.6840     8.5650     8.9740   175.8540     2.4490     0.0040     0.1220     0.2850
  290.5000     8.7400     8.6440     8.9740   173.1470     2.4490     0.0070     0.1210     0.2850
