~VERSION INFORMATION
 VERS.                2.0:   CWLS LOG ASCII STANDARD - VERSION 2.0
 WRAP.                 NO:   ONE LINE PER DEPTH STEP
~WELL INFORMATION
#MNEM.UNIT      DATA TYPE    INFORMATION
#----------   ------------   ------------------------------
 STRT.F           48.0000:   START DEPTH
 STOP.F          673.0000:   STOP DEPTH
 STEP.F            0.5000:   STEP LENGTH
 NULL.          -999.2500:   NO VALUE
 COMP. Fluor Daniel (NPOSR) Inc:   COMPANY
 WELL.      72-9-X-3 #3-3:   WELL
 FLD .             N.P.R.:   FIELD
 LOC .       S3 T38N R78W:   LOCATION
 CNTY.            NATRONA:   COUNTY
 STAT.            WYOMING:   STATE
 CTRY. UNITED STATES OF AMERICA:   COUNTRY
 SRVC.      Western Atlas:   SERVICE COMPANY
 DATE.        09-APR-1996:   LOGDATE
 API .       490252277400:   API NUMBER
~CURVE INFORMATION
#MNEM.UNIT       API CODE    CURVE DESCRIPTION
#----------   ------------   ------------------------------
 DEPT.F                  :   
 RILD.OHMM   07 120 46 00:   INDUCTION LOG DEEP RESISTIVITY
 RILM.OHMM   07 120 44 00:   INDUCTION LOG MEDIUM RESISTIVITY
 CALD.IN     45 280 60 00:   CALIPER
 GRD .GAPI   45 310 01 00:   GAMMA RAY FROM DENSITY LOG
 ZDEN.G/C3   45 350 01 00:   BULK DENSITY
 ZCOR.G/C3   45 356 01 00:   DENSITY CORRECTION
 PORZ.DEC    45 890 10 00:   DENSITY POROSITY
 PORS.DEC    42 890 01 00:   NEUTRON POROSITY LIMESTONE
~PARAMETER INFORMATION
#MNEM.UNIT          VALUE    DESCRIPTION
#----------   ------------   ------------------------------
 PD  .                 GL:   PERMANENT DATUM
 EPD .F              5118:   ELEVATION PERMANENT DATUM
 LMF .                 KB:   LOG MEASURED FROM
 DAPD.F                10:   FEET ABOVE PERMANENT DATUM
 DMF .                 KB:   DRILLING MEASURED FROM
 EKB .F              5128:   KELLING BUSHING
 EDF .F              5127:   DRILLING FLOOR
 EGL .F              5118:   GROUND LEVEL
 DATE.         9-APR-1996:   RUN DATE
 RUN .                  1:   RUN NUMBER
 DD  .F               665:   DEPTH DRILLER
 DL  .F               675:   DEPTH LOGGER
 BLI .F               668:   BOTTOM LOG INTERVAL
 CS  .IN            9.625:   CASING SIZE
 CBD .F                54:   CASING BOTTOM DRILLER
 CBL .F                56:   CASING BOTTOM LOGGER
 BS  .IN             8.75:   BIT SIZE
 BSD .F               665:   BIT SIZE AT DEPTH
 DFT .                AIR:   DRILLING FLUID TYPE
 MRT .F                85:   MAXIMUM RECORDED TEMPERATURE
 LUN .            HL-6530:   LOGGING UNIT NUMBER
 LUL .             CASPER:   LOGGING UNIT LOCATION
 ENGI.        VERN RAUTIO:   RECORDING ENGINEER
 WITN.        STEVE HARDY:   WITNESSED BY
 CLNT.            A2DTECH:   CLIENT CODE
 ORIG.           5" PRINT:   ORIGIN OF DATA
 UWI .       490252277400:   UNIQUE WELL ID
 DICO. A2D Technologies, Inc.:   DIGITIZING COMPANY
~OTHER INFORMATION
~A   DEPT     RILD       RILM       CALD        GRD       ZDEN       ZCOR       PORZ         PORS 
# ...
  534.0000    21.1580    20.1850     8.9800   160.1960     2.3290     0.0080     0.1950     0.2470
  534.5000    20.9540    19.8680     8.9800   162.8430     2.3320     0.0030     0.1930     0.2520
  535.0000    20.7500    19.5200     8.9790   162.1820     2.3230     0.0040     0.1980     0.2530
  535.5000    20.5460    19.1730     8.9790   158.1950     2.3140     0.0050     0.2030     0.2530
  536.0000    20.3430    18.8250     8.9790   155.9370     2.3170     0.0060     0.2040     0.2540
  536.5000    20.1390    18.4770     8.9780   158.1150     2.3270     0.0030     0.1970     0.2570
  537.0000    19.9350    18.3620     8.9780   161.0460     2.3340    -0.0010     0.1930     0.2580
  537.5000    19.7310    18.2880     8.9770   162.4830     2.3390     0.0000     0.1890     0.2570
  538.0000    19.6350    18.2390     8.9770   162.3540     2.3430     0.0020     0.1870     0.2560
  538.5000    19.6350    18.2390     8.9770   160.2790     2.3420     0.0030     0.1870     0.2550
  539.0000    19.6350    18.2390     8.9760   157.9480     2.3370     0.0050     0.1900     0.2530
  539.5000    19.6350    18.2390     8.9760   158.0200     2.3340     0.0060     0.1920     0.2520
  540.0000    19.6350    18.3140     8.9760   158.9400     2.3410     0.0050     0.1900     0.2500
  540.5000    19.6350    18.3940     8.9750   157.9340     2.3490     0.0040     0.1830     0.2450
  541.0000    19.6350    18.4770     8.9750   156.6040     2.3610     0.0190     0.1760     0.2360
  541.5000    19.4240    18.5780     8.9740   155.9430     2.3930     0.0360     0.1540     0.2210
  542.0000    19.1260    18.1560     8.9740   154.0590     2.4400     0.0490     0.1280     0.2060
  542.5000    18.8290    17.6020     8.9740   151.0950     2.4680     0.0330     0.1120     0.2010
  543.0000    18.5310    17.0480     8.9750   151.6980     2.4510     0.0100     0.1200     0.2160
  543.5000    18.2340    16.4800     8.9770   157.3720     2.4260    -0.0040     0.1370     0.2330
  544.0000    17.9360    16.4800     8.9780   162.1080     2.4010    -0.0120     0.1540     0.2500
  544.5000    17.6390    16.4800     8.9790   162.1090     2.3900    -0.0030     0.1580     0.2600
  545.0000    17.3410    16.4800     8.9810   160.1390     2.3840     0.0070     0.1610     0.2620
  545.5000    17.0880    16.4800     8.9820   158.2020     2.3760     0.0160     0.1670     0.2630
  546.0000    17.0310    16.4800     8.9830   158.3070     2.3630     0.0160     0.1800     0.2630
  546.5000    16.9740    16.4800     8.9840   160.1800     2.3470     0.0140     0.1860     0.2630
  547.0000    16.9170    16.4800     8.9860   161.0340     2.3430     0.0080     0.1860     0.2620
  547.5000    16.8610    16.4800     8.9870   161.5400     2.3450     0.0020     0.1840     0.2610
  548.0000    16.8040    16.1160     8.9880   162.3790     2.3510    -0.0040     0.1810     0.2620
  548.5000    16.4990    15.7590     8.9890   165.0520     2.3520    -0.0060     0.1800     0.2650
  549.0000    16.0840    15.4020     8.9910   170.1520     2.3530    -0.0040     0.1800     0.2650
  549.5000    15.6690    15.0450     8.9920   171.5860     2.3530     0.0020     0.1800     0.2640
  550.0000    15.2530    14.6880     8.9930   170.6220     2.3540     0.0010     0.1800     0.2650
  550.5000    14.8380    14.3300     8.9890   169.1880     2.3540    -0.0030     0.1790     0.2670
  551.0000    14.4230    13.9730     8.9760   168.7740     2.3530    -0.0070     0.1790     0.2660
  551.5000    14.0080    13.6160     8.9630   168.7220     2.3570    -0.0100     0.1780     0.2660
  552.0000    13.5930    13.2590     8.9510   167.7690     2.3650    -0.0100     0.1740     0.2640
  552.5000    13.2780    12.9020     8.9380   164.2610     2.3790    -0.0090     0.1650     0.2600
  553.0000    13.0130    12.5450     8.9250   161.6690     2.3930    -0.0090     0.1570     0.2560
  553.5000    12.7490    12.3350     8.9130   160.0450     2.4050     0.0020     0.1490     0.2520
  554.0000    12.4840    12.2460     8.9130   159.2510     2.4160     0.0110     0.1420     0.2510
  554.5000    12.3370    12.1570     8.9130   158.4160     2.4270     0.0170     0.1360     0.2500
  555.0000    12.2300    12.0680     8.9130   158.9770     2.4370     0.0180     0.1310     0.2480
  555.5000    12.1230    11.9800     8.9130   159.8300     2.4520     0.0110     0.1220     0.2450
  556.0000    12.0160    11.8910     8.9130   159.1710     2.4720     0.0040     0.1080     0.2370
  556.5000    11.9080    11.8020     8.9130   157.9010     2.4960    -0.0030     0.0940     0.2300
  557.0000    11.8250    11.7160     8.9130   157.9900     2.5020    -0.0040     0.0900     0.2290
  557.5000    11.9160    11.7550     8.9130   159.8010     2.4910    -0.0030     0.0990     0.2340
  558.0000    11.9900    11.8010     8.9130   160.6740     2.4730    -0.0020     0.1130     0.2400
  558.5000    12.0640    11.8470     8.9130   160.7160     2.4520     0.0020     0.1260     0.2420
  559.0000    12.1390    11.8930     8.9130   161.4650     2.4320     0.0090     0.1340     0.2390
  559.5000    12.2130    11.9390     8.9130   161.4980     2.4230     0.0160     0.1390     0.2350
  560.0000    12.2870    11.9860     8.9130   161.5140     2.4210     0.0230     0.1380     0.2330
  560.5000    12.3830    12.0450     8.9130   160.9240     2.4290     0.0130     0.1320     0.2360
  561.0000    12.3380    12.0340     8.9130   160.2530     2.4380     0.0010     0.1280     0.2410
  561.5000    12.2750    12.0120     8.9130   159.5740     2.4400    -0.0120     0.1270     0.2440
  562.0000    12.2120    11.9900     8.9130   158.9030     2.4410    -0.0120     0.1270     0.2470
  562.5000    12.1480    11.9670     8.9130   158.2360     2.4430    -0.0020     0.1240     0.2480
  563.0000    12.0850    11.9450     8.9130   158.0910     2.4480     0.0070     0.1200     0.2470
  563.5000    12.0220    11.8800     8.9130   159.8650     2.4530     0.0100     0.1170     0.2470
  564.0000    11.9590    11.7740     8.9130   163.3630     2.4580     0.0050     0.1170     0.2470
  564.5000    11.8950    11.6670     8.9130   165.5700     2.4590    -0.0010     0.1200     0.2480
  565.0000    11.8320    11.5600     8.9130   164.4850     2.4530    -0.0110     0.1220     0.2480
  565.5000    11.7690    11.4790     8.9130   162.7230     2.4490    -0.0140     0.1220     0.2490
  566.0000    11.7060    11.4270     8.9130   163.3220     2.4500    -0.0070     0.1210     0.2490
  566.5000    11.6420    11.3750     8.9130   165.0600     2.4510    -0.0020     0.1210     0.2470
  567.0000    11.5790    11.3230     8.9130   164.6790     2.4500    -0.0050     0.1240     0.2460
  567.5000    11.5160    11.2720     8.9130   163.0830     2.4470    -0.0080     0.1260     0.2450
  568.0000    11.4530    11.2200     8.9130   162.8170     2.4430    -0.0100     0.1250     0.2470
  568.5000    11.3890    11.1680     8.9130   163.5110     2.4460    -0.0040     0.1200     0.2490
  569.0000    11.3260    11.1170     8.9120   166.5750     2.4520     0.0020     0.1150     0.2510
  569.5000    11.2630    11.0650     8.9120   170.7940     2.4600     0.0090     0.1120     0.2510
  570.0000    11.1890    10.9840     8.9110   172.8580     2.4660     0.0150     0.1090     0.2500
  570.5000    11.2070    10.9940     8.9110   170.7250     2.4700     0.0130     0.1100     0.2500
  571.0000    11.2300    11.0170     8.9110   167.7670     2.4690     0.0060     0.1140     0.2490
  571.5000    11.2520    11.0400     8.9100   166.9360     2.4620    -0.0030     0.1170     0.2500
  572.0000    11.2750    11.0630     8.9100   167.0310     2.4570    -0.0120     0.1160     0.2510
  572.5000    11.2930    11.0860     8.9100   166.8470     2.4600    -0.0110     0.1130     0.2510
  573.0000    11.2920    11.0860     8.9090   166.9520     2.4640    -0.0060     0.1130     0.2520
  573.5000    11.2920    11.0860     8.9090   167.9250     2.4650    -0.0010     0.1140     0.2530
  574.0000    11.2920    11.0860     8.9080   169.6610     2.4630     0.0040     0.1150     0.2530
