~VERSION INFORMATION
 VERS.                2.0:   CWLS LOG ASCII STANDARD - VERSION 2.0
 WRAP.                 NO:   ONE LINE PER DEPTH STEP
~WELL INFORMATION
#MNEM.UNIT      DATA TYPE    INFORMATION
#----------   ------------   ------------------------------
 STRT.F           48.0000:   START DEPTH
 STOP.F          673.0000:   STOP DEPTH
 STEP.F            0.5000:   STEP LENGTH
 NULL.          -999.2500:   NO VALUE
 COMP. Fluor Daniel (NPOSR) Inc:   COMPANY
 WELL.      72-9-X-3 #3-3:   WELL
 FLD .             N.P.R.:   FIELD
 LOC .       S3 T38N R78W:   LOCATION
 CNTY.            NATRONA:   COUNTY
 STAT.            WYOMING:   STATE
 CTRY. UNITED STATES OF AMERICA:   COUNTRY
 SRVC.      Western Atlas:   SERVICE COMPANY
 DATE.        09-APR-1996:   LOGDATE
 API .       490252277400:   API NUMBER
~CURVE INFORMATION
#MNEM.UNIT       API CODE    CURVE DESCRIPTION
#----------   ------------   ------------------------------
 DEPT.F                  :   
 RILD.OHMM   07 120 46 00:   INDUCTION LOG DEEP RESISTIVITY
 RILM.OHMM   07 120 44 00:   INDUCTION LOG MEDIUM RESISTIVITY
 CALD.IN     45 280 60 00:   CALIPER
 GRD .GAPI   45 310 01 00:   GAMMA RAY FROM DENSITY LOG
 ZDEN.G/C3   45 350 01 00:   BULK DENSITY
 ZCOR.G/C3   45 356 01 00:   DENSITY CORRECTION
 PORZ.DEC    45 890 10 00:   DENSITY POROSITY
 PORS.DEC    42 890 01 00:   NEUTRON POROSITY LIMESTONE
~PARAMETER INFORMATION
#MNEM.UNIT          VALUE    DESCRIPTION
#----------   ------------   ------------------------------
 PD  .                 GL:   PERMANENT DATUM
 EPD .F              5118:   ELEVATION PERMANENT DATUM
 LMF .                 KB:   LOG MEASURED FROM
 DAPD.F                10:   FEET ABOVE PERMANENT DATUM
 DMF .                 KB:   DRILLING MEASURED FROM
 EKB .F              5128:   KELLING BUSHING
 EDF .F              5127:   DRILLING FLOOR
 EGL .F              5118:   GROUND LEVEL
 DATE.         9-APR-1996:   RUN DATE
 RUN .                  1:   RUN NUMBER
 DD  .F               665:   DEPTH DRILLER
 DL  .F               675:   DEPTH LOGGER
 BLI .F               668:   BOTTOM LOG INTERVAL
 CS  .IN            9.625:   CASING SIZE
 CBD .F                54:   CASING BOTTOM DRILLER
 CBL .F                56:   CASING BOTTOM LOGGER
 BS  .IN             8.75:   BIT SIZE
 BSD .F               665:   BIT SIZE AT DEPTH
 DFT .                AIR:   DRILLING FLUID TYPE
 MRT .F                85:   MAXIMUM RECORDED TEMPERATURE
 LUN .            HL-6530:   LOGGING UNIT NUMBER
 LUL .             CASPER:   LOGGING UNIT LOCATION
 ENGI.        VERN RAUTIO:   RECORDING ENGINEER
 WITN.        STEVE HARDY:   WITNESSED BY
 CLNT.            A2DTECH:   CLIENT CODE
 ORIG.           5" PRINT:   ORIGIN OF DATA
 UWI .       490252277400:   UNIQUE WELL ID
 DICO. A2D Technologies, Inc.:   DIGITIZING COMPANY
~OTHER INFORMATION
~A   DEPT     RILD       RILM       CALD        GRD       ZDEN       ZCOR       PORZ         PORS 
# ...
  493.5000    13.1860    13.1040     8.9740   158.3120     2.3860     0.0020     0.1600     0.2490
  494.0000    13.1060    13.0130     8.9740   158.8420     2.3890     0.0030     0.1590     0.2490
  494.5000    13.0270    12.8770     8.9740   159.4420     2.3970     0.0040     0.1540     0.2490
  495.0000    12.9440    12.7410     8.9750   157.9300     2.4020     0.0060     0.1500     0.2490
  495.5000    12.8500    12.6050     8.9750   156.4780     2.4030     0.0050     0.1490     0.2500
  496.0000    12.7560    12.4690     8.9760   156.2620     2.4030     0.0010     0.1490     0.2530
  496.5000    12.6620    12.3330     8.9760   157.5320     2.4040    -0.0030     0.1500     0.2540
  497.0000    12.5680    12.1970     8.9770   157.8530     2.4040    -0.0010     0.1490     0.2530
  497.5000    12.4740    12.0610     8.9770   157.8610     2.4100     0.0040     0.1460     0.2530
  498.0000    12.3800    12.0100     8.9780   157.8740     2.4160     0.0050     0.1430     0.2530
  498.5000    12.2860    11.9700     8.9780   159.0110     2.4150     0.0030     0.1430     0.2580
  499.0000    12.1920    11.9290     8.9790   160.2490     2.4090     0.0020     0.1470     0.2610
  499.5000    12.1390    11.8890     8.9790   160.5390     2.4020     0.0040     0.1510     0.2610
  500.0000    12.1100    11.8490     8.9800   159.9640     2.4050     0.0050     0.1520     0.2600
  500.5000    12.0820    11.8090     8.9800   158.6500     2.4140     0.0060     0.1430     0.2590
  501.0000    12.0530    11.7690     8.9800   159.9900     2.4280     0.0070     0.1350     0.2600
  501.5000    12.0250    11.7290     8.9810   165.1410     2.4420     0.0080     0.1280     0.2610
  502.0000    11.9960    11.6960     8.9810   170.5360     2.4500     0.0070     0.1200     0.2620
  502.5000    11.9680    11.6660     8.9820   169.9370     2.4540     0.0050     0.1200     0.2630
  503.0000    11.9350    11.6360     8.9820   166.9910     2.4500     0.0030     0.1220     0.2640
  503.5000    12.0160    11.6090     8.9830   164.7320     2.4410    -0.0010     0.1280     0.2660
  504.0000    12.1130    11.7200     8.9830   163.1180     2.4280    -0.0070     0.1340     0.2650
  504.5000    12.2100    11.8230     8.9840   164.2310     2.4200    -0.0100     0.1390     0.2620
  505.0000    12.3070    11.9260     8.9840   166.6360     2.4190    -0.0090     0.1400     0.2580
  505.5000    12.4040    12.0280     8.9850   167.5140     2.4200    -0.0050     0.1390     0.2550
  506.0000    12.5010    12.1310     8.9850   165.0070     2.4210     0.0010     0.1390     0.2530
  506.5000    12.5980    12.2690     8.9860   161.9660     2.4220     0.0070     0.1390     0.2520
  507.0000    12.6130    12.2100     8.9860   162.0750     2.4230     0.0110     0.1390     0.2520
  507.5000    12.6130    12.1190     8.9870   163.0380     2.4220     0.0100     0.1390     0.2530
  508.0000    12.5500    12.0180     8.9870   164.4060     2.4170     0.0090     0.1410     0.2550
  508.5000    12.3820    11.8710     8.9870   165.5200     2.4130     0.0130     0.1430     0.2560
  509.0000    12.2140    11.7230     8.9880   164.2540     2.4130     0.0170     0.1440     0.2560
  509.5000    12.0460    11.5760     8.9880   162.0770     2.4190     0.0180     0.1410     0.2570
  510.0000    11.8780    11.4290     8.9890   163.1390     2.4250     0.0070     0.1380     0.2580
  510.5000    11.7100    11.2920     8.9890   168.7110     2.4280     0.0010     0.1360     0.2610
  511.0000    11.5420    11.1480     8.9900   171.5050     2.4300    -0.0100     0.1340     0.2600
  511.5000    11.3740    11.0140     8.9900   171.1660     2.4340    -0.0100     0.1330     0.2600
  512.0000    11.2060    10.8800     8.9910   168.6220     2.4380    -0.0100     0.1300     0.2590
  512.5000    11.0860    10.7840     8.9910   166.5400     2.4410    -0.0130     0.1280     0.2590
  513.0000    11.0270    10.7840     8.9920   166.1470     2.4400    -0.0180     0.1280     0.2590
  513.5000    10.9740    10.7840     8.9920   165.2210     2.4370    -0.0140     0.1280     0.2590
  514.0000    10.9200    10.7840     8.9930   163.7460     2.4340    -0.0100     0.1300     0.2590
  514.5000    10.8830    10.7840     8.9930   162.3230     2.4310    -0.0060     0.1310     0.2590
  515.0000    11.0450    10.7840     8.9940   161.8950     2.4280    -0.0040     0.1330     0.2590
  515.5000    11.1690    10.9350     8.9940   161.5140     2.4310    -0.0040     0.1340     0.2580
  516.0000    11.4240    11.3020     8.9940   162.2160     2.4390    -0.0030     0.1340     0.2560
  516.5000    11.7160    11.6680     8.9930   163.0220     2.4490     0.0040     0.1290     0.2560
  517.0000    12.4760    12.4070     8.9930   163.8090     2.4490     0.0020     0.1220     0.2560
  517.5000    13.4740    13.9270     8.9920   162.6910     2.4400     0.0010     0.1210     0.2560
  518.0000    14.4720    15.4470     8.9920   160.7580     2.4230     0.0000     0.1240     0.2530
  518.5000    15.5400    16.9680     8.9920   157.9310     2.3970     0.0140     0.1320     0.2480
  519.0000    16.9680    18.4880     8.9910   154.1750     2.3660     0.0280     0.1450     0.2390
  519.5000    19.2730    20.0080     8.9910   151.2690     2.3300     0.0130     0.1660     0.2260
  520.0000    22.6170    21.7900     8.9910   148.4710     2.2880    -0.0060     0.1870     0.2280
  520.5000    25.9600    23.8290     8.9900   147.5910     2.2560     0.0000     0.2090     0.2310
  521.0000    28.8440    27.1490     8.9900   148.0910     2.2390     0.0060     0.2310     0.2380
  521.5000    31.1140    29.2890     8.9890   148.5230     2.2240     0.0130     0.2460     0.2330
  522.0000    32.6020    30.8470     8.9890   145.2950     2.1880     0.0180     0.2560     0.2290
  522.5000    33.5160    30.8470     8.9890   141.5800     2.1760     0.0250     0.2710     0.2290
  523.0000    33.2990    30.0170     8.9880   141.8380     2.1880     0.0260     0.2870     0.2260
  523.5000    32.8160    28.7200     8.9880   143.7250     2.2150     0.0200     0.2840     0.2210
  524.0000    31.6420    27.2500     8.9880   144.9680     2.2410     0.0110     0.2650     0.2230
  524.5000    29.9180    25.7210     8.9870   144.9540     2.2580     0.0060     0.2540     0.2270
  525.0000    28.1930    24.1920     8.9870   144.9710     2.2810     0.0100     0.2410     0.2290
  525.5000    26.4690    22.9320     8.9860   144.9790     2.3010     0.0160     0.2290     0.2330
  526.0000    25.0200    22.2000     8.9860   147.1440     2.3110     0.0170     0.2170     0.2390
  526.5000    24.0000    21.8680     8.9860   150.8190     2.3150     0.0180     0.2060     0.2460
  527.0000    22.9810    21.7230     8.9850   153.5800     2.3140     0.0160     0.2040     0.2460
  527.5000    22.1300    21.5780     8.9850   151.4990     2.3120     0.0070     0.2040     0.2450
  528.0000    22.1030    21.4340     8.9850   149.4250     2.3040    -0.0020     0.2060     0.2430
  528.5000    22.0770    21.2890     8.9840   150.9730     2.3020    -0.0070     0.2090     0.2410
  529.0000    22.0500    21.1380     8.9840   153.4850     2.3040     0.0000     0.2110     0.2410
  529.5000    22.0230    21.1380     8.9830   155.2190     2.3100     0.0030     0.2090     0.2430
  530.0000    21.9960    21.1380     8.9830   155.6900     2.3120     0.0040     0.2050     0.2460
  530.5000    21.9690    21.1380     8.9830   155.7940     2.3140     0.0060     0.2040     0.2470
  531.0000    21.9400    20.9490     8.9820   154.2520     2.3140     0.0050     0.2040     0.2470
  531.5000    21.8560    20.6000     8.9820   151.2020     2.3140     0.0030     0.2030     0.2470
  532.0000    21.7300    20.2510     8.9820   151.9060     2.3100     0.0010     0.2050     0.2470
  532.5000    21.6040    19.8160     8.9810   153.9850     2.3060     0.0050     0.2080     0.2460
  533.0000    21.4770    19.8950     8.9810   155.1720     2.3110     0.0140     0.2070     0.2440
  533.5000    21.3510    20.0340     8.9800   156.5930     2.3200     0.0160     0.2010     0.2430
