~VERSION INFORMATION
 VERS.                2.0:   CWLS LOG ASCII STANDARD - VERSION 2.0
 WRAP.                 NO:   ONE LINE PER DEPTH STEP
~WELL INFORMATION
#MNEM.UNIT      DATA TYPE    INFORMATION
#----------   ------------   ------------------------------
 STRT.F           48.0000:   START DEPTH
 STOP.F          673.0000:   STOP DEPTH
 STEP.F            0.5000:   STEP LENGTH
 NULL.          -999.2500:   NO VALUE
 COMP. Fluor Daniel (NPOSR) Inc:   COMPANY
 WELL.      72-9-X-3 #3-3:   WELL
 FLD .             N.P.R.:   FIELD
 LOC .       S3 T38N R78W:   LOCATION
 CNTY.            NATRONA:   COUNTY
 STAT.            WYOMING:   STATE
 CTRY. UNITED STATES OF AMERICA:   COUNTRY
 SRVC.      Western Atlas:   SERVICE COMPANY
 DATE.        09-APR-1996:   LOGDATE
 API .       490252277400:   API NUMBER
~CURVE INFORMATION
#MNEM.UNIT       API CODE    CURVE DESCRIPTION
#----------   ------------   ------------------------------
 DEPT.F                  :   
 RILD.OHMM   07 120 46 00:   INDUCTION LOG DEEP RESISTIVITY
 RILM.OHMM   07 120 44 00:   INDUCTION LOG MEDIUM RESISTIVITY
 CALD.IN     45 280 60 00:   CALIPER
 GRD .GAPI   45 310 01 00:   GAMMA RAY FROM DENSITY LOG
 ZDEN.G/C3   45 350 01 00:   BULK DENSITY
 ZCOR.G/C3   45 356 01 00:   DENSITY CORRECTION
 PORZ.DEC    45 890 10 00:   DENSITY POROSITY
 PORS.DEC    42 890 01 00:   NEUTRON POROSITY LIMESTONE
~PARAMETER INFORMATION
#MNEM.UNIT          VALUE    DESCRIPTION
#----------   ------------   ------------------------------
 PD  .                 GL:   PERMANENT DATUM
 EPD .F              5118:   ELEVATION PERMANENT DATUM
 LMF .                 KB:   LOG MEASURED FROM
 DAPD.F                10:   FEET ABOVE PERMANENT DATUM
 DMF .                 KB:   DRILLING MEASURED FROM
 EKB .F              5128:   KELLING BUSHING
 EDF .F              5127:   DRILLING FLOOR
 EGL .F              5118:   GROUND LEVEL
 DATE.         9-APR-1996:   RUN DATE
 RUN .                  1:   RUN NUMBER
 DD  .F               665:   DEPTH DRILLER
 DL  .F               675:   DEPTH LOGGER
 BLI .F               668:   BOTTOM LOG INTERVAL
 CS  .IN            9.625:   CASING SIZE
 CBD .F                54:   CASING BOTTOM DRILLER
 CBL .F                56:   CASING BOTTOM LOGGER
 BS  .IN             8.75:   BIT SIZE
 BSD .F               665:   BIT SIZE AT DEPTH
 DFT .                AIR:   DRILLING FLUID TYPE
 MRT .F                85:   MAXIMUM RECORDED TEMPERATURE
 LUN .            HL-6530:   LOGGING UNIT NUMBER
 LUL .             CASPER:   LOGGING UNIT LOCATION
 ENGI.        VERN RAUTIO:   RECORDING ENGINEER
 WITN.        STEVE HARDY:   WITNESSED BY
 CLNT.            A2DTECH:   CLIENT CODE
 ORIG.           5" PRINT:   ORIGIN OF DATA
 UWI .       490252277400:   UNIQUE WELL ID
 DICO. A2D Technologies, Inc.:   DIGITIZING COMPANY
~OTHER INFORMATION
~A   DEPT     RILD       RILM       CALD        GRD       ZDEN       ZCOR       PORZ         PORS 
# ...
  574.5000    11.2790    11.0860     8.9080   171.8990     2.4600     0.0060     0.1150     0.2530
  575.0000    11.1940    11.0040     8.9080   169.2240     2.4610     0.0060     0.1140     0.2540
  575.5000    11.1090    10.9190     8.9070   162.9810     2.4640     0.0000     0.1110     0.2550
  576.0000    11.0230    10.8330     8.9070   160.4220     2.4680    -0.0010     0.1110     0.2570
  576.5000    10.9380    10.7480     8.9070   163.9930     2.4680     0.0020     0.1130     0.2570
  577.0000    10.8530    10.6630     8.9060   167.7900     2.4650    -0.0030     0.1140     0.2580
  577.5000    10.7670    10.5780     8.9060   167.2720     2.4620    -0.0090     0.1160     0.2580
  578.0000    10.6770    10.4920     8.9050   165.1560     2.4590    -0.0090     0.1170     0.2590
  578.5000    10.5870    10.4070     8.9050   164.3370     2.4580    -0.0080     0.1160     0.2590
  579.0000    10.4890    10.3220     8.9050   165.1840     2.4590    -0.0070     0.1150     0.2580
  579.5000    10.5290    10.2980     8.9040   166.0050     2.4620    -0.0060     0.1140     0.2580
  580.0000    10.5870    10.2700     8.9040   166.1340     2.4640    -0.0050     0.1120     0.2590
  580.5000    10.4180    10.1110     8.9040   165.8890     2.4660    -0.0050     0.1090     0.2600
  581.0000    10.2460     9.9520     8.9030   165.7790     2.4710    -0.0030     0.1070     0.2590
  581.5000    10.0750     9.7940     8.9030   165.6640     2.4750     0.0010     0.1070     0.2570
  582.0000     9.9000     9.6350     8.9020   165.5340     2.4750     0.0050     0.1090     0.2560
  582.5000     9.7010     9.4760     8.9020   166.0560     2.4750     0.0080     0.1130     0.2610
  583.0000     9.5020     9.3170     8.9020   166.7560     2.4750     0.0080     0.1160     0.2660
  583.5000     9.3030     9.1580     8.9010   167.4560     2.4730     0.0080     0.1170     0.2690
  584.0000     9.1050     8.9180     8.9010   167.8440     2.4670     0.0070     0.1150     0.2710
  584.5000     8.8720     8.6640     8.9010   168.8680     2.4600     0.0060     0.1130     0.2730
  585.0000     8.5630     8.4100     8.9000   170.2200     2.4580     0.0030     0.1100     0.2750
  585.5000     8.2540     7.9930     8.9000   172.9280     2.4600    -0.0070     0.1090     0.2770
  586.0000     7.6000     7.3130     8.8990   175.9110     2.4650    -0.0060     0.1110     0.2790
  586.5000     6.9450     6.6330     8.8990   175.3090     2.4690    -0.0050     0.1150     0.2890
  587.0000     6.2900     5.9540     8.8990   172.0300     2.4710     0.0000     0.1200     0.3060
  587.5000     5.6350     5.2740     8.8980   172.6300     2.4680     0.0020     0.1310     0.3190
  588.0000     5.3510     5.0350     8.8980   177.0600     2.4590    -0.0010     0.1540     0.3420
  588.5000     5.3510     4.8800     8.8980   181.4710     2.4490    -0.0040     0.1680     0.3390
  589.0000     5.3510     5.3540     8.8970   190.4110     2.4180    -0.0040     0.1640     0.3220
  589.5000     5.5250     5.9240     8.8970   201.1010     2.3840     0.0030     0.1380     0.3010
  590.0000     5.7260     6.4940     8.8960   207.4280     2.3740     0.0100     0.1100     0.2730
  590.5000     6.0170     7.0640     8.8960   203.2800     2.4130     0.0090     0.1020     0.2680
  591.0000     6.5720     7.6340     8.8960   189.0680     2.4520     0.0030     0.0980     0.2660
  591.5000     7.2590     8.2040     8.8950   178.9070     2.4850    -0.0030     0.0950     0.2660
  592.0000     8.3510     8.7230     8.8950   174.6980     2.4910    -0.0050     0.0930     0.2640
  592.5000     8.9960     8.9280     8.8950   172.1640     2.4950     0.0030     0.0920     0.2620
  593.0000     9.2140     9.1170     8.8940   170.9480     2.5000     0.0060     0.0930     0.2620
  593.5000     9.3930     9.3050     8.8940   169.9770     2.5000     0.0060     0.0940     0.2630
  594.0000     9.5440     9.3610     8.8940   169.9550     2.4990    -0.0010     0.0950     0.2630
  594.5000     9.6940     9.4170     8.8930   169.9590     2.4950    -0.0070     0.0950     0.2620
  595.0000     9.8450     9.4780     8.8930   170.1900     2.4950    -0.0050     0.0950     0.2620
  595.5000     9.9960     9.5980     8.8930   172.1280     2.4940     0.0020     0.0960     0.2620
  596.0000    10.1470     9.7620     8.8930   175.4770     2.4920     0.0030     0.0980     0.2620
  596.5000    10.2980     9.9270     8.8930   175.1630     2.4900     0.0010     0.0980     0.2630
  597.0000    10.4490    10.0910     8.8930   174.6700     2.4890    -0.0020     0.0950     0.2630
  597.5000    10.5990    10.2560     8.8930   174.8800     2.4950     0.0000     0.0910     0.2630
  598.0000    10.7500    10.4200     8.8930   176.8590     2.5030     0.0020     0.0880     0.2630
  598.5000    10.9010    10.5850     8.8930   181.1930     2.5050     0.0040     0.0900     0.2630
  599.0000    11.0520    10.7500     8.8930   181.7180     2.4970     0.0020     0.0960     0.2610
  599.5000    11.2030    10.9140     8.8930   178.0260     2.4860     0.0010     0.1000     0.2590
  600.0000    11.3540    11.0790     8.8930   176.6350     2.4790    -0.0020     0.1030     0.2570
  600.5000    11.4250    11.2130     8.8930   177.6990     2.4770    -0.0090     0.1040     0.2550
  601.0000    11.4640    11.2860     8.8930   177.0510     2.4810    -0.0120     0.1040     0.2550
  601.5000    11.5020    11.3590     8.8930   172.7950     2.4850    -0.0130     0.1010     0.2550
  602.0000    11.5350    11.4330     8.8930   170.5100     2.4830    -0.0060     0.1000     0.2550
  602.5000    11.5650    11.5060     8.8930   173.6320     2.4730     0.0010     0.1020     0.2550
  603.0000    11.5960    11.5790     8.8930   177.7180     2.4630     0.0060     0.1080     0.2540
  603.5000    11.7320    11.7130     8.8930   178.1140     2.4610     0.0030     0.1130     0.2530
  604.0000    11.9400    11.8890     8.8930   173.6410     2.4680     0.0020     0.1150     0.2540
  604.5000    12.0450    12.0450     8.8930   168.8280     2.4750     0.0030     0.1110     0.2550
  605.0000    12.0450    11.9840     8.8930   167.5170     2.4790     0.0060     0.1070     0.2540
  605.5000    12.0450    11.9160     8.8930   168.8810     2.4840     0.0130     0.1040     0.2530
  606.0000    12.0450    11.8490     8.8930   170.3090     2.4900     0.0070     0.1010     0.2520
  606.5000    12.0450    11.7820     8.8930   170.0250     2.4930     0.0000     0.0970     0.2510
  607.0000    12.0220    11.7150     8.8930   169.6940     2.4920    -0.0040     0.0950     0.2530
  607.5000    11.9530    11.6480     8.8930   169.6680     2.4860     0.0010     0.0960     0.2560
  608.0000    11.8840    11.6090     8.8930   172.5320     2.4800    -0.0060     0.0990     0.2590
  608.5000    11.8150    11.5820     8.8930   173.9400     2.4760    -0.0070     0.1040     0.2580
  609.0000    11.7460    11.5550     8.8930   171.1870     2.4770     0.0040     0.1050     0.2570
  609.5000    11.6760    11.5280     8.8930   168.4020     2.4780     0.0140     0.1060     0.2580
  610.0000    11.6070    11.5020     8.8930   166.8960     2.4800     0.0150     0.1040     0.2600
  610.5000    11.5380    11.3410     8.8930   169.8920     2.4810     0.0100     0.1030     0.2600
  611.0000    11.4690    11.1830     8.8930   173.1170     2.4800    -0.0050     0.1030     0.2600
  611.5000    11.3970    11.0250     8.8930   174.8030     2.4760    -0.0190     0.1050     0.2630
  612.0000    11.2250    10.8670     8.8930   175.9750     2.4700    -0.0240     0.1070     0.2660
  612.5000    11.0460    10.7090     8.8930   177.9770     2.4640    -0.0190     0.1100     0.2700
  613.0000    10.8670    10.5510     8.8930   177.1760     2.4610     0.0010     0.1140     0.2720
  613.5000    10.6880    10.3930     8.8930   174.2660     2.4610     0.0110     0.1150     0.2730
  614.0000    10.5090    10.2350     8.8930   173.2840     2.4620     0.0040     0.1150     0.2770
  614.5000    10.3300    10.0640     8.8930   174.7140     2.4640     0.0020     0.1140     0.2810
