~VERSION INFORMATION
 VERS.                2.0:   CWLS LOG ASCII STANDARD - VERSION 2.0
 WRAP.                 NO:   ONE LINE PER DEPTH STEP
~WELL INFORMATION
#MNEM.UNIT      DATA TYPE    INFORMATION
#----------   ------------   ------------------------------
 STRT.F           48.0000:   START DEPTH
 STOP.F          673.0000:   STOP DEPTH
 STEP.F            0.5000:   STEP LENGTH
 NULL.          -999.2500:   NO VALUE
 COMP. Fluor Daniel (NPOSR) Inc:   COMPANY
 WELL.      72-9-X-3 #3-3:   WELL
 FLD .             N.P.R.:   FIELD
 LOC .       S3 T38N R78W:   LOCATION
 CNTY.            NATRONA:   COUNTY
 STAT.            WYOMING:   STATE
 CTRY. UNITED STATES OF AMERICA:   COUNTRY
 SRVC.      Western Atlas:   SERVICE COMPANY
 DATE.        09-APR-1996:   LOGDATE
 API .       490252277400:   API NUMBER
~CURVE INFORMATION
#MNEM.UNIT       API CODE    CURVE DESCRIPTION
#----------   ------------   ------------------------------
 DEPT.F                  :   
 RILD.OHMM   07 120 46 00:   INDUCTION LOG DEEP RESISTIVITY
 RILM.OHMM   07 120 44 00:   INDUCTION LOG MEDIUM RESISTIVITY
 CALD.IN     45 280 60 00:   CALIPER
 GRD .GAPI   45 310 01 00:   GAMMA RAY FROM DENSITY LOG
 ZDEN.G/C3   45 350 01 00:   BULK DENSITY
 ZCOR.G/C3   45 356 01 00:   DENSITY CORRECTION
 PORZ.DEC    45 890 10 00:   DENSITY POROSITY
 PORS.DEC    42 890 01 00:   NEUTRON POROSITY LIMESTONE
~PARAMETER INFORMATION
#MNEM.UNIT          VALUE    DESCRIPTION
#----------   ------------   ------------------------------
 PD  .                 GL:   PERMANENT DATUM
 EPD .F              5118:   ELEVATION PERMANENT DATUM
 LMF .                 KB:   LOG MEASURED FROM
 DAPD.F                10:   FEET ABOVE PERMANENT DATUM
 DMF .                 KB:   DRILLING MEASURED FROM
 EKB .F              5128:   KELLING BUSHING
 EDF .F              5127:   DRILLING FLOOR
 EGL .F              5118:   GROUND LEVEL
 DATE.         9-APR-1996:   RUN DATE
 RUN .                  1:   RUN NUMBER
 DD  .F               665:   DEPTH DRILLER
 DL  .F               675:   DEPTH LOGGER
 BLI .F               668:   BOTTOM LOG INTERVAL
 CS  .IN            9.625:   CASING SIZE
 CBD .F                54:   CASING BOTTOM DRILLER
 CBL .F                56:   CASING BOTTOM LOGGER
 BS  .IN             8.75:   BIT SIZE
 BSD .F               665:   BIT SIZE AT DEPTH
 DFT .                AIR:   DRILLING FLUID TYPE
 MRT .F                85:   MAXIMUM RECORDED TEMPERATURE
 LUN .            HL-6530:   LOGGING UNIT NUMBER
 LUL .             CASPER:   LOGGING UNIT LOCATION
 ENGI.        VERN RAUTIO:   RECORDING ENGINEER
 WITN.        STEVE HARDY:   WITNESSED BY
 CLNT.            A2DTECH:   CLIENT CODE
 ORIG.           5" PRINT:   ORIGIN OF DATA
 UWI .       490252277400:   UNIQUE WELL ID
 DICO. A2D Technologies, Inc.:   DIGITIZING COMPANY
~OTHER INFORMATION
~A   DEPT     RILD       RILM       CALD        GRD       ZDEN       ZCOR       PORZ         PORS 
   48.0000  -999.2500  -999.2500  -999.2500   134.4760  -999.2500  -999.2500  -999.2500     0.4770
   48.5000  -999.2500  -999.2500  -999.2500   132.1920  -999.2500  -999.2500  -999.2500     0.4700
   49.0000  -999.2500  -999.2500  -999.2500   128.2770  -999.2500  -999.2500  -999.2500     0.4700
   49.5000  -999.2500  -999.2500  -999.2500   124.3630  -999.2500  -999.2500  -999.2500     0.4670
   50.0000  -999.2500  -999.2500  -999.2500   121.3100  -999.2500  -999.2500  -999.2500     0.4670
   50.5000  -999.2500  -999.2500  -999.2500   119.6540  -999.2500  -999.2500  -999.2500     0.4690
   51.0000  -999.2500  -999.2500  -999.2500   121.8060  -999.2500  -999.2500  -999.2500     0.4710
   51.5000  -999.2500  -999.2500  -999.2500   125.0320  -999.2500  -999.2500  -999.2500     0.4730
   52.0000  -999.2500  -999.2500  -999.2500   129.0900  -999.2500  -999.2500  -999.2500     0.4770
   52.5000  -999.2500  -999.2500  -999.2500   130.7240  -999.2500  -999.2500  -999.2500     0.4840
   53.0000  -999.2500  -999.2500  -999.2500   130.4740  -999.2500  -999.2500  -999.2500     0.4900
   53.5000  -999.2500  -999.2500  -999.2500   128.1260  -999.2500  -999.2500  -999.2500     0.4900
   54.0000  -999.2500  -999.2500  -999.2500   124.0320  -999.2500  -999.2500  -999.2500     0.4820
   54.5000  -999.2500  -999.2500  -999.2500   124.2980     2.1550  -999.2500  -999.2500     0.4740
   55.0000  -999.2500  -999.2500  -999.2500   135.6030     2.2710  -999.2500  -999.2500     0.4600
   55.5000  -999.2500  -999.2500  -999.2500   154.2240     2.3880  -999.2500  -999.2500     0.4380
   56.0000  -999.2500  -999.2500     8.9750   172.5190     2.4380     0.0540  -999.2500     0.4010
   56.5000  -999.2500  -999.2500     8.9760   181.2260     2.4330     0.0460     0.1300     0.3400
   57.0000     8.6980     6.2590     8.9760   183.9060     2.4310     0.0360     0.1320     0.3250
   57.5000     2.8590     2.5130     8.9770   185.2720     2.4330     0.0240     0.1320     0.3100
   58.0000     3.0490     2.7210     8.9780   183.3480     2.4350     0.0230     0.1310     0.3040
   58.5000     5.8270     3.4800     8.9780   180.5890     2.4300     0.0230     0.1310     0.3031
   59.0000    10.6620     4.9200     8.9790   179.3480     2.4250     0.0220     0.1340     0.3022
   59.5000    17.2490     5.7080     8.9800   179.5150     2.4290     0.0210     0.1360     0.3012
   60.0000    15.0580     7.9550     8.9800   179.5000     2.4330     0.0190     0.1320     0.3003
   60.5000     6.8010     8.8140     8.9810   179.0360     2.4350     0.0170     0.1300     0.2994
   61.0000     6.5780     9.0510     8.9820   178.5880     2.4360     0.0150     0.1300     0.2985
   61.5000     6.2950     8.3500     8.9820   178.4390     2.4380     0.0160     0.1290     0.2975
   62.0000     6.1590     7.8090     8.9830   178.9440     2.4370     0.0190     0.1280     0.2966
   62.5000     5.9770     9.1350     8.9840   179.7500     2.4360     0.0230     0.1290     0.2957
   63.0000     6.0220     9.0510     8.9840   179.7080     2.4390     0.0260     0.1290     0.2948
   63.5000     6.7240     7.9280     8.9850   177.8940     2.4410     0.0270     0.1250     0.2938
   64.0000     7.5270     7.0320     8.9860   176.7020     2.4410     0.0280     0.1220     0.2929
   64.5000     7.5270     6.8800     8.9860   178.6520     2.4430     0.0220     0.1210     0.2920
   65.0000     7.1320     6.7270     8.9870   180.5430     2.4490     0.0170     0.1220     0.2930
   65.5000     6.7380     6.5820     8.9870   182.4190     2.4510     0.0150     0.1220     0.2980
   66.0000     6.5570     6.4590     8.9880   184.3070     2.4490     0.0110     0.1250     0.2980
   66.5000     6.4350     6.2740     8.9890   185.5000     2.4480     0.0030     0.1250     0.2960
   67.0000     6.4740     6.3170     8.9890   185.5150     2.4460     0.0020     0.1240     0.2950
   67.5000     6.5430     6.3790     8.9900   182.6110     2.4410     0.0000     0.1260     0.2950
   68.0000     6.6120     6.4550     8.9910   181.0300     2.4430     0.0010     0.1280     0.2970
   68.5000     6.6800     6.5320     8.9910   183.2880     2.4470     0.0020     0.1300     0.2980
   69.0000     6.7490     6.6090     8.9920   186.4960     2.4460     0.0030     0.1320     0.3000
   69.5000     6.8180     6.6850     8.9930   186.4970     2.4380     0.0040     0.1310     0.3010
   70.0000     6.8870     6.7620     8.9930   185.3270     2.4330     0.0090     0.1290     0.3040
   70.5000     6.9560     6.8390     8.9940   184.5080     2.4320     0.0160     0.1260     0.3070
   71.0000     7.0430     6.9160     8.9960   185.8180     2.4330     0.0220     0.1240     0.3080
   71.5000     7.1520     6.9920     8.9980   185.6040     2.4370     0.0200     0.1220     0.3090
   72.0000     7.2610     7.0780     9.0000   183.9470     2.4400     0.0050     0.1170     0.3110
   72.5000     7.3700     7.2120     9.0020   182.8910     2.4430     0.0000     0.1180     0.3120
   73.0000     7.4780     7.3460     9.0040   184.5950     2.4460     0.0040     0.1220     0.3120
   73.5000     7.5870     7.4800     9.0060   186.4030     2.4540     0.0080     0.1250     0.3110
   74.0000     7.6960     7.6140     9.0080   186.1110     2.4500    -0.0010     0.1270     0.3090
   74.5000     7.8040     7.7480     9.0100   184.1630     2.4440    -0.0090     0.1290     0.3110
   75.0000     7.9130     7.8820     9.0110   182.0440     2.4390    -0.0050     0.1280     0.3120
   75.5000     7.9640     7.8700     9.0140   179.9130     2.4340     0.0070     0.1260     0.3110
   76.0000     7.9790     7.8580     9.0100   177.7180     2.4360     0.0040     0.1230     0.3070
   76.5000     7.9930     7.8450     9.0030   177.4830     2.4390    -0.0040     0.1210     0.3060
   77.0000     8.0080     7.8330     8.9960   179.6180     2.4440    -0.0050     0.1190     0.3080
   77.5000     8.0260     7.8210     8.9900   182.1050     2.4480    -0.0060     0.1180     0.3100
   78.0000     7.9590     7.8090     8.9830   183.3320     2.4500    -0.0140     0.1160     0.3110
   78.5000     7.8450     7.6910     8.9760   183.4410     2.4530    -0.0130     0.1180     0.3130
   79.0000     7.7300     7.5760     8.9780   183.0360     2.4550    -0.0090     0.1210     0.3160
   79.5000     7.6160     7.4610     8.9840   183.1270     2.4530    -0.0040     0.1230     0.3210
   80.0000     7.5020     7.3450     8.9890   183.5660     2.4490     0.0000     0.1250     0.3250
   80.5000     7.3890     7.2300     8.9940   184.0040     2.4450    -0.0030     0.1260     0.3290
   81.0000     7.3550     7.1820     8.9940   184.4830     2.4410    -0.0060     0.1250     0.3300
   81.5000     7.3220     7.1730     8.9940   185.7350     2.4390    -0.0080     0.1240     0.3300
   82.0000     7.2890     7.1640     8.9940   185.8060     2.4400    -0.0060     0.1230     0.3280
   82.5000     7.2540     7.1550     8.9940   184.5210     2.4420    -0.0030     0.1210     0.3260
   83.0000     7.2700     7.1460     8.9940   181.6060     2.4450    -0.0010     0.1190     0.3260
   83.5000     7.2850     7.1370     8.9940   180.4600     2.4500    -0.0020     0.1190     0.3270
   84.0000     7.3010     7.1280     8.9940   180.6790     2.4530    -0.0070     0.1190     0.3250
   84.5000     7.3170     7.1220     8.9940   181.3200     2.4530    -0.0120     0.1180     0.3220
   85.0000     7.3600     7.2060     8.9940   183.4250     2.4520    -0.0070     0.1170     0.3190
   85.5000     7.4310     7.2710     8.9940   185.4580     2.4510    -0.0010     0.1160     0.3170
   86.0000     7.5030     7.3350     8.9940   185.1990     2.4510     0.0050     0.1180     0.3160
   86.5000     7.5740     7.4000     8.9940   184.5120     2.4500     0.0030     0.1200     0.3160
   87.0000     7.5960     7.4580     8.9940   183.6380     2.4500     0.0000     0.1210     0.3170
   87.5000     7.5960     7.4580     8.9940   181.7810     2.4480    -0.0030     0.1200     0.3200
   88.0000     7.5960     7.4580     8.9940   180.6970     2.4500    -0.0070     0.1200     0.3230
