~VERSION INFORMATION
 VERS.                2.0:   CWLS LOG ASCII STANDARD - VERSION 2.0
 WRAP.                 NO:   ONE LINE PER DEPTH STEP
~WELL INFORMATION
#MNEM.UNIT      DATA TYPE    INFORMATION
#----------   ------------   ------------------------------
 STRT.F           48.0000:   START DEPTH
 STOP.F          673.0000:   STOP DEPTH
 STEP.F            0.5000:   STEP LENGTH
 NULL.          -999.2500:   NO VALUE
 COMP. Fluor Daniel (NPOSR) Inc:   COMPANY
 WELL.      72-9-X-3 #3-3:   WELL
 FLD .             N.P.R.:   FIELD
 LOC .       S3 T38N R78W:   LOCATION
 CNTY.            NATRONA:   COUNTY
 STAT.            WYOMING:   STATE
 CTRY. UNITED STATES OF AMERICA:   COUNTRY
 SRVC.      Western Atlas:   SERVICE COMPANY
 DATE.        09-APR-1996:   LOGDATE
 API .       490252277400:   API NUMBER
~CURVE INFORMATION
#MNEM.UNIT       API CODE    CURVE DESCRIPTION
#----------   ------------   ------------------------------
 DEPT.F                  :   
 RILD.OHMM   07 120 46 00:   INDUCTION LOG DEEP RESISTIVITY
 RILM.OHMM   07 120 44 00:   INDUCTION LOG MEDIUM RESISTIVITY
 CALD.IN     45 280 60 00:   CALIPER
 GRD .GAPI   45 310 01 00:   GAMMA RAY FROM DENSITY LOG
 ZDEN.G/C3   45 350 01 00:   BULK DENSITY
 ZCOR.G/C3   45 356 01 00:   DENSITY CORRECTION
 PORZ.DEC    45 890 10 00:   DENSITY POROSITY
 PORS.DEC    42 890 01 00:   NEUTRON POROSITY LIMESTONE
~PARAMETER INFORMATION
#MNEM.UNIT          VALUE    DESCRIPTION
#----------   ------------   ------------------------------
 PD  .                 GL:   PERMANENT DATUM
 EPD .F              5118:   ELEVATION PERMANENT DATUM
 LMF .                 KB:   LOG MEASURED FROM
 DAPD.F                10:   FEET ABOVE PERMANENT DATUM
 DMF .                 KB:   DRILLING MEASURED FROM
 EKB .F              5128:   KELLING BUSHING
 EDF .F              5127:   DRILLING FLOOR
 EGL .F              5118:   GROUND LEVEL
 DATE.         9-APR-1996:   RUN DATE
 RUN .                  1:   RUN NUMBER
 DD  .F               665:   DEPTH DRILLER
 DL  .F               675:   DEPTH LOGGER
 BLI .F               668:   BOTTOM LOG INTERVAL
 CS  .IN            9.625:   CASING SIZE
 CBD .F                54:   CASING BOTTOM DRILLER
 CBL .F                56:   CASING BOTTOM LOGGER
 BS  .IN             8.75:   BIT SIZE
 BSD .F               665:   BIT SIZE AT DEPTH
 DFT .                AIR:   DRILLING FLUID TYPE
 MRT .F                85:   MAXIMUM RECORDED TEMPERATURE
 LUN .            HL-6530:   LOGGING UNIT NUMBER
 LUL .             CASPER:   LOGGING UNIT LOCATION
 ENGI.        VERN RAUTIO:   RECORDING ENGINEER
 WITN.        STEVE HARDY:   WITNESSED BY
 CLNT.            A2DTECH:   CLIENT CODE
 ORIG.           5" PRINT:   ORIGIN OF DATA
 UWI .       490252277400:   UNIQUE WELL ID
 DICO. A2D Technologies, Inc.:   DIGITIZING COMPANY
~OTHER INFORMATION
~A   DEPT     RILD       RILM       CALD        GRD       ZDEN       ZCOR       PORZ         PORS 
# ...
  615.0000    10.1510     9.8900     8.8930   174.1570     2.4670     0.0040     0.1130     0.2800
  615.5000     9.9720     9.7160     8.8930   173.6680     2.4710     0.0060     0.1110     0.2800
  616.0000     9.7680     9.5420     8.8930   176.6730     2.4750     0.0020     0.1080     0.2780
  616.5000     9.5550     9.3050     8.8930   179.8990     2.4830    -0.0020     0.1060     0.2790
  617.0000     9.4780     9.3380     8.8930   181.4940     2.4900    -0.0050     0.1010     0.2820
  617.5000     9.4780     9.3910     8.8930   183.6370     2.4930    -0.0070     0.0970     0.2840
  618.0000     9.2560     9.1250     8.8930   186.6720     2.4910    -0.0060     0.0950     0.2890
  618.5000     8.9680     8.9210     8.8930   187.6820     2.4840    -0.0050     0.0950     0.2950
  619.0000     8.9750     8.8040     8.8940   185.1710     2.4790    -0.0040     0.1000     0.2970
  619.5000     8.9870     8.8240     8.8940   181.5490     2.4830    -0.0020     0.1040     0.2990
  620.0000     8.9990     8.8410     8.8940   181.8320     2.4900    -0.0020     0.1010     0.2990
  620.5000     9.0110     8.8570     8.8950   182.4080     2.4960    -0.0010     0.0980     0.2980
  621.0000     9.0240     8.8730     8.8950   181.3070     2.5010     0.0000     0.0950     0.2960
  621.5000     9.0360     8.8850     8.8950   181.0080     2.5000    -0.0010     0.0920     0.2940
  622.0000     9.0490     8.7990     8.8950   180.7800     2.4990    -0.0020     0.0900     0.2950
  622.5000     8.9760     8.7190     8.8960   179.0740     2.4970    -0.0040     0.0910     0.2950
  623.0000     8.8740     8.6390     8.8960   178.5020     2.4950    -0.0010     0.0930     0.2960
  623.5000     8.7720     8.5640     8.8960   179.9670     2.4910     0.0020     0.0940     0.2970
  624.0000     8.6700     8.4380     8.8970   179.5370     2.4850     0.0050     0.0950     0.2980
  624.5000     8.5680     8.3190     8.8970   179.2430     2.4770     0.0090     0.0980     0.2990
  625.0000     8.4580     8.2000     8.8970   179.6370     2.4750     0.0090     0.1030     0.3000
  625.5000     8.3180     8.0810     8.8980   180.0350     2.4740     0.0080     0.1060     0.3010
  626.0000     8.1770     7.9620     8.8980   180.0410     2.4720     0.0070     0.1060     0.3000
  626.5000     8.0280     7.8640     8.8980   180.5170     2.4680     0.0050     0.1070     0.2980
  627.0000     7.9790     7.8110     8.8990   182.0380     2.4690     0.0040     0.1090     0.2970
  627.5000     7.9270     7.7570     8.8990   184.7840     2.4720     0.0080     0.1090     0.2980
  628.0000     7.8740     7.7040     8.8990   186.8050     2.4730     0.0060     0.1070     0.2990
  628.5000     7.8210     7.6540     8.9000   184.3170     2.4700     0.0030     0.1060     0.3000
  629.0000     7.7690     7.6100     8.9000   181.4920     2.4690     0.0000     0.1080     0.3010
  629.5000     7.7160     7.5670     8.9000   180.0560     2.4760    -0.0020     0.1100     0.3020
  630.0000     7.6670     7.5270     8.9010   181.1070     2.4840    -0.0020     0.1080     0.3010
  630.5000     7.3550     7.2310     8.9010   181.2230     2.4860    -0.0020     0.1040     0.3010
  631.0000     7.0610     6.9520     8.9010   180.0040     2.4790    -0.0110     0.1010     0.3020
  631.5000     6.7670     6.6720     8.9010   178.9060     2.4510    -0.0200     0.1000     0.3030
  632.0000     6.4720     6.3930     8.9020   179.8140     2.4230    -0.0090     0.1080     0.3070
  632.5000     6.2590     5.9770     8.9020   181.4350     2.4080     0.0130     0.1260     0.3170
  633.0000     6.2590     6.0380     8.9020   183.0550     2.4110     0.0350     0.1400     0.3270
  633.5000     6.3410     6.1550     8.9030   183.8930     2.4320     0.0350     0.1460     0.3340
  634.0000     6.4890     6.2730     8.9030   184.4520     2.4460     0.0340     0.1460     0.3220
  634.5000     6.6360     6.3900     8.9030   185.1140     2.4540     0.0350     0.1310     0.3080
  635.0000     6.8750     6.5460     8.9040   186.2080     2.4630     0.0360     0.1230     0.2960
  635.5000     7.3230     6.9910     8.9040   187.3180     2.4790     0.0210     0.1170     0.2920
  636.0000     7.7700     7.4370     8.9040   187.5570     2.4930    -0.0050     0.1100     0.2890
  636.5000     8.2180     7.8830     8.9050   187.3410     2.4930    -0.0130     0.1020     0.2870
  637.0000     8.6660     8.3280     8.9050   187.3230     2.4910    -0.0160     0.0950     0.2870
  637.5000     9.1350     8.7740     8.9050   186.3280     2.4910    -0.0180     0.0960     0.2870
  638.0000     9.2400     9.0930     8.9060   184.9280     2.4910    -0.0200     0.0970     0.2870
  638.5000     9.3530     9.2050     8.9060   183.1110     2.4930    -0.0200     0.0950     0.2870
  639.0000     9.4660     9.3160     8.9060   180.4370     2.4970    -0.0030     0.0920     0.2860
  639.5000     9.5660     9.4780     8.9070   178.2330     2.5000     0.0140     0.0910     0.2860
  640.0000     9.5660     9.4560     8.9070   176.2820     2.5000     0.0190     0.0920     0.2850
  640.5000     9.5660     9.4170     8.9070   176.4330     2.4980     0.0220     0.0950     0.2840
  641.0000     9.5340     9.3780     8.9070   178.4480     2.4940     0.0150     0.0950     0.2840
  641.5000     9.4130     9.3390     8.9080   180.5140     2.4940     0.0080     0.0950     0.2850
  642.0000     9.2930     9.3000     8.9080   181.6100     2.4940     0.0040     0.0950     0.2850
  642.5000     9.2190     9.2610     8.9080   181.1630     2.4940     0.0050     0.0950     0.2850
  643.0000     9.2190     9.2220     8.9090   180.5720     2.4940     0.0050     0.0940     0.2860
  643.5000     9.2190     9.1830     8.9090   180.7730     2.4920     0.0060     0.0960     0.2850
  644.0000     9.2190     9.1350     8.9090   180.0430     2.4870     0.0050     0.1000     0.2830
  644.5000     9.2550     9.1440     8.9100   178.7960     2.4820     0.0030     0.1030     0.2800
  645.0000     9.3500     9.1600     8.9100   177.7050     2.4820     0.0000     0.1020     0.2770
  645.5000     9.4440     9.1770     8.9100   178.3960     2.4820    -0.0010     0.1020     0.2770
  646.0000     9.5390     9.1930     8.9110   178.2680     2.4820    -0.0030     0.1020     0.2800
  646.5000     9.6540     9.2190     8.9110   175.6990     2.4820    -0.0040     0.1030     0.2820
  647.0000     9.5420     9.1430     8.9110   175.3790     2.4840     0.0010     0.1010     0.2850
  647.5000     9.4000     8.9680     8.9120   175.9400     2.4830     0.0000     0.1010     0.2840
  648.0000     9.2580     8.6000     8.9120   177.1660     2.4810    -0.0030     0.1030     0.2830
  648.5000     8.8930     8.2550     8.9120   179.2410     2.4790    -0.0030     0.1040     0.2860
  649.0000     8.4450     7.9100     8.9130   180.4510     2.4800     0.0040     0.1040     0.2900
  649.5000     7.9980     7.5660     8.9130   184.3350     2.4770     0.0100     0.1060     0.2940
  650.0000     7.5500     7.2210     8.9130   188.5120     2.4730     0.0080     0.1090     0.2963
  650.5000     7.1020     6.7640     8.9120   190.1220     2.4690     0.0040     0.1100     0.2987
  651.0000     6.5340     6.2610     8.9100  -999.2500     2.4680     0.0100     0.1100     0.3010
  651.5000     5.9250     5.7220     8.9090  -999.2500     2.4670     0.0170     0.1110     0.3033
  652.0000     5.0990     5.0520     8.9070  -999.2500     2.4620     0.0220     0.1130     0.3057
  652.5000     4.3140     4.3820     8.9050  -999.2500     2.4550     0.0140     0.1140     0.3080
  653.0000     3.6960     3.7120     8.9030  -999.2500     2.4460     0.0050     0.1170     0.3103
  653.5000     3.1480     3.0430     8.9010  -999.2500     2.4200     0.0040     0.1220     0.3127
  654.0000     2.7300     2.5410     8.8990  -999.2500     2.3810     0.0030     0.1290     0.3150
  654.5000     2.5520     2.2910     8.8970  -999.2500     2.3250    -0.0030     0.1400     0.3220
  655.0000     2.5260     2.3240     8.8960  -999.2500     2.2530    -0.0080     0.1560     0.3310
