~VERSION INFORMATION
 VERS.                2.0:   CWLS LOG ASCII STANDARD - VERSION 2.0
 WRAP.                 NO:   ONE LINE PER DEPTH STEP
~WELL INFORMATION
#MNEM.UNIT      DATA TYPE    INFORMATION
#----------   ------------   ------------------------------
 STRT.F           48.0000:   START DEPTH
 STOP.F          673.0000:   STOP DEPTH
 STEP.F            0.5000:   STEP LENGTH
 NULL.          -999.2500:   NO VALUE
 COMP. Fluor Daniel (NPOSR) Inc:   COMPANY
 WELL.      72-9-X-3 #3-3:   WELL
 FLD .             N.P.R.:   FIELD
 LOC .       S3 T38N R78W:   LOCATION
 CNTY.            NATRONA:   COUNTY
 STAT.            WYOMING:   STATE
 CTRY. UNITED STATES OF AMERICA:   COUNTRY
 SRVC.      Western Atlas:   SERVICE COMPANY
 DATE.        09-APR-1996:   LOGDATE
 API .       490252277400:   API NUMBER
~CURVE INFORMATION
#MNEM.UNIT       API CODE    CURVE DESCRIPTION
#----------   ------------   ------------------------------
 DEPT.F                  :   
 RILD.OHMM   07 120 46 00:   INDUCTION LOG DEEP RESISTIVITY
 RILM.OHMM   07 120 44 00:   INDUCTION LOG MEDIUM RESISTIVITY
 CALD.IN     45 280 60 00:   CALIPER
 GRD .GAPI   45 310 01 00:   GAMMA RAY FROM DENSITY LOG
 ZDEN.G/C3   45 350 01 00:   BULK DENSITY
 ZCOR.G/C3   45 356 01 00:   DENSITY CORRECTION
 PORZ.DEC    45 890 10 00:   DENSITY POROSITY
 PORS.DEC    42 890 01 00:   NEUTRON POROSITY LIMESTONE
~PARAMETER INFORMATION
#MNEM.UNIT          VALUE    DESCRIPTION
#----------   ------------   ------------------------------
 PD  .                 GL:   PERMANENT DATUM
 EPD .F              5118:   ELEVATION PERMANENT DATUM
 LMF .                 KB:   LOG MEASURED FROM
 DAPD.F                10:   FEET ABOVE PERMANENT DATUM
 DMF .                 KB:   DRILLING MEASURED FROM
 EKB .F              5128:   KELLING BUSHING
 EDF .F              5127:   DRILLING FLOOR
 EGL .F              5118:   GROUND LEVEL
 DATE.         9-APR-1996:   RUN DATE
 RUN .                  1:   RUN NUMBER
 DD  .F               665:   DEPTH DRILLER
 DL  .F               675:   DEPTH LOGGER
 BLI .F               668:   BOTTOM LOG INTERVAL
 CS  .IN            9.625:   CASING SIZE
 CBD .F                54:   CASING BOTTOM DRILLER
 CBL .F                56:   CASING BOTTOM LOGGER
 BS  .IN             8.75:   BIT SIZE
 BSD .F               665:   BIT SIZE AT DEPTH
 DFT .                AIR:   DRILLING FLUID TYPE
 MRT .F                85:   MAXIMUM RECORDED TEMPERATURE
 LUN .            HL-6530:   LOGGING UNIT NUMBER
 LUL .             CASPER:   LOGGING UNIT LOCATION
 ENGI.        VERN RAUTIO:   RECORDING ENGINEER
 WITN.        STEVE HARDY:   WITNESSED BY
 CLNT.            A2DTECH:   CLIENT CODE
 ORIG.           5" PRINT:   ORIGIN OF DATA
 UWI .       490252277400:   UNIQUE WELL ID
 DICO. A2D Technologies, Inc.:   DIGITIZING COMPANY
~OTHER INFORMATION
~A   DEPT     RILD       RILM       CALD        GRD       ZDEN       ZCOR       PORZ         PORS 
# ...
  412.5000     7.6670     7.8450     8.9570   190.2630     2.4870    -0.0060     0.1000     0.3190
  413.0000     7.7260     7.8910     8.9580   190.8430     2.4860    -0.0050     0.1000     0.3190
  413.5000     7.7850     7.9380     8.9590   191.5460     2.4850     0.0020     0.1010     0.3170
  414.0000     7.8440     7.9840     8.9590   192.5590     2.4840     0.0080     0.1040     0.3150
  414.5000     7.9030     8.0310     8.9600   194.8620     2.4770     0.0080     0.1060     0.3130
  415.0000     7.9620     8.0770     8.9610   193.8740     2.4760    -0.0020     0.1060     0.3110
  415.5000     8.0250     8.1030     8.9620   193.7570     2.4760    -0.0140     0.1050     0.3090
  416.0000     8.0060     8.0760     8.9620   194.8960     2.4770    -0.0170     0.1040     0.3090
  416.5000     7.9810     8.0540     8.9630   192.8940     2.4800    -0.0110     0.1010     0.3080
  417.0000     7.9550     8.0330     8.9640   189.4650     2.4850    -0.0060     0.0990     0.3090
  417.5000     7.9040     7.9980     8.9640   187.4540     2.4870     0.0000     0.1000     0.3090
  418.0000     7.8520     7.9590     8.9650   186.8650     2.4860     0.0040     0.1020     0.3100
  418.5000     7.8010     7.9210     8.9660   188.7540     2.4830     0.0050     0.1010     0.3090
  419.0000     7.7380     7.8820     8.9670   190.6780     2.4840     0.0050     0.0980     0.3070
  419.5000     7.8590     8.0470     8.9670   189.7700     2.4890     0.0060     0.0950     0.3030
  420.0000     8.0130     8.2160     8.9680   187.5040     2.4960     0.0060     0.0920     0.2990
  420.5000     8.1680     8.3860     8.9690   185.3050     2.4990     0.0050     0.0920     0.2930
  421.0000     8.3300     8.5640     8.9700   183.2290     2.4990     0.0050     0.0940     0.2870
  421.5000     8.1940     8.5040     8.9700   181.8990     2.4970     0.0040     0.0960     0.2840
  422.0000     8.0510     8.4410     8.9710   180.4470     2.4940     0.0030     0.0960     0.2840
  422.5000     7.3900     8.0340     8.9720   178.3440     2.4930    -0.0010     0.0990     0.2900
  423.0000     6.6320     7.2220     8.9730   177.2280     2.4870     0.0000     0.1180     0.3100
  423.5000     5.8740     6.4090     8.9730   179.7360     2.4680     0.0000     0.1480     0.3430
  424.0000     5.1170     5.4510     8.9740   186.2750     2.4120    -0.0150     0.1880     0.3600
  424.5000     4.8350     5.4810     8.9740   199.0480     2.3520    -0.0160     0.1960     0.3600
  425.0000     5.1900     5.5290     8.9740   206.1450     2.3130     0.0090     0.1790     0.3580
  425.5000     5.4750     5.9160     8.9740   202.6500     2.3320     0.0240     0.2040     0.3620
  426.0000     5.7600     6.6140     8.9740   193.7070     2.3990     0.0230     0.2000     0.3290
  426.5000     6.0450     7.3130     8.9740   183.7500     2.4670     0.0080     0.1640     0.2990
  427.0000     6.7560     8.0110     8.9740   181.6610     2.4980     0.0100     0.1170     0.2700
  427.5000     7.7000     8.7090     8.9740   180.7420     2.5040     0.0140     0.0960     0.2670
  428.0000     8.6440     9.4080     8.9740   179.9980     2.5020     0.0180     0.0890     0.2660
  428.5000     9.8310     9.7500     8.9740   180.9530     2.4950     0.0200     0.0890     0.2670
  429.0000     9.8200     9.9870     8.9740   182.4100     2.4910     0.0190     0.0940     0.2690
  429.5000     9.7990    10.2030     8.9740   182.0320     2.4890     0.0180     0.0960     0.2730
  430.0000     9.7780    10.1590     8.9740   179.8910     2.4900     0.0100     0.0990     0.2740
  430.5000     9.7440    10.1100     8.9740   182.4700     2.4970     0.0090     0.0980     0.2760
  431.0000    10.1230    10.3720     8.9740   186.6620     2.5010     0.0140     0.0950     0.2800
  431.5000    11.0480    11.1260     8.9740   188.0560     2.4990     0.0190     0.0920     0.2800
  432.0000    11.9730    12.1150     8.9740   185.8210     2.4940     0.0240     0.0920     0.2800
  432.5000    12.8980    13.1040     8.9740   183.1570     2.4860     0.0290     0.0950     0.2790
  433.0000    13.8230    14.0890     8.9750   178.3380     2.4730     0.0350     0.0980     0.2730
  433.5000    15.0850    15.9690     8.9750   167.9880     2.4470     0.0410     0.1040     0.2620
  434.0000    16.7970    17.8410     8.9750   156.2420     2.3990     0.0680     0.1150     0.2500
  434.5000    18.5080    19.7140     8.9760   147.2930     2.3520     0.1000     0.1390     0.2400
  435.0000    20.2190    22.5470     8.9760   143.2060     2.3070     0.1090     0.1710     0.2350
  435.5000    21.9300    22.3470     8.9760   139.4640     2.2930     0.1010     0.2060     0.2320
  436.0000    22.8300    21.8570     8.9760   135.7930     2.2920     0.0210     0.2170     0.2310
  436.5000    23.2730    21.3670     8.9770   132.4250     2.2700    -0.0010     0.2170     0.2310
  437.0000    23.7150    20.9440     8.9770   136.7720     2.2690    -0.0080     0.2280     0.2370
  437.5000    24.1580    21.6180     8.9770   144.1260     2.2770    -0.0070     0.2320     0.2460
  438.0000    24.5480    22.1210     8.9780   149.9810     2.2750    -0.0060     0.2290     0.2560
  438.5000    24.7640    22.6230     8.9780   150.0750     2.2580     0.0010     0.2260     0.2680
  439.0000    25.1390    23.4840     8.9780   147.0400     2.2310     0.0280     0.2330     0.2660
  439.5000    26.6090    25.8930     8.9780   144.2030     2.2240     0.0330     0.2500     0.2540
  440.0000    28.0790    28.3030     8.9790   142.3780     2.2400     0.0490     0.2600     0.2340
  440.5000    29.5500    30.5640     8.9790   139.2480     2.2780     0.0290     0.2550     0.2250
  441.0000    31.0200    31.1330     8.9790   136.1590     2.2710     0.0020     0.2330     0.2190
  441.5000    32.4700    31.0750     8.9800   133.7710     2.2370     0.0010     0.2260     0.2180
  442.0000    33.9020    30.9650     8.9800   134.8100     2.2000     0.0050     0.2460     0.2230
  442.5000    34.4560    30.8550     8.9800   136.8650     2.1930     0.0040     0.2730     0.2280
  443.0000    34.4560    30.7450     8.9800   140.0470     2.2010     0.0010     0.2780     0.2330
  443.5000    33.8270    30.5800     8.9810   143.2440     2.2020     0.0010     0.2730     0.2390
  444.0000    33.8850    30.8310     8.9810   143.2020     2.1970     0.0070     0.2710     0.2400
  444.5000    34.0480    31.5800     8.9810   142.3630     2.1990     0.0050     0.2750     0.2340
  445.0000    34.7060    32.6220     8.9820   141.4890     2.2040     0.0010     0.2750     0.2320
  445.5000    35.9910    33.8270     8.9820   141.6510     2.2070    -0.0020     0.2690     0.2290
  446.0000    37.0940    34.0750     8.9820   140.2210     2.2020    -0.0010     0.2680     0.2230
  446.5000    37.0940    34.4180     8.9820   137.9750     2.1890    -0.0010     0.2760     0.2230
  447.0000    36.4620    33.5040     8.9830   136.0370     2.1700     0.0000     0.2870     0.2240
  447.5000    35.4250    31.9420     8.9830   137.3740     2.1520     0.0020     0.2990     0.2220
  448.0000    34.3870    30.3800     8.9830   140.5060     2.1490     0.0060     0.2990     0.2230
  448.5000    33.3500    28.8180     8.9840   143.6220     2.1730     0.0050     0.2900     0.2280
  449.0000    32.3130    27.7630     8.9840   145.8020     2.2080     0.0030     0.2660     0.2340
  449.5000    31.2760    27.4860     8.9840   147.3180     2.2430     0.0030     0.2430     0.2370
  450.0000    30.7080    27.2080     8.9840   149.2110     2.2650     0.0040     0.2300     0.2350
  450.5000    30.2840    26.8630     8.9850   151.3510     2.2730     0.0030     0.2360     0.2330
  451.0000    30.2840    27.5150     8.9850   151.1580     2.2540     0.0020     0.2430     0.2320
  451.5000    30.8100    28.3780     8.9850   150.7930     2.2420     0.0010     0.2500     0.2330
  452.0000    31.4210    29.2420     8.9850   150.2930     2.2310     0.0000     0.2580     0.2350
  452.5000    31.3010    29.8890     8.9860   149.6500     2.2080    -0.0020     0.2720     0.2340
