~VERSION INFORMATION
 VERS.                2.0:   CWLS LOG ASCII STANDARD - VERSION 2.0
 WRAP.                 NO:   ONE LINE PER DEPTH STEP
~WELL INFORMATION
#MNEM.UNIT      DATA TYPE    INFORMATION
#----------   ------------   ------------------------------
 STRT.F           48.0000:   START DEPTH
 STOP.F          673.0000:   STOP DEPTH
 STEP.F            0.5000:   STEP LENGTH
 NULL.          -999.2500:   NO VALUE
 COMP. Fluor Daniel (NPOSR) Inc:   COMPANY
 WELL.      72-9-X-3 #3-3:   WELL
 FLD .             N.P.R.:   FIELD
 LOC .       S3 T38N R78W:   LOCATION
 CNTY.            NATRONA:   COUNTY
 STAT.            WYOMING:   STATE
 CTRY. UNITED STATES OF AMERICA:   COUNTRY
 SRVC.      Western Atlas:   SERVICE COMPANY
 DATE.        09-APR-1996:   LOGDATE
 API .       490252277400:   API NUMBER
~CURVE INFORMATION
#MNEM.UNIT       API CODE    CURVE DESCRIPTION
#----------   ------------   ------------------------------
 DEPT.F                  :   
 RILD.OHMM   07 120 46 00:   INDUCTION LOG DEEP RESISTIVITY
 RILM.OHMM   07 120 44 00:   INDUCTION LOG MEDIUM RESISTIVITY
 CALD.IN     45 280 60 00:   CALIPER
 GRD .GAPI   45 310 01 00:   GAMMA RAY FROM DENSITY LOG
 ZDEN.G/C3   45 350 01 00:   BULK DENSITY
 ZCOR.G/C3   45 356 01 00:   DENSITY CORRECTION
 PORZ.DEC    45 890 10 00:   DENSITY POROSITY
 PORS.DEC    42 890 01 00:   NEUTRON POROSITY LIMESTONE
~PARAMETER INFORMATION
#MNEM.UNIT          VALUE    DESCRIPTION
#----------   ------------   ------------------------------
 PD  .                 GL:   PERMANENT DATUM
 EPD .F              5118:   ELEVATION PERMANENT DATUM
 LMF .                 KB:   LOG MEASURED FROM
 DAPD.F                10:   FEET ABOVE PERMANENT DATUM
 DMF .                 KB:   DRILLING MEASURED FROM
 EKB .F              5128:   KELLING BUSHING
 EDF .F              5127:   DRILLING FLOOR
 EGL .F              5118:   GROUND LEVEL
 DATE.         9-APR-1996:   RUN DATE
 RUN .                  1:   RUN NUMBER
 DD  .F               665:   DEPTH DRILLER
 DL  .F               675:   DEPTH LOGGER
 BLI .F               668:   BOTTOM LOG INTERVAL
 CS  .IN            9.625:   CASING SIZE
 CBD .F                54:   CASING BOTTOM DRILLER
 CBL .F                56:   CASING BOTTOM LOGGER
 BS  .IN             8.75:   BIT SIZE
 BSD .F               665:   BIT SIZE AT DEPTH
 DFT .                AIR:   DRILLING FLUID TYPE
 MRT .F                85:   MAXIMUM RECORDED TEMPERATURE
 LUN .            HL-6530:   LOGGING UNIT NUMBER
 LUL .             CASPER:   LOGGING UNIT LOCATION
 ENGI.        VERN RAUTIO:   RECORDING ENGINEER
 WITN.        STEVE HARDY:   WITNESSED BY
 CLNT.            A2DTECH:   CLIENT CODE
 ORIG.           5" PRINT:   ORIGIN OF DATA
 UWI .       490252277400:   UNIQUE WELL ID
 DICO. A2D Technologies, Inc.:   DIGITIZING COMPANY
~OTHER INFORMATION
~A   DEPT     RILD       RILM       CALD        GRD       ZDEN       ZCOR       PORZ         PORS 
# ...
  291.0000     8.7950     8.7220     8.9740   172.8170     2.4540     0.0090     0.1180     0.2850
  291.5000     8.8790     8.8040     8.9740   176.8880     2.4600     0.0050     0.1150     0.2850
  292.0000     8.8600     8.7330     8.9740   180.4520     2.4610     0.0020     0.1140     0.2900
  292.5000     8.7950     8.6580     8.9740   182.6250     2.4610     0.0040     0.1140     0.2940
  293.0000     8.7300     8.5830     8.9740   182.3270     2.4610     0.0130     0.1140     0.2960
  293.5000     8.6640     8.5080     8.9740   180.9880     2.4620     0.0170     0.1130     0.2950
  294.0000     8.5990     8.4340     8.9740   179.9680     2.4630     0.0140     0.1130     0.2960
  294.5000     8.5600     8.4070     8.9740   180.3800     2.4590     0.0070     0.1170     0.2980
  295.0000     8.5480     8.4070     8.9740   184.0860     2.4540    -0.0010     0.1200     0.2990
  295.5000     8.5350     8.4070     8.9740   188.6360     2.4500    -0.0100     0.1200     0.2970
  296.0000     8.5220     8.4070     8.9740   189.6810     2.4530    -0.0080     0.1180     0.2960
  296.5000     8.5100     8.4070     8.9740   188.5330     2.4580     0.0020     0.1170     0.2960
  297.0000     8.4970     8.4070     8.9740   186.3880     2.4550     0.0130     0.1180     0.2950
  297.5000     8.4840     8.4010     8.9740   185.3200     2.4510     0.0140     0.1210     0.2940
  298.0000     8.4720     8.3720     8.9740   185.5320     2.4470     0.0060     0.1220     0.2950
  298.5000     8.4590     8.3430     8.9740   185.3310     2.4490     0.0080     0.1210     0.2960
  299.0000     8.4460     8.3120     8.9740   183.7670     2.4520     0.0140     0.1190     0.2980
  299.5000     8.4330     8.2780     8.9740   182.2420     2.4550     0.0210     0.1180     0.2990
  300.0000     8.4210     8.2450     8.9740   180.7210     2.4530     0.0180     0.1190     0.2990
  300.5000     8.4070     8.2120     8.9740   179.1960     2.4480     0.0110     0.1210     0.2980
  301.0000     8.3690     8.1780     8.9740   177.6400     2.4430     0.0070     0.1240     0.2970
  301.5000     8.3280     8.1440     8.9740   176.5190     2.4460     0.0050     0.1250     0.2950
  302.0000     8.2880     8.1080     8.9740   175.4970     2.4530     0.0030     0.1200     0.2950
  302.5000     8.2470     8.0730     8.9740   175.5250     2.4590     0.0010     0.1150     0.2970
  303.0000     8.2060     8.0370     8.9740   177.2890     2.4610    -0.0020     0.1140     0.3010
  303.5000     8.1660     8.0010     8.9740   178.7980     2.4620    -0.0040     0.1130     0.3030
  304.0000     8.1250     7.9660     8.9740   178.2600     2.4620    -0.0060     0.1140     0.3020
  304.5000     8.0840     7.9300     8.9740   176.7380     2.4580    -0.0080     0.1170     0.3010
  305.0000     8.0430     7.8950     8.9740   174.6130     2.4500    -0.0100     0.1240     0.2990
  305.5000     7.9110     7.7770     8.9740   172.5240     2.4400    -0.0010     0.1300     0.2970
  306.0000     7.7250     7.5390     8.9740   170.7040     2.4320     0.0100     0.1330     0.2950
  306.5000     7.5220     7.3000     8.9740   172.6630     2.4310     0.0220     0.1310     0.2950
  307.0000     7.2800     7.0610     8.9740   175.1020     2.4360     0.0200     0.1280     0.2980
  307.5000     7.0380     6.8230     8.9740   175.1170     2.4410     0.0140     0.1240     0.3000
  308.0000     6.7950     6.5840     8.9740   174.9920     2.4450     0.0090     0.1230     0.3060
  308.5000     6.5530     6.4260     8.9740   174.8800     2.4460     0.0070     0.1250     0.3110
  309.0000     6.3760     6.2590     8.9740   174.9020     2.4460     0.0050     0.1340     0.3160
  309.5000     6.3940     6.2740     8.9740   175.3730     2.4440     0.0040     0.1440     0.3200
  310.0000     6.4110     6.3040     8.9740   175.9370     2.4370     0.0020     0.1490     0.3120
  310.5000     6.4280     6.3340     8.9740   176.4850     2.4220     0.0000     0.1440     0.3070
  311.0000     6.6220     6.3640     8.9740   177.2500     2.4110    -0.0010     0.1340     0.3010
  311.5000     6.9410     6.5150     8.9740   178.3410     2.4040    -0.0020     0.1240     0.2950
  312.0000     7.1180     6.7420     8.9740   179.1560     2.4130    -0.0030     0.1240     0.2970
  312.5000     7.2680     6.9690     8.9740   177.1470     2.4290    -0.0040     0.1270     0.2990
  313.0000     7.4190     7.1950     8.9740   175.0180     2.4410    -0.0040     0.1310     0.2990
  313.5000     7.4830     7.3250     8.9740   175.5040     2.4460    -0.0030     0.1310     0.2970
  314.0000     7.5170     7.4200     8.9740   177.6680     2.4430    -0.0030     0.1310     0.2930
  314.5000     7.5510     7.4790     8.9740   181.8740     2.4360    -0.0020     0.1320     0.2950
  315.0000     7.5960     7.5150     8.9740   185.4880     2.4320     0.0060     0.1310     0.2990
  315.5000     7.5740     7.5270     8.9740   183.9770     2.4320     0.0190     0.1290     0.3010
  316.0000     7.5260     7.4110     8.9740   181.2790     2.4320     0.0220     0.1290     0.3030
  316.5000     7.4780     7.3580     8.9740   179.9040     2.4330     0.0220     0.1290     0.3040
  317.0000     7.4260     7.3060     8.9740   182.3000     2.4350     0.0150     0.1290     0.3060
  317.5000     7.3710     7.2540     8.9740   184.2260     2.4370     0.0080     0.1300     0.3080
  318.0000     7.3160     7.1670     8.9740   178.1290     2.4370     0.0020     0.1290     0.3110
  318.5000     7.2600     7.0550     8.9740   171.8560     2.4360    -0.0020     0.1270     0.3130
  319.0000     7.0940     6.9140     8.9740   170.9530     2.4350    -0.0060     0.1250     0.3140
  319.5000     6.9150     6.7730     8.9740   174.4820     2.4360    -0.0080     0.1240     0.3140
  320.0000     6.6590     6.4640     8.9740   180.6510     2.4400    -0.0080     0.1270     0.3160
  320.5000     6.2730     6.1000     8.9740   186.1340     2.4440    -0.0020     0.1300     0.3190
  321.0000     5.8880     5.7360     8.9740   187.2450     2.4410     0.0050     0.1370     0.3230
  321.5000     5.5030     5.3720     8.9740   185.3440     2.4340     0.0030     0.1430     0.3300
  322.0000     5.1590     5.0090     8.9740   185.7070     2.4230     0.0010     0.1550     0.3400
  322.5000     5.1730     4.8350     8.9740   188.1310     2.4140     0.0000     0.1650     0.3450
  323.0000     5.1860     5.1000     8.9740   187.0940     2.3950     0.0000     0.1720     0.3380
  323.5000     5.2000     5.3800     8.9740   182.4130     2.3760     0.0160     0.1650     0.3240
  324.0000     5.2760     5.6610     8.9740   178.2680     2.3680     0.0280     0.1470     0.3150
  324.5000     5.4900     5.9590     8.9740   177.4700     2.3820     0.0160     0.1350     0.3130
  325.0000     5.8360     6.2780     8.9740   178.4250     2.4120     0.0040     0.1280     0.3150
  325.5000     6.1810     6.5970     8.9740   181.9440     2.4330    -0.0090     0.1260     0.3150
  326.0000     6.5260     6.9270     8.9740   182.0970     2.4410    -0.0180     0.1250     0.3140
  326.5000     6.8380     7.0340     8.9740   181.0940     2.4430    -0.0180     0.1240     0.3120
  327.0000     7.0960     7.1440     8.9740   180.0090     2.4450    -0.0100     0.1230     0.3120
  327.5000     7.3540     7.2540     8.9740   180.1930     2.4460    -0.0010     0.1220     0.3130
  328.0000     7.4820     7.3640     8.9740   181.8730     2.4480     0.0080     0.1190     0.3130
  328.5000     7.5960     7.4740     8.9740   184.5120     2.4530     0.0040     0.1150     0.3120
  329.0000     7.7100     7.5840     8.9740   185.0850     2.4580     0.0000     0.1130     0.3100
  329.5000     7.8330     7.6940     8.9740   181.7930     2.4620    -0.0030     0.1110     0.3100
  330.0000     7.9270     7.7670     8.9740   179.5830     2.4650     0.0010     0.1100     0.3090
  330.5000     8.0030     7.8150     8.9800   181.9570     2.4680     0.0060     0.1120     0.3080
  331.0000     8.0640     7.8630     8.9930   186.3410     2.4670     0.0120     0.1150     0.3050
