~VERSION INFORMATION
 VERS.                2.0:   CWLS LOG ASCII STANDARD - VERSION 2.0
 WRAP.                 NO:   ONE LINE PER DEPTH STEP
~WELL INFORMATION
#MNEM.UNIT      DATA TYPE    INFORMATION
#----------   ------------   ------------------------------
 STRT.F           48.0000:   START DEPTH
 STOP.F          673.0000:   STOP DEPTH
 STEP.F            0.5000:   STEP LENGTH
 NULL.          -999.2500:   NO VALUE
 COMP. Fluor Daniel (NPOSR) Inc:   COMPANY
 WELL.      72-9-X-3 #3-3:   WELL
 FLD .             N.P.R.:   FIELD
 LOC .       S3 T38N R78W:   LOCATION
 CNTY.            NATRONA:   COUNTY
 STAT.            WYOMING:   STATE
 CTRY. UNITED STATES OF AMERICA:   COUNTRY
 SRVC.      Western Atlas:   SERVICE COMPANY
 DATE.        09-APR-1996:   LOGDATE
 API .       490252277400:   API NUMBER
~CURVE INFORMATION
#MNEM.UNIT       API CODE    CURVE DESCRIPTION
#----------   ------------   ------------------------------
 DEPT.F                  :   
 RILD.OHMM   07 120 46 00:   INDUCTION LOG DEEP RESISTIVITY
 RILM.OHMM   07 120 44 00:   INDUCTION LOG MEDIUM RESISTIVITY
 CALD.IN     45 280 60 00:   CALIPER
 GRD .GAPI   45 310 01 00:   GAMMA RAY FROM DENSITY LOG
 ZDEN.G/C3   45 350 01 00:   BULK DENSITY
 ZCOR.G/C3   45 356 01 00:   DENSITY CORRECTION
 PORZ.DEC    45 890 10 00:   DENSITY POROSITY
 PORS.DEC    42 890 01 00:   NEUTRON POROSITY LIMESTONE
~PARAMETER INFORMATION
#MNEM.UNIT          VALUE    DESCRIPTION
#----------   ------------   ------------------------------
 PD  .                 GL:   PERMANENT DATUM
 EPD .F              5118:   ELEVATION PERMANENT DATUM
 LMF .                 KB:   LOG MEASURED FROM
 DAPD.F                10:   FEET ABOVE PERMANENT DATUM
 DMF .                 KB:   DRILLING MEASURED FROM
 EKB .F              5128:   KELLING BUSHING
 EDF .F              5127:   DRILLING FLOOR
 EGL .F              5118:   GROUND LEVEL
 DATE.         9-APR-1996:   RUN DATE
 RUN .                  1:   RUN NUMBER
 DD  .F               665:   DEPTH DRILLER
 DL  .F               675:   DEPTH LOGGER
 BLI .F               668:   BOTTOM LOG INTERVAL
 CS  .IN            9.625:   CASING SIZE
 CBD .F                54:   CASING BOTTOM DRILLER
 CBL .F                56:   CASING BOTTOM LOGGER
 BS  .IN             8.75:   BIT SIZE
 BSD .F               665:   BIT SIZE AT DEPTH
 DFT .                AIR:   DRILLING FLUID TYPE
 MRT .F                85:   MAXIMUM RECORDED TEMPERATURE
 LUN .            HL-6530:   LOGGING UNIT NUMBER
 LUL .             CASPER:   LOGGING UNIT LOCATION
 ENGI.        VERN RAUTIO:   RECORDING ENGINEER
 WITN.        STEVE HARDY:   WITNESSED BY
 CLNT.            A2DTECH:   CLIENT CODE
 ORIG.           5" PRINT:   ORIGIN OF DATA
 UWI .       490252277400:   UNIQUE WELL ID
 DICO. A2D Technologies, Inc.:   DIGITIZING COMPANY
~OTHER INFORMATION
~A   DEPT     RILD       RILM       CALD        GRD       ZDEN       ZCOR       PORZ         PORS 
# ...
   88.5000     7.5960     7.4580     8.9940   180.7770     2.4520    -0.0120     0.1220     0.3250
   89.0000     7.5960     7.4580     8.9940   181.0430     2.4490    -0.0160     0.1230     0.3260
   89.5000     7.5960     7.4580     8.9940   179.0720     2.4460    -0.0100     0.1230     0.3250
   90.0000     7.6500     7.4580     8.9940   178.0630     2.4450    -0.0040     0.1230     0.3230
   90.5000     7.8150     7.5950     8.9940   180.9390     2.4470    -0.0050     0.1220     0.3180
   91.0000     7.8820     7.7380     8.9940   181.8230     2.4490    -0.0060     0.1200     0.3130
   91.5000     7.8820     7.7560     8.9940   181.0070     2.4510    -0.0080     0.1190     0.3090
   92.0000     7.8820     7.7730     8.9940   179.6250     2.4530    -0.0130     0.1200     0.3090
   92.5000     7.8820     7.7910     8.9940   179.2450     2.4530    -0.0170     0.1200     0.3110
   93.0000     7.8820     7.8090     8.9940   179.7030     2.4510    -0.0220     0.1200     0.3150
   93.5000     7.8010     7.6340     8.9940   181.2290     2.4510    -0.0250     0.1200     0.3180
   94.0000     7.6640     7.4530     8.9940   182.0200     2.4510    -0.0190     0.1220     0.3220
   94.5000     7.5260     7.2980     8.9940   181.6760     2.4430    -0.0130     0.1270     0.3250
   95.0000     7.3360     7.1640     8.9940   182.5170     2.4360    -0.0110     0.1310     0.3290
   95.5000     7.0950     6.9830     8.9940   184.0580     2.4320    -0.0130     0.1310     0.3310
   96.0000     6.9850     6.8010     8.9940   182.0340     2.4320    -0.0140     0.1310     0.3310
   96.5000     6.9730     6.8010     8.9940   180.0360     2.4310    -0.0110     0.1320     0.3310
   97.0000     6.9610     6.8010     8.9940   181.6550     2.4300    -0.0080     0.1330     0.3290
   97.5000     6.9490     6.7920     8.9940   182.2160     2.4280    -0.0060     0.1330     0.3270
   98.0000     6.9370     6.7630     8.9940   181.7380     2.4310    -0.0080     0.1320     0.3280
   98.5000     6.9270     6.7340     8.9940   183.5650     2.4330    -0.0170     0.1300     0.3280
   99.0000     6.9270     6.7090     8.9940   186.3400     2.4360    -0.0120     0.1290     0.3290
   99.5000     6.8980     6.6850     8.9940   185.3960     2.4380    -0.0070     0.1290     0.3280
  100.0000     6.8320     6.6600     8.9940   184.5310     2.4360    -0.0020     0.1290     0.3290
  100.5000     6.7670     6.6350     8.9940   186.4170     2.4320     0.0040     0.1310     0.3310
  101.0000     6.7380     6.6150     8.9940   187.6690     2.4330     0.0090     0.1310     0.3330
  101.5000     6.7380     6.6540     8.9940   187.1150     2.4360     0.0030     0.1300     0.3350
  102.0000     6.8080     6.6860     8.9940   185.7510     2.4410    -0.0040     0.1280     0.3340
  102.5000     6.8740     6.7180     8.9940   183.9280     2.4460     0.0050     0.1250     0.3330
  103.0000     6.9410     6.7700     8.9940   182.4190     2.4520     0.0140     0.1220     0.3290
  103.5000     7.0120     6.8540     8.9940   183.2560     2.4520     0.0220     0.1210     0.3250
  104.0000     7.0990     6.9380     8.9940   185.6930     2.4470     0.0190     0.1200     0.3230
  104.5000     7.1850     7.0220     8.9940   185.0460     2.4400     0.0160     0.1230     0.3220
  105.0000     7.2720     7.1060     8.9940   182.7020     2.4360     0.0140     0.1270     0.3200
  105.5000     7.3730     7.2380     8.9940   179.6660     2.4380     0.0100     0.1290     0.3200
  106.0000     7.4950     7.3810     8.9940   179.4510     2.4430     0.0060     0.1280     0.3200
  106.5000     7.6160     7.5240     8.9940   179.2820     2.4480     0.0010     0.1240     0.3200
  107.0000     7.7380     7.6670     8.9940   178.0970     2.4530    -0.0010     0.1230     0.3160
  107.5000     7.7120     7.6360     8.9940   175.4550     2.4580    -0.0030     0.1210     0.3120
  108.0000     7.6870     7.6060     8.9940   173.4700     2.4590    -0.0050     0.1180     0.3080
  108.5000     7.6610     7.5750     8.9940   176.4670     2.4530    -0.0060     0.1150     0.3050
  109.0000     7.6350     7.5440     8.9940   179.9850     2.4450    -0.0040     0.1160     0.3070
  109.5000     7.6100     7.4570     8.9940   179.3430     2.4370    -0.0010     0.1210     0.3100
  110.0000     7.5180     7.2930     8.9940   179.1650     2.4360    -0.0020     0.1260     0.3130
  110.5000     7.3530     7.1220     8.9940   179.8170     2.4340    -0.0030     0.1290     0.3150
  111.0000     7.1880     7.1220     8.9940   181.9450     2.4320    -0.0050     0.1290     0.3150
  111.5000     7.1470     7.1090     8.9940   184.7570     2.4360     0.0010     0.1310     0.3160
  112.0000     7.1070     7.0930     8.9930   184.3190     2.4440     0.0100     0.1310     0.3170
  112.5000     7.0560     7.0780     8.9910   182.4820     2.4500     0.0070     0.1270     0.3170
  113.0000     7.1120     7.0580     8.9890   181.0640     2.4450     0.0040     0.1220     0.3180
  113.5000     7.1850     7.0800     8.9870   178.7870     2.4390     0.0010     0.1230     0.3180
  114.0000     7.2590     7.1220     8.9850   177.9890     2.4350     0.0070     0.1270     0.3180
  114.5000     7.3480     7.2770     8.9820   179.5050     2.4350     0.0190     0.1290     0.3150
  115.0000     7.5320     7.4480     8.9800   180.7910     2.4360     0.0310     0.1300     0.3120
  115.5000     7.7150     7.6200     8.9780   181.4680     2.4380     0.0210     0.1290     0.3100
  116.0000     7.8990     7.7910     8.9760   183.5590     2.4430     0.0080     0.1280     0.3110
  116.5000     8.0830     7.9630     8.9740   184.0780     2.4500     0.0000     0.1270     0.3120
  117.0000     8.2670     8.1340     8.9800   182.9140     2.4580    -0.0010     0.1210     0.3130
  117.5000     8.4070     8.3240     8.9870   182.2730     2.4640    -0.0010     0.1160     0.3130
  118.0000     8.3650     8.2810     8.9940   182.6040     2.4620    -0.0010     0.1130     0.3110
  118.5000     8.3210     8.2250     9.0010   182.2230     2.4590    -0.0020     0.1140     0.3110
  119.0000     8.2600     8.1680     9.0080   179.9430     2.4540    -0.0060     0.1160     0.3120
  119.5000     8.1980     8.1110     9.0130   178.0460     2.4430    -0.0140     0.1200     0.3150
  120.0000     7.9880     7.8890     9.0080   178.1820     2.4360    -0.0070     0.1240     0.3180
  120.5000     7.7030     7.6390     9.0020   178.3460     2.4390     0.0000     0.1280     0.3210
  121.0000     7.4810     7.3890     8.9960   178.3800     2.4410     0.0050     0.1280     0.3240
  121.5000     7.3610     7.2440     8.9940   176.5130     2.4410     0.0100     0.1260     0.3260
  122.0000     7.1820     7.0980     8.9940   175.6450     2.4410     0.0110     0.1260     0.3260
  122.5000     7.1080     7.0340     8.9940   178.0060     2.4430     0.0090     0.1260     0.3250
  123.0000     7.0890     6.9920     8.9940   180.9640     2.4460     0.0070     0.1250     0.3240
  123.5000     7.0700     6.9500     8.9940   181.5730     2.4490     0.0040     0.1240     0.3240
  124.0000     7.0560     6.9270     8.9940   179.3910     2.4550     0.0040     0.1220     0.3220
  124.5000     7.3890     7.2600     8.9940   177.1820     2.4610     0.0030     0.1200     0.3190
  125.0000     7.4160     7.3370     8.9940   176.4050     2.4670     0.0030     0.1160     0.3150
  125.5000     7.4430     7.3640     8.9940   175.7860     2.4810     0.0020     0.1120     0.3110
  126.0000     7.5200     7.3890     8.9940   174.5830     2.4950     0.0020     0.1070     0.3090
  126.5000     7.6510     7.5320     8.9940   174.3540     2.5010     0.0090     0.0990     0.3060
  127.0000     7.7820     7.6630     8.9940   176.7830     2.4960     0.0150     0.0920     0.3040
  127.5000     7.8910     7.7550     8.9940   178.4830     2.4780     0.0220     0.0900     0.3040
  128.0000     7.9290     7.7960     8.9940   179.4350     2.4680     0.0130     0.0970     0.3060
  128.5000     7.9640     7.8370     8.9940   180.4160     2.4590     0.0040     0.1050     0.3080
