~VERSION INFORMATION
 VERS.                2.0:   CWLS LOG ASCII STANDARD - VERSION 2.0
 WRAP.                 NO:   ONE LINE PER DEPTH STEP
~WELL INFORMATION
#MNEM.UNIT      DATA TYPE    INFORMATION
#----------   ------------   ------------------------------
 STRT.F           48.0000:   START DEPTH
 STOP.F          673.0000:   STOP DEPTH
 STEP.F            0.5000:   STEP LENGTH
 NULL.          -999.2500:   NO VALUE
 COMP. Fluor Daniel (NPOSR) Inc:   COMPANY
 WELL.      72-9-X-3 #3-3:   WELL
 FLD .             N.P.R.:   FIELD
 LOC .       S3 T38N R78W:   LOCATION
 CNTY.            NATRONA:   COUNTY
 STAT.            WYOMING:   STATE
 CTRY. UNITED STATES OF AMERICA:   COUNTRY
 SRVC.      Western Atlas:   SERVICE COMPANY
 DATE.        09-APR-1996:   LOGDATE
 API .       490252277400:   API NUMBER
~CURVE INFORMATION
#MNEM.UNIT       API CODE    CURVE DESCRIPTION
#----------   ------------   ------------------------------
 DEPT.F                  :   
 RILD.OHMM   07 120 46 00:   INDUCTION LOG DEEP RESISTIVITY
 RILM.OHMM   07 120 44 00:   INDUCTION LOG MEDIUM RESISTIVITY
 CALD.IN     45 280 60 00:   CALIPER
 GRD .GAPI   45 310 01 00:   GAMMA RAY FROM DENSITY LOG
 ZDEN.G/C3   45 350 01 00:   BULK DENSITY
 ZCOR.G/C3   45 356 01 00:   DENSITY CORRECTION
 PORZ.DEC    45 890 10 00:   DENSITY POROSITY
 PORS.DEC    42 890 01 00:   NEUTRON POROSITY LIMESTONE
~PARAMETER INFORMATION
#MNEM.UNIT          VALUE    DESCRIPTION
#----------   ------------   ------------------------------
 PD  .                 GL:   PERMANENT DATUM
 EPD .F              5118:   ELEVATION PERMANENT DATUM
 LMF .                 KB:   LOG MEASURED FROM
 DAPD.F                10:   FEET ABOVE PERMANENT DATUM
 DMF .                 KB:   DRILLING MEASURED FROM
 EKB .F              5128:   KELLING BUSHING
 EDF .F              5127:   DRILLING FLOOR
 EGL .F              5118:   GROUND LEVEL
 DATE.         9-APR-1996:   RUN DATE
 RUN .                  1:   RUN NUMBER
 DD  .F               665:   DEPTH DRILLER
 DL  .F               675:   DEPTH LOGGER
 BLI .F               668:   BOTTOM LOG INTERVAL
 CS  .IN            9.625:   CASING SIZE
 CBD .F                54:   CASING BOTTOM DRILLER
 CBL .F                56:   CASING BOTTOM LOGGER
 BS  .IN             8.75:   BIT SIZE
 BSD .F               665:   BIT SIZE AT DEPTH
 DFT .                AIR:   DRILLING FLUID TYPE
 MRT .F                85:   MAXIMUM RECORDED TEMPERATURE
 LUN .            HL-6530:   LOGGING UNIT NUMBER
 LUL .             CASPER:   LOGGING UNIT LOCATION
 ENGI.        VERN RAUTIO:   RECORDING ENGINEER
 WITN.        STEVE HARDY:   WITNESSED BY
 CLNT.            A2DTECH:   CLIENT CODE
 ORIG.           5" PRINT:   ORIGIN OF DATA
 UWI .       490252277400:   UNIQUE WELL ID
 DICO. A2D Technologies, Inc.:   DIGITIZING COMPANY
~OTHER INFORMATION
~A   DEPT     RILD       RILM       CALD        GRD       ZDEN       ZCOR       PORZ         PORS 
# ...
  129.0000     7.9930     7.8770     8.9940   180.8390     2.4580    -0.0040     0.1120     0.3080
  129.5000     8.0210     7.9180     8.9940   180.5830     2.4590     0.0030     0.1160     0.3080
  130.0000     8.0500     7.9550     8.9940   181.1260     2.4630     0.0060     0.1160     0.3080
  130.5000     8.0790     7.9820     8.9940   182.3830     2.4630     0.0100     0.1140     0.3080
  131.0000     8.1070     8.0120     8.9940   183.6100     2.4650     0.0200     0.1130     0.3080
  131.5000     8.1360     8.0420     8.9940   182.8010     2.4670     0.0240     0.1130     0.3080
  132.0000     8.1780     8.0720     8.9940   181.8420     2.4650     0.0190     0.1110     0.3070
  132.5000     8.1640     8.1030     8.9940   183.4350     2.4600     0.0100     0.1110     0.3060
  133.0000     8.1380     8.0450     8.9920   185.1620     2.4540     0.0000     0.1120     0.3050
  133.5000     8.1120     7.9850     8.9850   185.3120     2.4530     0.0020     0.1150     0.3050
  134.0000     8.0600     7.9240     8.9780   184.6460     2.4570     0.0090     0.1190     0.3070
  134.5000     7.9950     7.8640     8.9710   183.8940     2.4620     0.0220     0.1190     0.3090
  135.0000     7.9310     7.8040     8.9650   182.8300     2.4620     0.0360     0.1160     0.3120
  135.5000     7.8590     7.7430     8.9580   180.7140     2.4630     0.0360     0.1140     0.3140
  136.0000     7.7650     7.6830     8.9600   178.9210     2.4650     0.0340     0.1130     0.3160
  136.5000     7.7250     7.6220     8.9780   179.1040     2.4660     0.0240     0.1140     0.3170
  137.0000     7.7010     7.5870     8.9950   181.2620     2.4580     0.0130     0.1130     0.3170
  137.5000     7.6770     7.5690     9.0130   183.2980     2.4500     0.0100     0.1120     0.3170
  138.0000     7.6530     7.5520     9.0040   184.5190     2.4450     0.0180     0.1140     0.3180
  138.5000     7.6290     7.5340     8.9920   184.4430     2.4480     0.0250     0.1190     0.3210
  139.0000     7.6050     7.5170     8.9810   183.3120     2.4530     0.0270     0.1240     0.3230
  139.5000     7.5810     7.5000     8.9740   183.7650     2.4570     0.0140     0.1240     0.3260
  140.0000     7.5570     7.4820     8.9740   184.6740     2.4570     0.0020     0.1200     0.3290
  140.5000     7.5270     7.4580     8.9740   184.3710     2.4540     0.0010     0.1170     0.3310
  141.0000     7.5570     7.4760     8.9740   180.5190     2.4500     0.0000     0.1170     0.3300
  141.5000     7.5970     7.5090     8.9740   178.6850     2.4490    -0.0010     0.1180     0.3310
  142.0000     7.6380     7.5420     8.9740   178.4560     2.4490    -0.0030     0.1200     0.3320
  142.5000     7.6780     7.5750     8.9740   180.8290     2.4490    -0.0040     0.1220     0.3330
  143.0000     7.7180     7.6080     8.9760   183.7060     2.4490    -0.0050     0.1210     0.3320
  143.5000     7.7580     7.6410     8.9810   183.0830     2.4490    -0.0060     0.1200     0.3290
  144.0000     7.7980     7.6740     8.9850   179.7240     2.4490    -0.0040     0.1210     0.3290
  144.5000     7.8460     7.7070     8.9900   177.6770     2.4500    -0.0020     0.1220     0.3280
  145.0000     7.8970     7.7400     8.9940   177.2270     2.4500     0.0010     0.1210     0.3260
  145.5000     7.9480     7.7730     8.9940   177.2720     2.4500     0.0060     0.1200     0.3240
  146.0000     7.9700     7.8090     8.9940   180.0030     2.4490     0.0100     0.1230     0.3240
  146.5000     7.9870     7.8340     8.9940   181.2270     2.4470     0.0130     0.1240     0.3240
  147.0000     8.0050     7.8610     8.9940   178.7680     2.4480     0.0160     0.1230     0.3240
  147.5000     8.0230     7.8890     8.9940   176.1520     2.4510     0.0070     0.1200     0.3230
  148.0000     8.0660     7.9160     8.9920   178.3990     2.4540    -0.0030     0.1180     0.3230
  148.5000     8.1220     7.9430     8.9900   182.3930     2.4590    -0.0100     0.1150     0.3220
  149.0000     8.1780     8.0310     8.9880   184.7460     2.4660    -0.0030     0.1110     0.3200
  149.5000     8.3070     8.1640     8.9860   184.3590     2.4730     0.0030     0.1070     0.3170
  150.0000     8.4370     8.2970     8.9840   183.7210     2.4720     0.0090     0.1060     0.3160
  150.5000     8.5660     8.4300     8.9830   185.5790     2.4670    -0.0050     0.1110     0.3140
  151.0000     8.6960     8.5640     8.9810   187.7360     2.4620    -0.0050     0.1150     0.3120
  151.5000     8.7400     8.6490     8.9790   186.7970     2.4600     0.0020     0.1160     0.3110
  152.0000     8.7680     8.6650     8.9770   183.6420     2.4580     0.0030     0.1170     0.3100
  152.5000     8.7960     8.6820     8.9750   182.5630     2.4570     0.0050     0.1170     0.3090
  153.0000     8.8240     8.6980     8.9740   185.1590     2.4580     0.0110     0.1180     0.3070
  153.5000     8.8520     8.7140     8.9750   188.2230     2.4540     0.0110     0.1200     0.3050
  154.0000     8.8810     8.7350     8.9770   191.0330     2.4490     0.0060     0.1240     0.3050
  154.5000     8.9480     8.7650     8.9780   192.8960     2.4450     0.0040     0.1240     0.3050
  155.0000     9.0230     8.7950     8.9790   194.0050     2.4460     0.0160     0.1230     0.3180
  155.5000     9.0990     8.8920     8.9810   191.7190     2.4490     0.0120     0.1200     0.3010
  156.0000     9.1740     9.0160     8.9820   189.4450     2.4530     0.0050     0.1190     0.3000
  156.5000     9.2880     9.1400     8.9830   189.4260     2.4550    -0.0030     0.1180     0.2980
  157.0000     9.4580     9.2640     8.9840   190.4700     2.4560    -0.0070     0.1170     0.2940
  157.5000     9.6280     9.4380     8.9860   191.2570     2.4600    -0.0020     0.1150     0.2910
  158.0000     9.7980     9.6370     8.9870   188.0650     2.4620     0.0030     0.1150     0.2910
  158.5000     9.9680     9.8350     8.9880   184.5230     2.4600     0.0060     0.1160     0.2910
  159.0000    10.1380    10.0340     8.9900   181.7260     2.4570     0.0040     0.1170     0.2900
  159.5000    10.2980    10.2320     8.9910   180.7790     2.4580     0.0020     0.1170     0.2870
  160.0000    10.5140    10.4310     8.9920   179.9170     2.4580     0.0010     0.1180     0.2800
  160.5000    10.7190    10.6290     8.9940   177.7070     2.4570     0.0060     0.1160     0.2730
  161.0000    10.9240    10.8280     8.9920   177.3450     2.4620     0.0110     0.1110     0.2670
  161.5000    11.0930    10.9900     8.9880   180.3960     2.4720     0.0160     0.1050     0.2600
  162.0000    11.1240    11.0200     8.9850   183.9590     2.4790     0.0050     0.1050     0.2660
  162.5000    11.1550    11.0490     8.9820   183.7710     2.4750     0.0020     0.1090     0.2720
  163.0000    11.1890    11.0860     8.9790   180.7070     2.4690     0.0030     0.1130     0.2780
  163.5000    11.0830    10.9560     8.9750   178.9470     2.4620     0.0030     0.1150     0.2800
  164.0000    10.9710    10.7820     8.9820   179.6630     2.4580     0.0040     0.1170     0.2820
  164.5000    10.8600    10.6340     9.0050   181.9750     2.4560     0.0020     0.1180     0.2840
  165.0000    10.7480    10.5200     9.0290   183.8320     2.4550     0.0030     0.1170     0.2860
  165.5000    10.6360    10.4070     8.9880   184.2070     2.4580     0.0050     0.1160     0.2880
  166.0000    10.5240    10.2930     8.9740   182.1110     2.4590     0.0110     0.1160     0.2880
  166.5000    10.4120    10.2030     8.9740   180.5840     2.4590     0.0180     0.1150     0.2870
  167.0000    10.2980    10.1720     8.9750   182.3890     2.4610     0.0240     0.1130     0.2870
  167.5000    10.3230    10.1420     8.9760   184.9850     2.4660     0.0240     0.1090     0.2910
  168.0000    10.3460    10.1120     8.9760   186.9530     2.4750     0.0190     0.1050     0.2960
  168.5000    10.3700    10.0810     8.9770   187.3910     2.4780     0.0140     0.1030     0.3000
  169.0000    10.3930    10.0510     8.9770   188.0790     2.4800     0.0080     0.1020     0.3000
