~VERSION INFORMATION
 VERS.                2.0:   CWLS LOG ASCII STANDARD - VERSION 2.0
 WRAP.                 NO:   ONE LINE PER DEPTH STEP
~WELL INFORMATION
#MNEM.UNIT      DATA TYPE    INFORMATION
#----------   ------------   ------------------------------
 STRT.F           48.0000:   START DEPTH
 STOP.F          673.0000:   STOP DEPTH
 STEP.F            0.5000:   STEP LENGTH
 NULL.          -999.2500:   NO VALUE
 COMP. Fluor Daniel (NPOSR) Inc:   COMPANY
 WELL.      72-9-X-3 #3-3:   WELL
 FLD .             N.P.R.:   FIELD
 LOC .       S3 T38N R78W:   LOCATION
 CNTY.            NATRONA:   COUNTY
 STAT.            WYOMING:   STATE
 CTRY. UNITED STATES OF AMERICA:   COUNTRY
 SRVC.      Western Atlas:   SERVICE COMPANY
 DATE.        09-APR-1996:   LOGDATE
 API .       490252277400:   API NUMBER
~CURVE INFORMATION
#MNEM.UNIT       API CODE    CURVE DESCRIPTION
#----------   ------------   ------------------------------
 DEPT.F                  :   
 RILD.OHMM   07 120 46 00:   INDUCTION LOG DEEP RESISTIVITY
 RILM.OHMM   07 120 44 00:   INDUCTION LOG MEDIUM RESISTIVITY
 CALD.IN     45 280 60 00:   CALIPER
 GRD .GAPI   45 310 01 00:   GAMMA RAY FROM DENSITY LOG
 ZDEN.G/C3   45 350 01 00:   BULK DENSITY
 ZCOR.G/C3   45 356 01 00:   DENSITY CORRECTION
 PORZ.DEC    45 890 10 00:   DENSITY POROSITY
 PORS.DEC    42 890 01 00:   NEUTRON POROSITY LIMESTONE
~PARAMETER INFORMATION
#MNEM.UNIT          VALUE    DESCRIPTION
#----------   ------------   ------------------------------
 PD  .                 GL:   PERMANENT DATUM
 EPD .F              5118:   ELEVATION PERMANENT DATUM
 LMF .                 KB:   LOG MEASURED FROM
 DAPD.F                10:   FEET ABOVE PERMANENT DATUM
 DMF .                 KB:   DRILLING MEASURED FROM
 EKB .F              5128:   KELLING BUSHING
 EDF .F              5127:   DRILLING FLOOR
 EGL .F              5118:   GROUND LEVEL
 DATE.         9-APR-1996:   RUN DATE
 RUN .                  1:   RUN NUMBER
 DD  .F               665:   DEPTH DRILLER
 DL  .F               675:   DEPTH LOGGER
 BLI .F               668:   BOTTOM LOG INTERVAL
 CS  .IN            9.625:   CASING SIZE
 CBD .F                54:   CASING BOTTOM DRILLER
 CBL .F                56:   CASING BOTTOM LOGGER
 BS  .IN             8.75:   BIT SIZE
 BSD .F               665:   BIT SIZE AT DEPTH
 DFT .                AIR:   DRILLING FLUID TYPE
 MRT .F                85:   MAXIMUM RECORDED TEMPERATURE
 LUN .            HL-6530:   LOGGING UNIT NUMBER
 LUL .             CASPER:   LOGGING UNIT LOCATION
 ENGI.        VERN RAUTIO:   RECORDING ENGINEER
 WITN.        STEVE HARDY:   WITNESSED BY
 CLNT.            A2DTECH:   CLIENT CODE
 ORIG.           5" PRINT:   ORIGIN OF DATA
 UWI .       490252277400:   UNIQUE WELL ID
 DICO. A2D Technologies, Inc.:   DIGITIZING COMPANY
~OTHER INFORMATION
~A   DEPT     RILD       RILM       CALD        GRD       ZDEN       ZCOR       PORZ         PORS 
# ...
  331.5000     8.1170     7.9120     9.0070   186.1470     2.4610     0.0170     0.1150     0.3040
  332.0000     8.1700     7.9600     9.0090   184.4980     2.4590     0.0170     0.1120     0.3050
  332.5000     8.2230     8.0080     9.0000   185.6280     2.4640     0.0140     0.1100     0.3070
  333.0000     8.2760     8.0570     8.9900   186.0660     2.4690     0.0050     0.1100     0.3070
  333.5000     8.3290     8.1050     8.9810   185.3360     2.4690     0.0000     0.1110     0.3050
  334.0000     8.3820     8.1530     8.9740   184.0050     2.4680     0.0000     0.1100     0.3030
  334.5000     8.4350     8.2170     8.9740   181.8990     2.4680     0.0000     0.1080     0.3010
  335.0000     8.4890     8.2960     8.9740   180.3030     2.4710     0.0000     0.1080     0.3000
  335.5000     8.5640     8.4070     8.9740   178.1030     2.4710     0.0000     0.1110     0.2980
  336.0000     8.5410     8.3810     8.9740   177.7870     2.4670    -0.0010     0.1140     0.2970
  336.5000     8.5020     8.3360     8.9740   178.7340     2.4620    -0.0020     0.1140     0.2970
  337.0000     8.4630     8.2910     8.9740   180.2040     2.4610    -0.0040     0.1120     0.2960
  337.5000     8.4240     8.2460     8.9740   180.4470     2.4670    -0.0050     0.1060     0.2960
  338.0000     8.3850     8.2010     8.9740   180.4280     2.4760    -0.0030     0.0980     0.2960
  338.5000     8.3470     8.1570     8.9740   179.1850     2.4920     0.0040     0.0880     0.2960
  339.0000     8.3300     8.1120     8.9740   177.1970     2.5090     0.0180     0.0790     0.2970
  339.5000     8.3300     8.0790     8.9740   175.4720     2.5210     0.0300     0.0790     0.2990
  340.0000     8.3300     8.0410     8.9740   174.8300     2.5150     0.0340     0.0910     0.2990
  340.5000     8.3300     7.9670     8.9740   176.3360     2.4960     0.0270     0.1010     0.2990
  341.0000     8.3300     7.8390     8.9740   176.7900     2.4780     0.0170     0.1080     0.3000
  341.5000     8.2030     7.7110     8.9740   176.2520     2.4690     0.0070     0.1120     0.3000
  342.0000     8.0280     7.5830     8.9740   175.6460     2.4650     0.0110     0.1150     0.3010
  342.5000     7.6810     7.4580     8.9740   177.6030     2.4590     0.0160     0.1180     0.3030
  343.0000     7.3290     7.0630     8.9740   180.4910     2.4540     0.0220     0.1180     0.3060
  343.5000     6.9770     6.6760     8.9740   183.7290     2.4540     0.0180     0.1190     0.3120
  344.0000     6.5800     6.2890     8.9740   185.9340     2.4510     0.0130     0.1240     0.3180
  344.5000     6.1110     5.8210     8.9740   187.6820     2.4400     0.0080     0.1300     0.3240
  345.0000     5.4810     5.1940     8.9740   189.4500     2.4290     0.0080     0.1370     0.3300
  345.5000     4.8510     4.5750     8.9740   191.2520     2.4180     0.0080     0.1430     0.3380
  346.0000     4.2550     3.9860     8.9740   190.6810     2.4030     0.0080     0.1560     0.3470
  346.5000     3.7050     3.4030     8.9740   189.9360     2.3730     0.0050     0.1780     0.3580
  347.0000     3.1550     2.8200     8.9740   188.8700     2.3390    -0.0010     0.2010     0.3680
  347.5000     2.6050     2.4680     8.9740   187.6680     2.2940    -0.0060     0.2280     0.3790
  348.0000     2.3130     2.2490     8.9740   185.7930     2.2490    -0.0050     0.2540     0.3870
  348.5000     2.3040     2.2810     8.9740   183.5370     2.2010     0.0140     0.2780     0.3840
  349.0000     2.2910     2.3080     8.9740   181.3820     2.1820     0.0320     0.2840     0.3700
  349.5000     2.3140     2.4280     8.9740   180.4340     2.2040     0.0360     0.2710     0.3540
  350.0000     2.3630     2.5660     8.9740   181.4510     2.2600     0.0260     0.2430     0.3360
  350.5000     2.5670     2.8780     8.9740   183.6580     2.3200     0.0180     0.2100     0.3440
  351.0000     2.9840     3.3480     8.9740   185.6730     2.3460     0.0270     0.1880     0.3530
  351.5000     3.5140     3.8180     8.9740   184.5280     2.3620     0.0330     0.1780     0.3550
  352.0000     4.0440     4.3290     8.9740   183.3410     2.4050     0.0300     0.1610     0.3430
  352.5000     4.5740     4.8180     8.9740   187.1950     2.4430     0.0020     0.1400     0.3310
  353.0000     5.1040     5.3550     8.9740   193.3660     2.4500    -0.0080     0.1250     0.3280
  353.5000     5.5890     5.7200     8.9790   195.7040     2.4500     0.0010     0.1200     0.3280
  354.0000     5.9370     5.9860     8.9890   192.7120     2.4500     0.0100     0.1210     0.3300
  354.5000     6.2850     6.2590     9.0000   190.2490     2.4510     0.0140     0.1210     0.3320
  355.0000     6.5370     6.2940     9.0100   191.5080     2.4530     0.0160     0.1210     0.3330
  355.5000     6.6430     6.3300     9.0070   192.4820     2.4590     0.0100     0.1200     0.3340
  356.0000     6.6770     6.3660     8.9910   191.5060     2.4610     0.0040     0.1180     0.3370
  356.5000     6.6550     6.4390     8.9760   190.6650     2.4620     0.0000     0.1150     0.3390
  357.0000     6.6320     6.5550     8.9600   189.7500     2.4630    -0.0040     0.1140     0.3380
  357.5000     6.5290     6.5250     8.9550   187.1860     2.4620    -0.0020     0.1130     0.3360
  358.0000     6.2030     6.3990     8.9580   187.2160     2.4530     0.0000     0.1120     0.3320
  358.5000     5.8770     6.0990     8.9600   191.2110     2.4330     0.0010     0.1130     0.3320
  359.0000     5.5520     5.7980     8.9630   196.5500     2.4040    -0.0050     0.1160     0.3340
  359.5000     5.2540     5.4970     8.9650   200.6260     2.3700    -0.0060     0.1240     0.3410
  360.0000     4.9910     5.1960     8.9680   201.4960     2.3510     0.0000     0.1420     0.3560
  360.5000     4.7470     4.8950     8.9700   198.5080     2.3580     0.0060     0.1650     0.3680
  361.0000     4.6910     4.7470     8.9730   196.6080     2.3810     0.0100     0.1820     0.3640
  361.5000     4.6600     4.7860     8.9740   193.0550     2.4000     0.0280     0.1760     0.3520
  362.0000     4.6170     4.8700     8.9740   188.6320     2.4050     0.0450     0.1620     0.3390
  362.5000     4.6540     4.9530     8.9740   184.2210     2.4140     0.0380     0.1500     0.3340
  363.0000     4.7690     5.0810     8.9740   183.9150     2.4290     0.0160     0.1470     0.3300
  363.5000     5.0430     5.3480     8.9740   186.6840     2.4430    -0.0060     0.1420     0.3270
  364.0000     5.3170     5.6150     8.9740   188.4480     2.4510    -0.0100     0.1330     0.3340
  364.5000     5.5900     5.8820     8.9740   187.8840     2.4610    -0.0020     0.1250     0.3380
  365.0000     5.8640     6.1490     8.9740   187.2470     2.4750     0.0040     0.1200     0.3350
  365.5000     6.1380     6.4160     8.9740   187.2420     2.4840     0.0030     0.1120     0.3270
  366.0000     6.4120     6.6830     8.9740   189.3000     2.4860     0.0020     0.1050     0.3190
  366.5000     6.6860     6.9500     8.9740   191.4570     2.4800     0.0020     0.1000     0.3190
  367.0000     6.9600     7.2170     8.9740   192.2950     2.4750     0.0020     0.1000     0.3190
  367.5000     7.2540     7.4850     8.9740   190.0670     2.4690    -0.0010     0.1030     0.3170
  368.0000     7.4550     7.7520     8.9740   187.4020     2.4590    -0.0020     0.1080     0.3150
  368.5000     7.6670     7.8090     8.9740   186.4370     2.4460     0.0030     0.1110     0.3130
  369.0000     7.5980     7.8090     8.9740   188.4810     2.4360     0.0120     0.1180     0.3130
  369.5000     7.5270     7.6840     8.9740   192.1620     2.4390     0.0100     0.1250     0.3130
  370.0000     7.3760     7.5680     8.9740   195.7900     2.4440     0.0050     0.1300     0.3150
  370.5000     7.2140     7.4510     8.9730   196.3910     2.4460    -0.0060     0.1280     0.3190
  371.0000     7.1010     7.3340     8.9720   195.9600     2.4440    -0.0020     0.1240     0.3240
  371.5000     6.9920     7.1370     8.9710   195.4750     2.4430     0.0030     0.1230     0.3280
